~VERSION INFORMATION
 VERS.                 2.0:   CWLS LOG ASCII STANDARD - VERSION 2.0
 WRAP.                  NO:   SINGLE LINE PER DEPTH STEP
~WELL INFORMATION
#MNEM.UNIT       DATA           DESCRIPTION MNEMONIC
#---------    -------------   --------------------------
 STRT.M         0.0000                        : START DEPTH
 STOP.M         998.0000                      : STOP DEPTH
 STEP.M         0.1000                        : STEP VALUE
 NULL.          -999.0000                     : NULL VALUE
 SRVC.          SCH                           : Service Company/Logging company
 DATE.          08.08.2023                    : LAS file Creation Date
 WELL    .      Каратобе КН-3                 : Well Name
 COMP    .      COMPANY                       : Company
 FLD     .      Каратобе                      : Field
 STATE   .      1                             : State
 COUNT   .      Kazakhstan                    : Country
~CURVE INFORMATION
#MNEM          UNIT     API CODE   Description
#---------- ---------- ----------  -----------
 DEPTH     .M                    : Depth Index
 BSC       .mm                   : Nominal Caliper
 CALI      .mm                   : Caliper
 GR        .gAPI                 : Gamma Ray
 URAN      .PPM                  : Uranium
 THOR      .PPM                  : Thorium
 POTA      .%                    : Potasium
 DT        .uSec/m               : Sonic travel time
 HAZIM     .deg                  : Hole Azimuth
 SDEVM     .deg                  : Hole Deviation
 RHOZ      .g/cm3                : Bulk Density
 PEFZ      .B/E                  : Formation Photoelectric Factor 
 TNPH      .v/v                  : Neutron porosity
 AT10      .ohm.m                : 10" Array Induction, two foot resolution Resistivity
 AT20      .ohm.m                : 20" Array Induction, two foot resolution Resistivity
 AT30      .ohm.m                : 30" Array Induction, two foot resolution Resistivity
 AT60      .ohm.m                : 60" Array Induction, two foot resolution Resistivity
 AT90      .ohm.m                : 90" Array Induction, two foot resolution Resistivity
 RLA1      .ohm.m                : HRLT Borehole Corrected Resistivity 1
 RLA2      .ohm.m                : HRLT Borehole Corrected Resistivity 2
 RLA3      .ohm.m                : HRLT Borehole Corrected Resistivity 3
 RLA4      .ohm.m                : HRLT Borehole Corrected Resisitivity 4
 RLA5      .ohm.m                : HRLT Borehole Corrected Resistivity 5 
 RT        .ohm.m                : Formation Resistivity
 RXO       .ohm.m                : Flushed zone resistivity
 AHMF      .ohm.m                : Array Induction Mud Resistivity Fully Calibrated
 SP        .mV                   : Spontaneous Potential
 MTEM      .degC                 : Formation Temperature
 HMIN      .ohm.m                : HIP Micro Inverse Resistivity
 HMNO      .ohm.m                : HIP Micro Normal Resistivity
~A Log data section
# ...
 261.9000  215.9000  231.5000   86.7325    1.6665   10.3280    2.3754  528.9097   15.4033    0.4419    2.2387    3.8799    0.4698    0.7956    3.1893    3.7405    5.8024    5.7793    4.8541    4.9293    5.1701    5.2592    5.1629    5.3321    3.8279    0.0596 -136.9653   33.4633    0.5032    0.4364 
 262.0000  215.9000  226.8000   84.5293    1.6598   10.2297    2.3803  531.5867   15.0997    0.4400    2.2568    3.8611    0.4646    0.7883    3.0497    3.5878    5.3983    5.3967    4.5193    4.6064    4.8379    4.9212    4.8343    5.0005    3.5637    0.0597 -137.3593   33.4595    0.5841    0.4991 
 262.1000  215.9000  228.4000   85.8956    1.6945   10.2397    2.4455  539.4223   14.8701    0.4382    2.2253    3.6988    0.4971    0.7768    2.8666    3.3303    4.8915    4.6272    4.0126    3.9553    4.1323    4.1939    4.1199    4.1230    3.8677    0.0597 -138.1152   33.4670    0.4641    0.4596 
 262.2000  215.9000  231.6000   87.3244    1.7721   10.1339    2.4192  549.5359   14.6378    0.4341    2.1720    3.4516    0.5148    0.7684    2.7103    3.1049    4.3719    4.0398    4.1266    3.9444    4.0828    4.1238    4.0531    4.0701    4.0321    0.0597 -138.9737   33.4744    0.4226    0.4001 
 262.3000  215.9000  234.4000   89.1512    1.8536   10.1105    2.3874  559.8114   14.4231    0.4298    2.1093    3.1683    0.5251    0.7756    2.7576    3.1700    4.4408    4.0380    4.1188    4.1028    4.2483    4.2797    4.2157    4.2273    3.8712    0.0598 -139.8387   33.4774    0.4406    0.4130 
 262.4000  215.9000  232.3000   92.4725    1.8846   10.5967    2.4756  567.1903   14.2827    0.4288    2.0484    2.9136    0.5287    0.7751    2.7187    3.1563    4.4769    4.1107    4.1353    4.1517    4.2942    4.3148    4.2571    4.2592    3.9618    0.0598 -140.5709   33.4626    0.4342    0.4053 
 262.5000  215.9000  228.3000   92.9889    1.8435   10.7808    2.5514  571.5005   14.3081    0.4279    2.0216    2.7489    0.5294    0.7727    2.7140    3.1014    4.3634    4.0062    4.2038    4.1757    4.3013    4.3119    4.2522    4.2582    4.2480    0.0598 -141.3042   33.4627    0.4486    0.4259 
 262.6000  215.9000  224.0000   92.4672    1.7845   10.8331    2.6109  574.7096   14.5550    0.4267    2.0120    2.6938    0.5304    0.7835    2.6495    3.1111    4.4355    4.0716    4.2403    4.0908    4.1878    4.1886    4.1222    4.1429    4.3890    0.0598 -142.0717   33.4724    0.4482    0.4291 
 262.7000  215.9000  225.3000   93.8925    1.8256   10.9828    2.6125  580.2433   15.5943    0.4235    2.0049    2.6918    0.5416    0.7768    2.5602    2.9757    4.1280    3.7954    4.0277    3.8876    3.9695    3.9588    3.8921    3.9273    4.1140    0.0598 -143.0300   33.4947    0.4293    0.4034 
 262.8000  215.9000  224.7000   95.6202    1.7539   10.8834    2.6411  582.9016   16.1079    0.4224    2.0036    2.7140    0.5462    0.7739    2.4884    2.8369    3.8455    3.5507    3.8825    3.8255    3.9019    3.8899    3.8239    3.8671    3.8377    0.0598 -143.7394   33.4892    0.4148    0.3867 
 262.9000  215.9000  222.9000   97.4898    1.6276   10.6610    2.6858  584.0588   16.2970    0.4223    1.9994    2.7494    0.5464    0.7704    2.4362    2.7593    3.7094    3.4153    3.7112    3.7162    3.7930    3.7754    3.7048    3.7405    3.7125    0.0598 -144.2929   33.4698    0.4181    0.3898 
 263.0000  215.9000  225.1000   98.9701    1.6320   10.7033    2.7261  587.5677   16.4659    0.4204    1.9967    2.7958    0.5440    0.7668    2.4429    2.7537    3.6847    3.4327    3.6377    3.6316    3.7242    3.6981    3.6188    3.6656    3.6765    0.0598 -144.8180   33.4773    0.4212    0.3906 
 263.1000  215.9000  225.1000   97.7178    1.5757   10.8301    2.7451  590.9089   16.4707    0.4173    2.0016    2.8237    0.5306    0.7633    2.4123    2.7045    3.5960    3.3780    3.6392    3.6084    3.7009    3.6651    3.5772    3.6393    3.6581    0.0597 -145.2645   33.4890    0.4358    0.4056 
 263.2000  215.9000  223.3000   94.5460    1.4751   11.0027    2.7469  594.0734   16.3724    0.4134    2.0044    2.8658    0.5118    0.7599    2.3991    2.6908    3.5583    3.3411    3.6220    3.6279    3.7244    3.6914    3.5978    3.6517    3.6593    0.0597 -145.6411   33.5026    0.4441    0.4168 
 263.3000  215.9000  223.6000   92.4964    1.3707   10.8837    2.7145  596.1863   16.5689    0.4108    2.0037    2.9121    0.5426    0.7588    2.4177    2.6825    3.5483    3.3773    3.6942    3.6696    3.7703    3.7385    3.6360    3.7009    3.7757    0.0597 -145.7708   33.4930    0.4546    0.4302 
 263.4000  215.9000  224.8000   91.1015    1.2437   10.6454    2.7005  597.0311   16.2642    0.4079    2.0058    2.9429    0.5682    0.7567    2.3781    2.6358    3.4484    3.3678    3.7554    3.6701    3.7688    3.7377    3.6253    3.6915    3.8939    0.0597 -145.9200   33.4910    0.4720    0.4388 
 263.5000  215.9000  226.8000   90.2870    1.0968   10.3013    2.7026  596.7513   15.5150    0.4050    2.0081    2.9672    0.5891    0.7474    2.3112    2.5445    3.3053    3.2738    3.7219    3.6736    3.7760    3.7443    3.6327    3.7072    3.7642    0.0598 -146.0865   33.4956    0.4696    0.4338 
 263.6000  215.9000  229.5000   91.8994    1.1091   10.2109    2.7084  596.3603   15.5588    0.4010    2.0105    2.9828    0.6260    0.7532    2.3538    2.5616    3.3147    3.2621    3.7236    3.7137    3.8213    3.7900    3.6744    3.7481    3.7351    0.0598 -146.1308   33.4909    0.4419    0.4129 
 263.7000  215.9000  229.9000   92.7729    1.1086   10.1649    2.6916  596.2731   15.4793    0.3964    2.0130    2.9750    0.6178    0.7570    2.4053    2.6479    3.4533    3.3285    3.7099    3.7212    3.8361    3.8079    3.6803    3.7504    3.7499    0.0598 -146.1085   33.4860    0.4406    0.4137 
 263.8000  215.9000  227.8000   92.8458    1.0944   10.1671    2.6505  596.5150   15.2663    0.3910    2.0177    2.9496    0.5606    0.7593    2.4819    2.7183    3.5537    3.3707    3.7392    3.7360    3.8508    3.8270    3.6952    3.7707    3.8403    0.0598 -146.0142   33.4806    0.4103    0.3746 
 263.9000  215.9000  229.7000   92.7184    1.0021   10.3667    2.7436  596.3068   15.1230    0.3835    2.0211    2.9124    0.5420    0.7633    2.4912    2.6820    3.5194    3.3262    3.8687    3.7984    3.9090    3.8819    3.7425    3.8160    4.0790    0.0598 -146.0551   33.4875    0.3967    0.3576 
 264.0000  215.9000  230.1000   93.4206    0.9055   10.5581    2.8352  596.2988   14.9308    0.3762    2.0193    2.8867    0.5307    0.7649    2.5265    2.7114    3.6245    3.3904    3.9591    3.8509    3.9577    3.9359    3.7889    3.8481    4.2471    0.0598 -146.0681   33.5014    0.3958    0.3582 
 264.1000  215.9000  227.3000   95.2333    0.8074   10.7277    2.9175  596.5809   14.6701    0.3691    2.0149    2.8681    0.5268    0.7647    2.5243    2.7802    3.8526    3.5500    3.9046    3.8322    3.9372    3.9203    3.7666    3.8456    4.1069    0.0597 -146.0365   33.5238    0.4045    0.3705 
 264.2000  215.9000  227.6000   95.0217    0.9533   10.5199    2.8855  596.9280   14.3143    0.3647    2.0089    2.8535    0.5399    0.7677    2.5465    2.7781    3.8812    3.5896    3.9913    3.9094    4.0154    4.0016    3.8403    3.9012    4.3554    0.0597 -145.9936   33.5056    0.3990    0.3630 
 264.3000  215.9000  228.9000   94.2351    1.0726   10.3123    2.8638  597.3237   13.9870    0.3605    2.0010    2.8385    0.5565    0.7546    2.5683    2.8346    4.0331    3.7517    4.0733    3.8716    3.9699    3.9585    3.8003    3.7629    4.7100    0.0597 -145.9483   33.4989    0.4044    0.3698 
 264.4000  215.9000  231.1000   92.8368    1.1091   10.1660    2.8775  597.7882   13.7216    0.3559    1.9933    2.8184    0.5759    0.7449    2.4391    2.7222    3.8302    3.6061    3.9543    3.8059    3.9080    3.9008    3.7472    3.7745    4.3664    0.0597 -145.9008   33.5175    0.4316    0.4058 
 264.5000  215.9000  233.3000   92.2572    1.1426   10.4774    2.8116  597.9694   13.6018    0.3513    1.9851    2.8113    0.5774    0.7358    2.3398    2.5724    3.5394    3.3146    3.9075    3.7647    3.8635    3.8563    3.7098    3.7352    4.3215    0.0597 -145.6358   33.5234    0.4330    0.4132 
