~VERSION INFORMATION
 VERS.                 2.0:   CWLS LOG ASCII STANDARD - VERSION 2.0
 WRAP.                  NO:   SINGLE LINE PER DEPTH STEP
~WELL INFORMATION
#MNEM.UNIT       DATA           DESCRIPTION MNEMONIC
#---------    -------------   --------------------------
 STRT.M         0.0000                        : START DEPTH
 STOP.M         998.0000                      : STOP DEPTH
 STEP.M         0.1000                        : STEP VALUE
 NULL.          -999.0000                     : NULL VALUE
 SRVC.          SCH                           : Service Company/Logging company
 DATE.          08.08.2023                    : LAS file Creation Date
 WELL    .      Каратобе КН-3                 : Well Name
 COMP    .      COMPANY                       : Company
 FLD     .      Каратобе                      : Field
 STATE   .      1                             : State
 COUNT   .      Kazakhstan                    : Country
~CURVE INFORMATION
#MNEM          UNIT     API CODE   Description
#---------- ---------- ----------  -----------
 DEPTH     .M                    : Depth Index
 BSC       .mm                   : Nominal Caliper
 CALI      .mm                   : Caliper
 GR        .gAPI                 : Gamma Ray
 URAN      .PPM                  : Uranium
 THOR      .PPM                  : Thorium
 POTA      .%                    : Potasium
 DT        .uSec/m               : Sonic travel time
 HAZIM     .deg                  : Hole Azimuth
 SDEVM     .deg                  : Hole Deviation
 RHOZ      .g/cm3                : Bulk Density
 PEFZ      .B/E                  : Formation Photoelectric Factor 
 TNPH      .v/v                  : Neutron porosity
 AT10      .ohm.m                : 10" Array Induction, two foot resolution Resistivity
 AT20      .ohm.m                : 20" Array Induction, two foot resolution Resistivity
 AT30      .ohm.m                : 30" Array Induction, two foot resolution Resistivity
 AT60      .ohm.m                : 60" Array Induction, two foot resolution Resistivity
 AT90      .ohm.m                : 90" Array Induction, two foot resolution Resistivity
 RLA1      .ohm.m                : HRLT Borehole Corrected Resistivity 1
 RLA2      .ohm.m                : HRLT Borehole Corrected Resistivity 2
 RLA3      .ohm.m                : HRLT Borehole Corrected Resistivity 3
 RLA4      .ohm.m                : HRLT Borehole Corrected Resisitivity 4
 RLA5      .ohm.m                : HRLT Borehole Corrected Resistivity 5 
 RT        .ohm.m                : Formation Resistivity
 RXO       .ohm.m                : Flushed zone resistivity
 AHMF      .ohm.m                : Array Induction Mud Resistivity Fully Calibrated
 SP        .mV                   : Spontaneous Potential
 MTEM      .degC                 : Formation Temperature
 HMIN      .ohm.m                : HIP Micro Inverse Resistivity
 HMNO      .ohm.m                : HIP Micro Normal Resistivity
~A Log data section
# ...
 880.2000  215.9000  249.6000   71.0310    0.2776    6.8536    2.5115  310.6782    5.7214    0.3032    2.2544    3.0786    0.3487    0.5977    3.0964    3.8943    3.6370    2.5580    2.4517    2.7706    2.8785    2.9110    2.7789    3.1880    1.5823    0.0523 -165.5282   38.7648    0.3120    0.2777 
 880.3000  215.9000  232.9000   71.1596    0.1865    6.7707    2.4335  310.2244    7.3938    0.2990    2.3521    3.2335    0.3353    0.5514    3.2772    4.1863    3.5836    2.3120    2.6111    2.8860    3.0051    3.0332    2.8787    3.2024    1.8131    0.0523 -165.7067   38.7648    0.3519    0.3134 
 880.4000  215.9000  225.4000   70.5983    0.0569    6.6522    2.3936  310.5635    7.8884    0.3001    2.3855    3.3425    0.3289    0.5097    2.8488    3.6385    3.0177    2.4432    2.6770    2.8265    3.0303    3.0292    2.8600    3.0552    2.0315    0.0523 -165.7067   38.7648    0.2784    0.2443 
 880.5000  215.9000  227.6000   71.1954   -0.0389    6.9502    2.4555  306.7319    8.3197    0.3070    2.4143    3.4097    0.3061    0.5010    3.2266    3.6488    3.1141    3.5038    2.9859    3.1428    3.3961    3.3885    3.1978    3.4349    2.1894    0.0523 -165.7367   38.7703    0.4202    0.4013 
 880.6000  215.9000  230.7000   72.1804   -0.0543    7.1089    2.5024  303.6561    8.2668    0.3106    2.4223    3.4527    0.2860    0.5209    4.6417    4.7616    4.4164    4.0887    3.1289    3.2898    3.5661    3.5467    3.3475    3.5820    2.3548    0.0523 -165.7405   38.7725    1.0602    1.1658 
 880.7000  215.9000  228.1000   73.5378    0.0814    6.8356    2.4822  303.6093    7.2534    0.3053    2.3959    3.4803    0.2774    0.5199    3.8984    3.6010    5.7396    3.6761    3.3951    3.5974    3.9309    3.8829    3.6650    4.0124    2.3099    0.0523 -165.6803   38.7661    1.3610    1.4521 
 880.8000  215.9000  220.8000   73.3430   -0.1767    7.3635    2.4796  306.0693    7.9422    0.3105    2.3365    3.4969    0.2921    0.4775    2.0780    2.0934    4.2207    2.4344    2.6622    3.0785    3.4254    3.3817    3.1943    3.9458    1.6015    0.0523 -165.5443   38.7648    0.6270    0.7075 
 880.9000  215.9000  219.7000   73.4538   -0.4064    7.9329    2.5230  309.6049    8.7810    0.3115    2.2761    3.4627    0.3155    0.4346    1.4102    1.5193    3.7587    2.2772    1.5847    1.9123    2.0589    2.0288    1.9235    2.3792    0.9718    0.0523 -165.3778   38.7648    0.2546    0.2174 
 881.0000  215.9000  242.1000   75.3485   -0.3098    8.0938    2.6736  314.2948    8.9116    0.2949    2.2256    3.3505    0.3462    0.4015    1.1959    1.2211    2.6906    2.1706    1.4957    1.8089    1.9262    1.8998    1.8029    2.2198    0.9600    0.0523 -165.1817   38.7648    0.1411    0.1256 
 881.1000  215.9000  249.5000   74.7200   -0.3020    8.6442    2.7466  308.4058   10.9081    0.3035    2.1349    3.1995    0.3725    0.3915    0.9188    1.0032    2.0910    1.4918    1.4866    1.8009    1.8860    1.8643    1.7711    2.1715    1.0305    0.0523 -164.9772   38.7648    0.1508    0.1358 
 881.2000  215.9000  256.2000   73.5051   -0.2165    9.2255    2.8075  309.8388   12.8095    0.3158    2.0333    3.0500    0.3998    0.3920    0.8604    1.3040    2.9114    2.6030    1.6847    2.1270    2.2210    2.2092    2.0994    2.6419    0.9804    0.0523 -164.7798   38.7648    0.1609    0.1441 
 881.3000  215.9000  285.2000   72.9948    0.2224    9.4987    2.9102  346.9686   12.4197    0.3136    1.9299    2.8911    0.4350    0.3672    0.7287    0.9853    1.7051    2.1157    1.3118    1.6262    1.6784    1.6620    1.5887    1.9272    0.7699    0.0521 -164.6151   38.7648    0.1226    0.1104 
 881.4000  215.9000  304.3000   70.7393    0.4606    9.5793    2.9842  378.9287   13.2925    0.3129    1.7919    2.7402    0.4850    0.2981    0.4993    0.6094    1.1226    1.5815    1.0798    1.1808    1.1946    1.1769    1.1274    1.1768    1.0120    0.0520 -164.3620   38.7648    0.0925    0.0843 
 881.5000  215.9000  320.1000   68.5463    0.6080    9.6384    3.0475  402.1112   14.4317    0.3132    1.6638    2.6166    0.5432    0.2615    0.3982    0.4472    0.6310    0.8862    1.1319    1.1737    1.1707    1.1513    1.1017    1.1375    1.2383    0.0520 -164.0908   38.7648    0.0921    0.0839 
 881.6000  215.9000  342.3000   69.8853    0.7150    9.9582    3.1151  394.9270   14.4350    0.3144    1.6269    2.5278    0.6114    0.2695    0.4116    0.4720    0.5716    0.8802    1.3012    1.4100    1.3768    1.3446    1.2881    1.3452    1.3942    0.0521 -163.9010   38.7648    0.0921    0.0839 
 881.7000  215.9000  353.9000   73.0130    0.6815    9.9660    3.1608  398.5210   15.7687    0.3164    1.6682    2.4727    0.5825    0.3179    0.5295    0.6843    0.7716    1.4846    1.4004    1.5252    1.4745    1.4348    1.3696    1.4303    1.6146    0.0522 -163.6542   38.7648    0.0921    0.0839 
 881.8000  215.9000  353.9000   77.2759    0.6076    9.7743    3.1835  403.4279   17.2555    0.3167    1.7492    2.4829    0.5082    0.4105    0.8266    1.4256    1.6832    3.8074    1.4587    1.5650    1.5078    1.4667    1.4013    1.4262    1.9176    0.0523 -163.3825   38.7648    0.0921    0.0839 
 881.9000  215.9000  333.5000   82.8506    0.7291    9.3443    3.1333  382.2921   15.4720    0.3046    1.8643    2.5408    0.4625    0.5391    1.3711    2.8231    3.4252    5.6787    2.0322    2.1468    2.1104    2.0334    1.9419    1.9418    2.8367    0.0524 -163.1385   38.7648    0.0932    0.0849 
 882.0000  215.9000  299.9000   85.6472    0.8958    8.6592    3.0013  359.6663   16.2446    0.3064    2.0108    2.6183    0.4033    0.6009    2.0006    4.1991    5.0093   12.4682    3.2895    2.9382    2.9099    2.7946    2.6469    2.2055    4.5937    0.0526 -163.0606   38.7733    0.1025    0.0930 
 882.1000  215.9000  258.5000   86.3864    1.0794    7.8442    2.8144  336.6219   18.3107    0.3155    2.1434    2.6960    0.3390    0.6330    3.4183    8.5791   10.8410   22.4093    4.0124    3.2801    3.2652    3.1518    2.9823    2.4777    5.4432    0.0527 -163.0670   38.7847    0.2115    0.1732 
 882.2000  215.9000  255.4000   84.2824    1.1409    7.3663    2.6015  318.9777   16.9316    0.3066    2.2386    2.7863    0.3093    0.6704    5.2277   11.9809   17.3511   16.5234    3.1773    3.1519    3.2355    3.1370    2.9790    3.0146    3.6247    0.0526 -162.8502   38.7709    0.4119    0.4764 
 882.3000  215.9000  241.2000   80.0229    0.9917    7.1352    2.4196  308.2643   16.0735    0.3062    2.3197    2.8832    0.2864    0.6509    5.8360   10.2302   19.9095    8.3020    3.0016    3.1753    3.3556    3.2784    3.1225    3.2573    2.7501    0.0525 -162.7549   38.7648    0.6236    0.9018 
 882.4000  215.9000  216.6000   74.2351    0.7047    7.0628    2.2628  302.8439   15.6832    0.3123    2.3642    2.9369    0.2694    0.6247    4.9153    5.7472   10.0171    5.3686    2.6335    2.5744    2.7270    2.7076    2.5713    2.6531    2.5497    0.0524 -162.7568   38.7648    0.9446    1.1508 
 882.5000  215.9000  220.2000   72.4132    1.0815    6.1517    2.1227  293.7556   16.6912    0.3131    2.3751    2.9895    0.2594    0.5866    3.9862    3.2793    5.3413    2.5144    2.5269    2.5308    2.6972    2.6852    2.5467    2.5956    2.5599    0.0525 -162.7977   38.7648    1.2685    1.3456 
 882.6000  215.9000  223.0000   69.4208    1.2952    5.7776    2.0470  289.8464   16.6307    0.3201    2.4048    3.0438    0.2512    0.5942    2.8612    2.9691    4.1760    2.1412    2.5367    2.5372    2.7130    2.7021    2.5645    2.6077    2.6383    0.0525 -162.7127   38.7681    1.3256    1.4168 
 882.7000  215.9000  222.1000   65.3481    1.3584    5.8990    2.0306  290.7178   15.5839    0.3329    2.4445    3.0287    0.2446    0.5755    2.0958    2.9859    3.3227    1.8788    3.0430    2.9592    3.1797    3.1915    3.0221    3.0857    3.0336    0.0525 -162.5116   38.7746    1.3310    1.3172 
 882.8000  215.9000  215.5000   66.8721    1.6221    5.3200    2.0291  296.3532   15.5924    0.3374    2.4716    3.0284    0.2411    0.5744    1.7075    2.5919    2.5615    1.6972    2.9250    2.7876    2.9490    2.9891    2.8408    2.9016    2.9117    0.0526 -162.7758   38.7682    1.2147    1.0989 
