~VERSION INFORMATION
 VERS.                 2.0:   CWLS LOG ASCII STANDARD - VERSION 2.0
 WRAP.                  NO:   SINGLE LINE PER DEPTH STEP
~WELL INFORMATION
#MNEM.UNIT       DATA           DESCRIPTION MNEMONIC
#---------    -------------   --------------------------
 STRT.M         0.0000                        : START DEPTH
 STOP.M         998.0000                      : STOP DEPTH
 STEP.M         0.1000                        : STEP VALUE
 NULL.          -999.0000                     : NULL VALUE
 SRVC.          SCH                           : Service Company/Logging company
 DATE.          08.08.2023                    : LAS file Creation Date
 WELL    .      Каратобе КН-3                 : Well Name
 COMP    .      COMPANY                       : Company
 FLD     .      Каратобе                      : Field
 STATE   .      1                             : State
 COUNT   .      Kazakhstan                    : Country
~CURVE INFORMATION
#MNEM          UNIT     API CODE   Description
#---------- ---------- ----------  -----------
 DEPTH     .M                    : Depth Index
 BSC       .mm                   : Nominal Caliper
 CALI      .mm                   : Caliper
 GR        .gAPI                 : Gamma Ray
 URAN      .PPM                  : Uranium
 THOR      .PPM                  : Thorium
 POTA      .%                    : Potasium
 DT        .uSec/m               : Sonic travel time
 HAZIM     .deg                  : Hole Azimuth
 SDEVM     .deg                  : Hole Deviation
 RHOZ      .g/cm3                : Bulk Density
 PEFZ      .B/E                  : Formation Photoelectric Factor 
 TNPH      .v/v                  : Neutron porosity
 AT10      .ohm.m                : 10" Array Induction, two foot resolution Resistivity
 AT20      .ohm.m                : 20" Array Induction, two foot resolution Resistivity
 AT30      .ohm.m                : 30" Array Induction, two foot resolution Resistivity
 AT60      .ohm.m                : 60" Array Induction, two foot resolution Resistivity
 AT90      .ohm.m                : 90" Array Induction, two foot resolution Resistivity
 RLA1      .ohm.m                : HRLT Borehole Corrected Resistivity 1
 RLA2      .ohm.m                : HRLT Borehole Corrected Resistivity 2
 RLA3      .ohm.m                : HRLT Borehole Corrected Resistivity 3
 RLA4      .ohm.m                : HRLT Borehole Corrected Resisitivity 4
 RLA5      .ohm.m                : HRLT Borehole Corrected Resistivity 5 
 RT        .ohm.m                : Formation Resistivity
 RXO       .ohm.m                : Flushed zone resistivity
 AHMF      .ohm.m                : Array Induction Mud Resistivity Fully Calibrated
 SP        .mV                   : Spontaneous Potential
 MTEM      .degC                 : Formation Temperature
 HMIN      .ohm.m                : HIP Micro Inverse Resistivity
 HMNO      .ohm.m                : HIP Micro Normal Resistivity
~A Log data section
# ...
 823.5000  215.9000  213.1000   58.7983    0.1179    5.1045    2.0842  327.5256   37.0039    0.2426    2.3420    2.8290    0.2919    0.9367    1.9767    1.7422    1.7671    1.7616    2.9261    2.7604    2.7264    2.6560    2.5770    2.3048    3.8622    0.0533 -159.2481   38.2907    1.3454    1.1988 
 823.6000  215.9000  212.2000   59.8434    0.0913    5.2032    2.1282  324.1827   35.8716    0.2448    2.3377    2.8265    0.2986    0.9157    1.9098    1.6989    1.7162    1.7130    2.3905    2.2357    2.1990    2.1416    2.0798    1.8161    3.1423    0.0533 -159.2468   38.2913    1.0924    0.9850 
 823.7000  215.9000  211.9000   61.6380   -0.0127    5.4662    2.1982  320.7938   34.4271    0.2461    2.3301    2.8283    0.2979    0.9047    1.8745    1.6641    1.6758    1.6738    2.2502    2.0918    2.0543    2.0009    1.9458    1.6721    2.9600    0.0534 -159.1666   38.2899    1.2205    1.1047 
 823.8000  215.9000  211.7000   61.3506   -0.0574    5.5777    2.2316  324.9514   33.0527    0.2475    2.3209    2.8221    0.2982    0.8867    1.8477    1.6459    1.6559    1.6459    2.3418    2.1705    2.1296    2.0747    2.0176    1.7243    3.0671    0.0535 -159.1019   38.3004    1.2955    1.1651 
 823.9000  215.9000  211.7000   61.2870   -0.0670    5.6485    2.2534  329.2791   31.7914    0.2490    2.3134    2.8130    0.2967    0.8792    1.8711    1.6518    1.6587    1.6455    2.2650    2.0968    2.0581    2.0055    1.9510    1.6667    2.9628    0.0535 -159.0566   38.3053    1.2207    1.0980 
 824.0000  215.9000  211.6000   63.5314   -0.0240    5.7254    2.2714  328.0329   30.7953    0.2506    2.3127    2.8236    0.2889    0.8796    1.8779    1.6538    1.6608    1.6399    2.2049    2.0384    1.9995    1.9490    1.8955    1.6121    2.8839    0.0535 -159.0537   38.2846    1.1595    1.0360 
 824.1000  215.9000  211.5000   64.4234   -0.0406    5.8496    2.3020  326.9937   29.5426    0.2514    2.3170    2.8246    0.2862    0.8886    1.8835    1.6591    1.6676    1.6366    2.2354    2.0691    2.0342    1.9819    1.9274    1.6477    2.9320    0.0535 -158.9024   38.2841    1.2051    1.0894 
 824.2000  215.9000  211.4000   65.2216   -0.0573    6.0136    2.3239  326.2123   28.2917    0.2521    2.3218    2.8351    0.2863    0.9011    1.9107    1.6786    1.6908    1.6482    2.4250    2.2664    2.2274    2.1715    2.1121    1.8383    3.2080    0.0535 -158.7232   38.2881    1.2787    1.1528 
 824.3000  215.9000  211.6000   67.5486    0.0080    6.2606    2.2950  326.1124   27.4042    0.2532    2.3262    2.8606    0.2904    0.9101    1.9385    1.7036    1.7140    1.6647    2.5330    2.3883    2.3450    2.2909    2.2265    1.9724    3.3639    0.0535 -158.6452   38.2812    1.3462    1.1981 
 824.4000  215.9000  211.7000   68.4637   -0.0075    6.4309    2.2952  325.6349   26.2721    0.2538    2.3345    2.8869    0.2955    0.9174    1.9565    1.7226    1.7372    1.6541    2.4602    2.3222    2.2816    2.2340    2.1689    1.9341    3.2609    0.0535 -158.4610   38.2790    1.2551    1.1131 
 824.5000  215.9000  211.7000   68.6582   -0.0386    6.5345    2.3086  324.7360   25.0732    0.2542    2.3402    2.9282    0.3010    0.9207    1.9526    1.7299    1.7425    1.6697    2.3871    2.2515    2.2204    2.1774    2.1153    1.9015    3.1576    0.0535 -158.2168   38.2812    1.2940    1.1468 
 824.6000  215.9000  211.7000   68.5580    0.0474    6.4778    2.3203  322.5570   24.1280    0.2546    2.3382    2.9867    0.3063    0.9262    1.9642    1.7419    1.7604    1.6916    2.3594    2.2199    2.1968    2.1538    2.0896    1.8798    3.1132    0.0535 -157.9195   38.2951    1.2995    1.1619 
 824.7000  215.9000  211.8000   67.1716    0.2399    6.0803    2.2528  322.4351   23.1981    0.2550    2.3359    3.0110    0.3164    0.9295    2.0031    1.7781    1.8031    1.7415    2.4140    2.2658    2.2515    2.2034    2.1374    1.9212    3.1889    0.0535 -157.5511   38.3001    1.5003    1.3317 
 824.8000  215.9000  211.8000   65.3224    0.4435    5.5755    2.1530  323.4205   22.2926    0.2555    2.3333    2.9900    0.3277    0.9241    1.9769    1.7728    1.8162    1.7575    2.6175    2.4530    2.4464    2.3976    2.3238    2.1045    3.4354    0.0535 -157.1408   38.3001    1.5513    1.3701 
 824.9000  215.9000  211.9000   65.5819    0.2525    5.7540    2.1521  324.0021   21.5143    0.2559    2.3245    2.9577    0.3256    0.9038    1.9019    1.7062    1.7433    1.6850    2.5406    2.3771    2.3716    2.3253    2.2545    2.0449    3.3144    0.0535 -156.7159   38.3001    1.2419    1.0993 
 825.0000  215.9000  211.9000   64.4068    0.1651    5.8136    2.1505  324.9092   20.6629    0.2562    2.3190    2.9021    0.3237    0.8889    1.8383    1.6265    1.6564    1.6084    2.2514    2.1033    2.0971    2.0569    1.9938    1.7990    2.9460    0.0535 -156.4997   38.3083    1.0886    0.9778 
 825.1000  215.9000  211.7000   62.4745    0.1476    5.8098    2.1559  326.2514   19.7715    0.2565    2.3214    2.8317    0.3219    0.8828    1.7961    1.5872    1.6009    1.5606    2.1987    2.0655    2.0537    2.0166    1.9538    1.7698    2.8896    0.0535 -156.4346   38.3200    1.1903    1.0708 
 825.2000  215.9000  211.7000   64.2964    0.0978    6.1083    2.2782  330.8630   19.0508    0.2573    2.3259    2.7821    0.3186    0.8726    1.7729    1.5701    1.5755    1.5414    2.2413    2.1114    2.0915    2.0556    1.9906    1.8015    2.9506    0.0535 -156.4662   38.2992    1.2760    1.1352 
 825.3000  215.9000  211.9000   64.4261    0.0989    6.1695    2.3373  332.3873   18.2546    0.2575    2.3320    2.7678    0.3148    0.8719    1.7653    1.5779    1.5796    1.5495    2.2394    2.1077    2.0855    2.0478    1.9832    1.7861    2.9516    0.0535 -156.4414   38.2973    1.2031    1.0820 
 825.4000  215.9000  212.5000   63.1363    0.1436    6.0265    2.3418  331.3605   17.3976    0.2570    2.3360    2.7399    0.3108    0.8686    1.7635    1.5925    1.6070    1.5858    2.2646    2.1279    2.1015    2.0620    1.9938    1.7781    2.9914    0.0535 -156.3718   38.3114    1.1353    1.0592 
 825.5000  215.9000  213.3000   62.9190    0.1910    5.7730    2.3083  334.1935   16.7133    0.2579    2.3288    2.7409    0.3151    0.8634    1.7537    1.5737    1.5961    1.5811    2.4214    2.2822    2.2569    2.2116    2.1415    1.9238    3.2032    0.0535 -156.4694   38.3109    1.2990    1.2183 
 825.6000  215.9000  213.5000   61.8798    0.2699    5.4809    2.2627  336.4971   15.9747    0.2581    2.3119    2.7479    0.3129    0.8363    1.6602    1.4854    1.4954    1.4725    2.4447    2.3184    2.2958    2.2489    2.1827    1.9944    3.2137    0.0535 -156.5021   38.3039    1.1526    1.0245 
 825.7000  215.9000  213.0000   59.9850    0.3817    5.1486    2.2046  338.2496   15.1797    0.2579    2.2918    2.7362    0.3039    0.8126    1.5619    1.3945    1.4087    1.3972    2.0440    1.9328    1.9101    1.8693    1.8150    1.6446    2.6852    0.0536 -156.4673   38.2900    0.8396    0.7426 
 825.8000  215.9000  212.2000   58.9668    0.3769    5.0768    2.1709  338.6466   14.5523    0.2585    2.2768    2.7166    0.3078    0.7841    1.4736    1.3374    1.3436    1.3305    1.7786    1.6707    1.6514    1.6164    1.5697    1.4013    2.3514    0.0535 -156.5999   38.2963    0.8225    0.7276 
 825.9000  215.9000  211.5000   59.0211    0.3523    5.1661    2.1665  339.6560   13.8350    0.2589    2.2702    2.7074    0.3062    0.7756    1.4403    1.3005    1.3001    1.2894    1.7797    1.6668    1.6471    1.6133    1.5642    1.3884    2.3482    0.0535 -156.7789   38.3001    0.8299    0.7340 
 826.0000  215.9000  211.1000   60.4058    0.3070    5.4503    2.1984  341.4983   12.9966    0.2590    2.2809    2.6787    0.2971    0.7828    1.4728    1.3057    1.2996    1.2803    1.7886    1.6799    1.6564    1.6240    1.5726    1.3960    2.3673    0.0535 -157.0103   38.3001    0.8948    0.7922 
 826.1000  215.9000  211.1000   60.3155    0.2933    5.4434    2.1835  338.7360   13.0656    0.2584    2.3000    2.6607    0.2911    0.7988    1.5270    1.3499    1.3470    1.3317    1.9103    1.7987    1.7718    1.7396    1.6792    1.4943    2.5271    0.0535 -157.2354   38.3010    1.0032    0.8868 
