~VERSION INFORMATION
 VERS.                 2.0:   CWLS LOG ASCII STANDARD - VERSION 2.0
 WRAP.                  NO:   SINGLE LINE PER DEPTH STEP
~WELL INFORMATION
#MNEM.UNIT       DATA           DESCRIPTION MNEMONIC
#---------    -------------   --------------------------
 STRT.M         0.0000                        : START DEPTH
 STOP.M         998.0000                      : STOP DEPTH
 STEP.M         0.1000                        : STEP VALUE
 NULL.          -999.0000                     : NULL VALUE
 SRVC.          SCH                           : Service Company/Logging company
 DATE.          08.08.2023                    : LAS file Creation Date
 WELL    .      Каратобе КН-3                 : Well Name
 COMP    .      COMPANY                       : Company
 FLD     .      Каратобе                      : Field
 STATE   .      1                             : State
 COUNT   .      Kazakhstan                    : Country
~CURVE INFORMATION
#MNEM          UNIT     API CODE   Description
#---------- ---------- ----------  -----------
 DEPTH     .M                    : Depth Index
 BSC       .mm                   : Nominal Caliper
 CALI      .mm                   : Caliper
 GR        .gAPI                 : Gamma Ray
 URAN      .PPM                  : Uranium
 THOR      .PPM                  : Thorium
 POTA      .%                    : Potasium
 DT        .uSec/m               : Sonic travel time
 HAZIM     .deg                  : Hole Azimuth
 SDEVM     .deg                  : Hole Deviation
 RHOZ      .g/cm3                : Bulk Density
 PEFZ      .B/E                  : Formation Photoelectric Factor 
 TNPH      .v/v                  : Neutron porosity
 AT10      .ohm.m                : 10" Array Induction, two foot resolution Resistivity
 AT20      .ohm.m                : 20" Array Induction, two foot resolution Resistivity
 AT30      .ohm.m                : 30" Array Induction, two foot resolution Resistivity
 AT60      .ohm.m                : 60" Array Induction, two foot resolution Resistivity
 AT90      .ohm.m                : 90" Array Induction, two foot resolution Resistivity
 RLA1      .ohm.m                : HRLT Borehole Corrected Resistivity 1
 RLA2      .ohm.m                : HRLT Borehole Corrected Resistivity 2
 RLA3      .ohm.m                : HRLT Borehole Corrected Resistivity 3
 RLA4      .ohm.m                : HRLT Borehole Corrected Resisitivity 4
 RLA5      .ohm.m                : HRLT Borehole Corrected Resistivity 5 
 RT        .ohm.m                : Formation Resistivity
 RXO       .ohm.m                : Flushed zone resistivity
 AHMF      .ohm.m                : Array Induction Mud Resistivity Fully Calibrated
 SP        .mV                   : Spontaneous Potential
 MTEM      .degC                 : Formation Temperature
 HMIN      .ohm.m                : HIP Micro Inverse Resistivity
 HMNO      .ohm.m                : HIP Micro Normal Resistivity
~A Log data section
# ...
 429.3000  215.9000  219.1000  105.6628    1.2097   11.3775    3.0216  559.7114   27.4801    0.2237    2.1467    3.0356    0.4959    0.8475    2.5238    2.4924    2.8632    2.6132    3.0486    3.1167    3.2160    3.2129    3.1563    3.1887    2.7881    0.0574 -151.6601   35.1758    0.4157    0.4084 
 429.4000  215.9000  220.0000  104.8753    1.2470   11.8496    3.0502  563.1448   28.3661    0.2245    2.1509    3.0014    0.5035    0.8429    2.4796    2.4433    2.8434    2.5855    2.9963    3.0518    3.1554    3.1507    3.0938    3.1190    2.7896    0.0574 -151.7383   35.1741    0.4431    0.4444 
 429.5000  215.9000  220.9000  105.9159    1.2955   12.1148    3.0904  563.5837   29.2299    0.2256    2.1543    2.9634    0.4927    0.8350    2.4042    2.4254    2.8815    2.5996    2.9690    3.0147    3.1192    3.1081    3.0547    3.0769    2.7758    0.0574 -151.8005   35.1700    0.5154    0.5378 
 429.6000  215.9000  220.8000  110.9385    1.3302   12.0653    3.1414  559.7046   30.1482    0.2272    2.1518    2.9269    0.4538    0.8255    2.3273    2.4018    2.8588    2.5428    2.8082    2.8551    2.9450    2.9358    2.8880    2.9062    2.6529    0.0575 -151.8070   35.1626    0.5604    0.5841 
 429.7000  215.9000  218.0000  110.5371    1.2559   12.1696    3.1387  561.0418   30.7668    0.2284    2.1477    2.8917    0.4412    0.8155    2.2517    2.3561    2.7932    2.4853    2.6930    2.7367    2.8104    2.8010    2.7543    2.7682    2.6206    0.0575 -151.8822   35.1928    0.5955    0.6252 
 429.8000  215.9000  215.0000  110.3049    1.1591   12.3498    3.1332  562.7257   31.2839    0.2296    2.1429    2.8776    0.4308    0.8066    2.1777    2.3272    2.7497    2.4519    2.7145    2.7661    2.8295    2.8239    2.7799    2.7936    2.6312    0.0575 -151.9312   35.2158    0.5905    0.6049 
 429.9000  215.9000  213.9000  112.6279    1.0586   12.6292    3.1438  563.0355   31.7068    0.2308    2.1383    2.8697    0.4142    0.7979    2.1109    2.2766    2.6998    2.4626    2.7288    2.7884    2.8432    2.8406    2.7981    2.8127    2.6281    0.0575 -151.8964   35.2083    0.5519    0.5378 
 430.0000  215.9000  213.6000  111.7349    1.0140   12.7257    3.1900  562.0078   32.0457    0.2331    2.1413    2.8622    0.4338    0.7875    2.0507    2.2471    2.6663    2.4596    2.6879    2.7414    2.7903    2.7888    2.7471    2.7586    2.6379    0.0575 -151.5200   35.1907    0.5230    0.5068 
 430.1000  215.9000  213.5000  110.6252    1.0077   12.6791    3.2260  559.8028   32.4121    0.2356    2.1503    2.8526    0.4507    0.7787    2.0275    2.2476    2.6768    2.4745    2.7176    2.7568    2.8075    2.8043    2.7596    2.7727    2.6921    0.0575 -150.9601   35.1754    0.4961    0.5008 
 430.2000  215.9000  213.4000  111.1032    1.0676   12.3696    3.2102  555.3189   32.9098    0.2378    2.1563    2.8466    0.4362    0.7713    2.0014    2.2199    2.6512    2.4874    2.7206    2.7627    2.8238    2.8221    2.7782    2.7917    2.6205    0.0575 -150.1343   35.1733    0.5169    0.5221 
 430.3000  215.9000  213.2000  111.0192    1.0312   12.3471    3.1727  551.1676   33.1168    0.2407    2.1585    2.8474    0.4340    0.7582    1.9439    2.1666    2.6139    2.4683    2.6138    2.6526    2.7205    2.7241    2.6817    2.6955    2.4620    0.0576 -149.0913   35.1950    0.5804    0.5416 
 430.4000  215.9000  212.8000  110.6423    1.0031   12.4753    3.1382  546.4127   33.2248    0.2433    2.1590    2.8565    0.4253    0.7439    1.9020    2.0666    2.4776    2.3431    2.4436    2.4766    2.5406    2.5453    2.5074    2.5197    2.2880    0.0577 -148.1509   35.2133    0.5886    0.5220 
 430.5000  215.9000  212.2000  109.8911    1.1183   12.7985    3.1399  539.1248   33.3248    0.2444    2.1584    2.8735    0.3781    0.7361    1.8880    2.0300    2.3883    2.2974    2.2778    2.3253    2.3840    2.3860    2.3512    2.3688    2.0976    0.0576 -147.8314   35.1908    0.5729    0.5080 
 430.6000  215.9000  212.5000  109.5094    1.1923   12.6350    3.1653  534.3664   33.4030    0.2456    2.1600    2.9022    0.3579    0.7404    1.9659    2.1092    2.4870    2.4098    2.3211    2.3990    2.4696    2.4668    2.4310    2.4751    2.0166    0.0575 -147.7312   35.1946    0.6287    0.5576 
 430.7000  215.9000  213.1000  109.5583    1.2102   12.3418    3.1913  532.3071   33.5513    0.2472    2.1651    2.9099    0.3523    0.7549    2.1057    2.2614    2.7505    2.6471    2.4980    2.5884    2.6819    2.6715    2.6314    2.6949    2.1140    0.0574 -147.6100   35.2082    0.7010    0.6247 
 430.8000  215.9000  213.0000  110.8480    1.0530   12.4077    3.1744  537.6052   34.0621    0.2494    2.1678    2.9102    0.3607    0.7641    2.2516    2.4203    2.9956    2.8869    2.5863    2.6672    2.7735    2.7600    2.7164    2.7741    2.2159    0.0574 -146.9659   35.2156    0.6745    0.6269 
 430.9000  215.9000  213.6000  112.0986    1.0628   12.0569    3.1121  539.6384   34.2578    0.2508    2.1646    2.9133    0.3823    0.7636    2.2540    2.4686    3.1242    3.0277    2.8923    3.0084    3.1378    3.1241    3.0724    3.1857    2.3111    0.0573 -146.6376   35.1988    0.7065    0.6770 
 431.0000  215.9000  214.7000  112.9612    1.1412   11.6160    3.0411  539.5164   34.2516    0.2514    2.1581    2.9049    0.4087    0.7516    2.1349    2.3278    2.9328    2.7712    3.0638    3.2262    3.3739    3.3730    3.3203    3.5313    2.1965    0.0573 -146.3656   35.1766    0.7561    0.6924 
 431.1000  215.9000  214.5000  111.3686    1.0778   12.0743    3.0752  536.7360   34.0290    0.2497    2.1499    2.8784    0.4191    0.7319    2.0170    2.1721    2.7619    2.6582    2.7474    2.9323    3.0528    3.0633    3.0195    3.2644    1.8687    0.0573 -145.3318   35.2063    0.5966    0.5291 
 431.2000  215.9000  213.3000  110.2516    1.0783   12.5802    3.0978  533.0038   33.9279    0.2491    2.1389    2.8457    0.4340    0.7177    1.8612    2.0390    2.6060    2.6029    2.2565    2.4166    2.5010    2.5132    2.4793    2.6707    1.5677    0.0573 -143.8498   35.2047    0.4699    0.4173 
 431.3000  215.9000  211.3000  109.3230    1.1136   13.0854    3.1111  528.6101   33.9351    0.2494    2.1297    2.7923    0.4502    0.7214    1.9050    2.1166    2.7572    2.5884    2.1071    2.2480    2.3320    2.3476    2.3159    2.4811    1.5033    0.0572 -142.0594   35.1848    0.4604    0.4084 
 431.4000  215.9000  211.8000  106.9138    1.0611   13.2193    3.1058  523.9055   34.2540    0.2502    2.1158    2.7463    0.4471    0.7182    1.9746    2.2913    3.0968    2.9707    2.4592    2.6198    2.7378    2.7553    2.7213    2.9414    1.6953    0.0572 -140.1585   35.1933    0.5664    0.5023 
 431.5000  215.9000  212.1000  107.8961    1.1648   13.1838    3.1265  522.1276   34.4124    0.2473    2.0927    2.7365    0.4544    0.7106    1.9757    2.3261    3.1391    3.0660    2.6671    2.8547    3.0208    3.0495    3.0092    3.3344    1.7360    0.0571 -138.3912   35.2048    0.4470    0.3972 
 431.6000  215.9000  212.3000  111.3880    1.3924   13.0122    3.1644  522.6303   34.4454    0.2418    2.0693    2.7484    0.4698    0.6683    1.7529    2.0366    2.7419    2.7191    2.4156    2.5556    2.7170    2.7493    2.7150    2.9911    1.5604    0.0571 -136.7782   35.2180    0.3186    0.2838 
 431.7000  215.9000  212.6000  109.8648    1.6544   12.7364    3.1023  522.5157   34.5066    0.2410    2.0573    2.7590    0.4835    0.6574    1.6119    1.8231    2.6351    2.6555    2.1251    2.2487    2.3862    2.4284    2.4018    2.6496    1.3830    0.0571 -136.7593   35.2105    0.2896    0.2558 
 431.8000  215.9000  213.0000  109.0076    1.8355   12.5855    3.1179  522.0414   34.3211    0.2395    2.0600    2.7710    0.4970    0.6289    1.4952    1.6394    2.1464    2.1722    1.9332    2.0661    2.1689    2.2064    2.1771    2.3996    1.2656    0.0571 -136.7961   35.2106    0.2769    0.2439 
 431.9000  215.9000  213.8000  108.7902    1.9390   12.5545    3.2081  521.2215   33.8986    0.2373    2.0794    2.7783    0.5100    0.6386    1.5120    1.6822    2.0488    2.1245    1.7901    1.9368    2.0157    2.0497    2.0154    2.2215    1.2011    0.0571 -136.8866   35.2181    0.3073    0.2730 
