~VERSION INFORMATION
 VERS.                 2.0:   CWLS LOG ASCII STANDARD - VERSION 2.0
 WRAP.                  NO:   SINGLE LINE PER DEPTH STEP
~WELL INFORMATION
#MNEM.UNIT       DATA           DESCRIPTION MNEMONIC
#---------    -------------   --------------------------
 STRT.M         0.0000                        : START DEPTH
 STOP.M         998.0000                      : STOP DEPTH
 STEP.M         0.1000                        : STEP VALUE
 NULL.          -999.0000                     : NULL VALUE
 SRVC.          SCH                           : Service Company/Logging company
 DATE.          08.08.2023                    : LAS file Creation Date
 WELL    .      Каратобе КН-3                 : Well Name
 COMP    .      COMPANY                       : Company
 FLD     .      Каратобе                      : Field
 STATE   .      1                             : State
 COUNT   .      Kazakhstan                    : Country
~CURVE INFORMATION
#MNEM          UNIT     API CODE   Description
#---------- ---------- ----------  -----------
 DEPTH     .M                    : Depth Index
 BSC       .mm                   : Nominal Caliper
 CALI      .mm                   : Caliper
 GR        .gAPI                 : Gamma Ray
 URAN      .PPM                  : Uranium
 THOR      .PPM                  : Thorium
 POTA      .%                    : Potasium
 DT        .uSec/m               : Sonic travel time
 HAZIM     .deg                  : Hole Azimuth
 SDEVM     .deg                  : Hole Deviation
 RHOZ      .g/cm3                : Bulk Density
 PEFZ      .B/E                  : Formation Photoelectric Factor 
 TNPH      .v/v                  : Neutron porosity
 AT10      .ohm.m                : 10" Array Induction, two foot resolution Resistivity
 AT20      .ohm.m                : 20" Array Induction, two foot resolution Resistivity
 AT30      .ohm.m                : 30" Array Induction, two foot resolution Resistivity
 AT60      .ohm.m                : 60" Array Induction, two foot resolution Resistivity
 AT90      .ohm.m                : 90" Array Induction, two foot resolution Resistivity
 RLA1      .ohm.m                : HRLT Borehole Corrected Resistivity 1
 RLA2      .ohm.m                : HRLT Borehole Corrected Resistivity 2
 RLA3      .ohm.m                : HRLT Borehole Corrected Resistivity 3
 RLA4      .ohm.m                : HRLT Borehole Corrected Resisitivity 4
 RLA5      .ohm.m                : HRLT Borehole Corrected Resistivity 5 
 RT        .ohm.m                : Formation Resistivity
 RXO       .ohm.m                : Flushed zone resistivity
 AHMF      .ohm.m                : Array Induction Mud Resistivity Fully Calibrated
 SP        .mV                   : Spontaneous Potential
 MTEM      .degC                 : Formation Temperature
 HMIN      .ohm.m                : HIP Micro Inverse Resistivity
 HMNO      .ohm.m                : HIP Micro Normal Resistivity
~A Log data section
# ...
 936.9000  215.9000  250.8000   63.8934    0.6238    5.7680    2.1478  326.0371  357.2608    0.8314    2.4313    2.9098    0.2907    0.6825    1.7107    1.6175    1.9276    1.8920    2.1510    2.1607    2.2367    2.2512    2.3379    2.3823    1.6151    0.0518 -165.7556   38.4475    0.9456    1.0012 
 937.0000  215.9000  252.5000   64.0204    0.7687    5.6077    2.1745  331.8847  357.6770    0.8274    2.4319    2.8760    0.2863    0.7030    1.8263    1.7361    2.0262    2.0366    2.0255    2.0198    2.0892    2.1030    2.1936    2.2115    1.5732    0.0518 -165.9511   38.4476    0.8448    0.9489 
 937.1000  215.9000  248.2000   61.5135    0.8668    5.3848    2.1777  325.1532  358.7642    0.8279    2.4379    2.8608    0.2789    0.7074    1.8512    1.8120    2.0750    2.0606    2.1118    2.0784    2.1489    2.1580    2.2564    2.2425    1.7129    0.0518 -166.0454   38.4219    0.8842    1.0005 
 937.2000  215.9000  244.7000   61.3757    1.0482    4.9212    2.1496  314.0795  358.5506    0.8162    2.4355    2.8490    0.2753    0.7141    1.9192    1.8433    2.1200    1.9836    2.1437    2.0985    2.1704    2.1786    2.2790    2.2529    1.7705    0.0518 -166.0587   38.4198    0.6256    0.8060 
 937.3000  215.9000  244.0000   60.5130    1.1613    4.5317    2.1087  305.4455  358.7299    0.8070    2.4429    2.8668    0.2707    0.7121    1.9062    1.8535    2.2150    2.0053    2.3015    2.2590    2.3305    2.3332    2.4437    2.4087    1.9471    0.0518 -166.0600   38.4244    0.6390    0.8161 
 937.4000  215.9000  247.4000   58.2538    1.1609    4.2848    2.0524  301.0374  359.6681    0.8031    2.4444    2.8719    0.2643    0.6995    1.9528    1.9244    2.3899    2.0734    2.4141    2.3724    2.4095    2.4231    2.5272    2.4726    2.1453    0.0519 -166.0537   38.4360    1.1494    1.1513 
 937.5000  215.9000  243.4000   58.3411    1.0854    4.4111    2.0371  300.6892  359.4235    0.7945    2.4318    2.8860    0.2601    0.6787    1.9187    1.9171    2.4131    2.0218    2.3967    2.3514    2.3747    2.3999    2.4912    2.4344    2.1529    0.0520 -165.9727   38.4216    1.4100    1.2660 
 937.6000  215.9000  239.6000   58.2232    1.0078    4.5112    2.0178  301.2545  358.9441    0.7854    2.4220    2.8802    0.2517    0.6573    1.9193    1.9150    2.2981    1.9762    2.3722    2.3433    2.3704    2.3966    2.4889    2.4489    2.0498    0.0521 -165.8950   38.4054    1.3739    1.2409 
 937.7000  215.9000  241.5000   57.1300    0.9450    4.4679    1.9806  302.4880  358.3283    0.7762    2.4172    2.8688    0.2347    0.6380    1.9105    1.8896    2.2983    1.9566    2.3440    2.3431    2.3715    2.4040    2.4983    2.4925    1.9058    0.0520 -165.8423   38.3924    1.2251    1.1455 
 937.8000  215.9000  245.2000   56.7038    0.9084    4.3883    1.9629  301.7722  358.8433    0.7697    2.4233    2.8692    0.2292    0.6216    2.0096    1.9316    2.3022    2.0434    2.3285    2.3411    2.3859    2.4622    2.5288    2.5786    1.7371    0.0519 -165.6056   38.4063    1.1673    1.1046 
 937.9000  215.9000  248.3000   55.8247    0.8961    4.2241    1.9520  299.7683  359.1983    0.7653    2.4435    2.8752    0.2229    0.5981    2.0905    1.9239    2.0100    1.9442    2.2982    2.2737    2.3654    2.4475    2.4872    2.5354    1.7112    0.0519 -165.3148   38.4170    1.1275    1.0898 
 938.0000  215.9000  248.0000   53.5701    0.9279    3.8794    1.9474  295.6902  358.6394    0.7645    2.4572    2.8774    0.2093    0.5886    2.1357    1.8845    1.8616    1.8240    2.4064    2.3661    2.4950    2.5674    2.6003    2.6563    1.7793    0.0519 -164.9859   38.4078    1.0311    1.0975 
 938.1000  215.9000  246.2000   50.6262    0.8721    3.5700    1.9249  287.0762  358.9017    0.7586    2.4667    2.8871    0.1987    0.5929    2.3038    1.8278    1.9328    1.8029    2.4501    2.3998    2.5394    2.6076    2.6382    2.6879    1.8293    0.0519 -164.7507   38.4028    1.0790    1.1852 
 938.2000  215.9000  241.6000   47.4192    0.7954    3.3550    1.8716  278.8459  359.2467    0.7535    2.4783    2.8785    0.1890    0.5553    2.2330    1.9241    1.9671    1.8365    2.4778    2.4167    2.5599    2.6261    2.6559    2.6949    1.8739    0.0520 -164.4781   38.4010    1.5917    1.5533 
 938.3000  215.9000  229.9000   44.0163    0.7294    3.3805    1.7455  275.3488  359.1677    0.7551    2.4739    2.8394    0.1788    0.5225    1.8993    1.9789    2.3170    2.0882    2.6155    2.5715    2.7632    2.8105    2.8370    2.9239    1.8991    0.0522 -164.0237   38.4047    1.6353    1.5665 
 938.4000  215.9000  226.8000   41.4017    0.7528    3.1732    1.6708  273.8591  359.0733    0.7541    2.4673    2.7723    0.1769    0.4946    1.5350    1.9951    2.2504    2.0982    2.7649    2.8034    2.9752    3.0000    3.0087    3.1381    2.0269    0.0524 -163.7246   38.3841    1.1946    1.2557 
 938.5000  215.9000  227.4000   39.7339    0.7823    2.9356    1.6296  272.2943  359.0205    0.7534    2.4736    2.7117    0.1796    0.4974    1.9281    1.8260    2.3839    2.1937    2.9554    3.0337    3.2001    3.2202    3.2237    3.3845    2.1470    0.0525 -163.4816   38.3701    1.1295    1.1720 
 938.6000  215.9000  224.0000   40.5303    0.7108    2.9081    1.6430  267.6544  359.1456    0.7576    2.4748    2.6831    0.1888    0.5140    2.0595    1.6301    1.6217    1.5039    3.0380    3.1446    3.3127    3.3326    3.3335    3.5328    2.1482    0.0523 -163.2333   38.4152    1.5039    1.4484 
 938.7000  215.9000  223.1000   42.1728    0.7725    2.8921    1.6823  266.1771  359.0948    0.7578    2.4367    2.6706    0.1906    0.5367    2.5428    3.5667    2.9640    2.7774    3.0864    3.2756    3.4432    3.4617    3.4549    3.7548    2.0958    0.0522 -162.9882   38.4048    1.6629    1.6547 
 938.8000  215.9000  223.8000   44.3788    0.8904    2.8858    1.7387  268.7253  359.0054    0.7571    2.3750    2.6754    0.1919    0.5743    2.3812    2.5335    2.7355    2.4773    3.1700    3.5177    3.6463    3.6498    3.6176    4.0625    2.1507    0.0520 -162.8014   38.3757    1.8690    1.8231 
 938.9000  215.9000  224.4000   47.4532    0.9742    2.9031    1.8209  284.5941  359.1483    0.7618    2.3133    2.6894    0.2099    0.5491    1.6320    1.7365    2.1630    2.0248    3.1846    3.5710    3.7040    3.7120    3.6625    4.1643    2.1611    0.0518 -162.9121   38.3864    1.7740    1.5969 
 939.0000  215.9000  228.1000   51.1549    1.0236    3.1288    1.9146  299.1811  359.1233    0.7654    2.2740    2.6827    0.2452    0.4328    1.0135    1.3603    1.9437    1.8927    3.2690    3.5637    3.6887    3.6927    3.6331    3.9750    2.2569    0.0516 -162.9720   38.3944    0.2800    0.2492 
 939.1000  215.9000  242.9000   55.0280    1.0597    3.4527    2.0149  311.4881  359.0172    0.7684    2.2807    2.6672    0.2917    0.3352    0.5905    0.7286    0.9807    0.9419    2.3656    2.4814    2.5515    2.5612    2.5211    2.6434    1.8649    0.0515 -163.0024   38.3974    0.2022    0.1675 
 939.2000  215.9000  325.9000   57.4328    1.1428    3.6235    2.1154  311.1802  359.0198    0.7701    2.3236    2.6832    0.3496    0.2943    0.4632    0.5388    0.8074    0.7295    1.4548    1.3220    1.3503    1.3621    1.3363    1.2668    1.7247    0.0516 -163.0246   38.3734    0.2953    0.2581 
 939.3000  215.9000  373.8000   58.1893    1.0808    3.9247    2.2288  314.6945  358.9677    0.7722    2.3844    2.7293    0.3571    0.3070    0.4874    0.5754    0.9999    0.8844    1.6386    1.4205    1.4336    1.4439    1.4111    1.2288    1.9858    0.0517 -163.1412   38.3721    0.5283    0.6777 
 939.4000  215.9000  389.3000   57.7844    0.9237    4.2908    2.3390  320.6195  358.8866    0.7747    2.4348    2.7973    0.3288    0.3689    0.6689    0.8438    1.6648    1.7032    1.7580    1.4854    1.4852    1.4967    1.4582    1.2188    2.3091    0.0519 -163.3125   38.3850    0.8667    0.9675 
 939.5000  215.9000  385.2000   57.1330    0.8541    4.2554    2.2607  322.6960  358.9489    0.7764    2.4468    2.8823    0.2884    0.4603    1.0980    1.6571    2.6036    2.6993    2.7323    2.2512    2.1644    2.1585    2.0828    1.5911    3.6898    0.0520 -163.3125   38.3703    0.9169    0.9361 
