~VERSION INFORMATION
 VERS.                 2.0:   CWLS LOG ASCII STANDARD - VERSION 2.0
 WRAP.                  NO:   SINGLE LINE PER DEPTH STEP
~WELL INFORMATION
#MNEM.UNIT       DATA           DESCRIPTION MNEMONIC
#---------    -------------   --------------------------
 STRT.M         0.0000                        : START DEPTH
 STOP.M         998.0000                      : STOP DEPTH
 STEP.M         0.1000                        : STEP VALUE
 NULL.          -999.0000                     : NULL VALUE
 SRVC.          SCH                           : Service Company/Logging company
 DATE.          08.08.2023                    : LAS file Creation Date
 WELL    .      Каратобе КН-3                 : Well Name
 COMP    .      COMPANY                       : Company
 FLD     .      Каратобе                      : Field
 STATE   .      1                             : State
 COUNT   .      Kazakhstan                    : Country
~CURVE INFORMATION
#MNEM          UNIT     API CODE   Description
#---------- ---------- ----------  -----------
 DEPTH     .M                    : Depth Index
 BSC       .mm                   : Nominal Caliper
 CALI      .mm                   : Caliper
 GR        .gAPI                 : Gamma Ray
 URAN      .PPM                  : Uranium
 THOR      .PPM                  : Thorium
 POTA      .%                    : Potasium
 DT        .uSec/m               : Sonic travel time
 HAZIM     .deg                  : Hole Azimuth
 SDEVM     .deg                  : Hole Deviation
 RHOZ      .g/cm3                : Bulk Density
 PEFZ      .B/E                  : Formation Photoelectric Factor 
 TNPH      .v/v                  : Neutron porosity
 AT10      .ohm.m                : 10" Array Induction, two foot resolution Resistivity
 AT20      .ohm.m                : 20" Array Induction, two foot resolution Resistivity
 AT30      .ohm.m                : 30" Array Induction, two foot resolution Resistivity
 AT60      .ohm.m                : 60" Array Induction, two foot resolution Resistivity
 AT90      .ohm.m                : 90" Array Induction, two foot resolution Resistivity
 RLA1      .ohm.m                : HRLT Borehole Corrected Resistivity 1
 RLA2      .ohm.m                : HRLT Borehole Corrected Resistivity 2
 RLA3      .ohm.m                : HRLT Borehole Corrected Resistivity 3
 RLA4      .ohm.m                : HRLT Borehole Corrected Resisitivity 4
 RLA5      .ohm.m                : HRLT Borehole Corrected Resistivity 5 
 RT        .ohm.m                : Formation Resistivity
 RXO       .ohm.m                : Flushed zone resistivity
 AHMF      .ohm.m                : Array Induction Mud Resistivity Fully Calibrated
 SP        .mV                   : Spontaneous Potential
 MTEM      .degC                 : Formation Temperature
 HMIN      .ohm.m                : HIP Micro Inverse Resistivity
 HMNO      .ohm.m                : HIP Micro Normal Resistivity
~A Log data section
# ...
 769.5000  215.9000  247.1000   61.9037    0.5483    7.3087    2.1998  333.4352  353.9787    0.1458    2.2887    2.8336    0.3368    0.9428    3.1149    2.5960    2.7069    2.5960    4.3068    3.1924    3.0872    3.0003    2.8384    1.5946    5.9250    0.0539 -163.3970   37.7655    0.4768    0.4315 
 769.6000  215.9000  237.8000   63.2311    0.5028    7.5846    2.2306  319.2794  353.8842    0.1512    2.3309    2.9057    0.3455    0.9751    3.2174    2.7808    2.9396    2.8517    5.1098    3.4486    3.2856    3.1916    3.0219    1.4831    6.7224    0.0540 -163.2865   37.7535    0.4915    0.5987 
 769.7000  215.9000  231.7000   61.6893    0.4210    7.5622    2.1442  312.6363  353.7076    0.1511    2.3839    2.9915    0.3175    1.0099    3.5344    3.1685    3.0454    3.0360    7.5124    4.3860    4.1288    4.0135    3.7994    1.9418    8.4883    0.0540 -163.1554   37.7622    0.6164    0.8423 
 769.8000  215.9000  226.4000   59.3531    0.3448    7.4463    2.0414  309.2763  353.2631    0.1498    2.4237    3.0712    0.2838    1.0119    4.0481    3.4519    3.7983    3.7117   11.5258    5.5283    5.1674    5.0176    4.7515    3.2481    9.1362    0.0540 -162.9706   37.7683    1.2424    1.5437 
 769.9000  215.9000  219.9000   56.8191    0.3060    7.2817    1.9717  309.5288  352.1825    0.1493    2.4360    3.1155    0.2593    0.9973    3.7824    3.2489    3.6077    3.4723    9.7002    6.1854    5.9595    5.8036    5.5194    3.2892   11.4091    0.0539 -162.6608   37.7545    1.7858    2.1486 
 770.0000  215.9000  219.3000   55.5726    0.3006    7.2548    1.9460  307.5570  352.5912    0.1514    2.4263    3.1077    0.2501    0.9870    3.3277    2.9562    3.3430    3.2005    5.6741    4.5644    4.4784    4.3583    4.1559    2.8506    8.0065    0.0539 -162.4307   37.7615    1.0179    1.2650 
 770.1000  215.9000  221.8000   54.8030    0.3187    7.2227    1.9407  308.0319  353.0507    0.1534    2.4076    3.0600    0.2499    0.9411    2.9685    2.7465    3.1704    3.1119    3.9353    3.3449    3.3150    3.2296    3.0825    2.3352    5.5386    0.0540 -162.2328   37.7722    0.6239    0.8142 
 770.2000  215.9000  224.6000   54.1927    0.3784    7.0193    1.9547  319.1800  352.0191    0.1525    2.3897    2.9979    0.2627    0.8969    2.5784    2.4458    2.8714    2.7287    3.8009    3.3530    3.3473    3.2617    3.1141    2.5291    5.1366    0.0540 -162.0537   37.7722    0.4935    0.6613 
 770.3000  215.9000  225.2000   54.6728    0.4911    6.8863    1.9749  324.7665  352.0224    0.1514    2.3769    2.9452    0.2727    0.9076    2.6417    2.4628    2.8568    2.7157    3.7819    3.4068    3.4143    3.3325    3.1810    2.6703    4.8827    0.0540 -161.8081   37.7625    0.4414    0.5903 
 770.4000  215.9000  224.5000   55.4627    0.5903    6.7604    1.9911  325.6336  352.1201    0.1508    2.3816    2.9237    0.2792    0.9552    3.0892    2.7978    3.2495    3.0147    3.8791    3.4056    3.4061    3.3314    3.1767    2.5796    5.3754    0.0540 -161.5894   37.7511    0.4598    0.6315 
 770.5000  215.9000  223.1000   55.5356    0.5241    6.5294    1.9771  315.8598  350.6273    0.1528    2.4020    2.9498    0.2755    0.9678    3.3829    3.0085    3.6047    3.2566    4.3992    3.8205    3.8055    3.7405    3.5514    2.8263    6.1199    0.0539 -161.6231   37.7511    0.5471    0.7635 
 770.6000  215.9000  222.4000   55.7721    0.3720    6.4902    2.0023  309.7578  351.6672    0.1541    2.4082    2.9991    0.2695    0.9901    3.7344    3.2953    3.8107    3.4819    4.8293    4.1376    4.0959    4.0383    3.8286    2.9623    6.7537    0.0539 -161.6080   37.7556    0.5735    0.8233 
 770.7000  215.9000  222.0000   55.9428    0.2033    6.5098    2.0327  306.0131  353.3695    0.1546    2.4025    3.0500    0.2630    1.0218    3.8730    3.3958    3.8812    3.5865    5.6322    4.9056    4.8354    4.7811    4.5271    3.5782    7.6640    0.0539 -161.5848   37.7598    0.6276    0.8886 
 770.8000  215.9000  219.8000   55.1100    0.2193    6.2622    1.9625  305.3851  350.7718    0.1523    2.3886    3.0961    0.2608    1.0177    4.3283    3.7137    4.1317    4.0071    6.5679    5.8994    5.8703    5.8150    5.5019    4.6465    8.2229    0.0539 -161.6759   37.7459    0.8351    1.0678 
 770.9000  215.9000  219.8000   53.9765    0.1208    6.3460    1.9603  306.0387  351.8663    0.1522    2.3562    3.1040    0.2650    0.9809    4.0221    3.6989    4.0541    4.0737    5.1424    4.5549    4.5500    4.4862    4.2472    3.5505    6.9013    0.0539 -161.8265   37.7489    0.5982    0.5446 
 771.0000  215.9000  222.0000   52.7393   -0.0300    6.6056    1.9969  307.5033  354.8791    0.1532    2.3256    3.0637    0.2739    0.9388    3.4887    3.1647    3.6684    3.5745    4.1201    3.6135    3.6125    3.5439    3.3529    2.7243    5.6554    0.0539 -162.0052   37.7616    0.3332    0.2948 
 771.1000  215.9000  226.9000   52.5206    0.0603    6.4483    1.9786  308.8714  352.8057    0.1496    2.3142    3.0037    0.2908    0.9257    3.2160    2.8801    3.3538    3.2318    4.2170    3.6434    3.6428    3.5558    3.3632    2.6447    5.8589    0.0539 -162.0703   37.7616    0.4688    0.3730 
 771.2000  215.9000  231.8000   53.8235    0.1473    6.4995    2.0275  314.5818  353.1778    0.1485    2.3054    2.9422    0.3012    0.9092    3.0555    2.7945    3.2665    3.1475    4.4817    3.8168    3.8163    3.7070    3.5019    2.6592    6.2649    0.0540 -162.2149   37.7577    0.6084    0.5504 
 771.3000  215.9000  236.2000   56.4200    0.2330    6.7155    2.1309  323.2718  355.3014    0.1490    2.3072    2.8945    0.3063    0.8974    2.9231    2.7222    2.9773    2.9002    4.6305    3.8513    3.8378    3.7281    3.5124    2.5439    6.4743    0.0540 -162.4234   37.7510    0.3978    0.4728 
 771.4000  215.9000  234.8000   61.3659    0.3464    6.9600    2.2769  321.5843  353.3444    0.1419    2.3198    2.8823    0.3098    0.8933    2.8121    2.5557    2.7411    2.7100    4.5985    3.6639    3.6198    3.5144    3.3081    2.1738    6.4611    0.0541 -162.6706   37.7501    0.4023    0.4843 
 771.5000  215.9000  234.3000   66.6512    0.4305    7.1483    2.3674  321.6697  353.1793    0.1422    2.3344    2.8923    0.3182    0.8962    2.7414    2.4798    2.7842    2.7481    4.4755    3.4793    3.4056    3.3110    3.1103    1.9310    6.2667    0.0541 -162.9197   37.7537    0.4228    0.5394 
 771.6000  215.9000  234.7000   72.2626    0.4866    7.2825    2.4046  323.4585  354.7356    0.1497    2.3536    2.9187    0.3313    0.9025    2.9066    2.5946    2.9191    2.8833    4.7031    3.6012    3.4843    3.3934    3.1848    1.8819    6.5523    0.0540 -163.1706   37.7616    0.4509    0.6066 
 771.7000  215.9000  231.2000   73.2607    0.5116    7.0341    2.3427  326.5006  355.6928    0.1473    2.3671    2.9372    0.3345    0.9064    2.8540    2.6383    3.0404    3.0144    4.5243    3.4554    3.3320    3.2398    3.0414    1.7650    6.3659    0.0539 -163.5899   37.7616    0.4144    0.5081 
 771.8000  215.9000  228.8000   72.2660    0.4972    6.7292    2.2432  329.4389  354.4213    0.1452    2.3763    2.9313    0.3342    0.9136    2.8749    2.6723    3.0971    3.1000    4.2788    3.3612    3.2591    3.1637    2.9745    1.8277    6.1086    0.0539 -163.8789   37.7584    0.3947    0.4641 
 771.9000  215.9000  229.1000   68.9865    0.4369    6.3625    2.1007  332.2403  350.5405    0.1434    2.3766    2.9112    0.3300    0.9100    2.8122    2.6235    2.9601    2.9603    4.1403    3.2871    3.2144    3.1097    2.9280    1.8620    5.9667    0.0538 -164.0128   37.7515    0.4210    0.5347 
 772.0000  215.9000  228.9000   67.1457    0.4707    6.3555    2.0998  335.1658  354.6242    0.1509    2.3593    2.8987    0.3081    0.9185    2.7429    2.5124    2.7826    2.7979    3.8972    3.1829    3.1413    3.0294    2.8560    1.9426    5.6424    0.0538 -164.0659   37.7563    0.4361    0.5760 
 772.1000  215.9000  229.6000   65.0671    0.4826    6.4209    2.1078  336.4136  355.2033    0.1527    2.3395    2.9015    0.2954    0.9105    2.6965    2.4588    2.7237    2.7443    3.7997    3.2134    3.1793    3.0661    2.8963    2.1047    5.4632    0.0538 -164.1604   37.7659    0.4908    0.6526 
