~VERSION INFORMATION
 VERS.                 2.0:   CWLS LOG ASCII STANDARD - VERSION 2.0
 WRAP.                  NO:   SINGLE LINE PER DEPTH STEP
~WELL INFORMATION
#MNEM.UNIT       DATA           DESCRIPTION MNEMONIC
#---------    -------------   --------------------------
 STRT.M         0.0000                        : START DEPTH
 STOP.M         998.0000                      : STOP DEPTH
 STEP.M         0.1000                        : STEP VALUE
 NULL.          -999.0000                     : NULL VALUE
 SRVC.          SCH                           : Service Company/Logging company
 DATE.          08.08.2023                    : LAS file Creation Date
 WELL    .      Каратобе КН-3                 : Well Name
 COMP    .      COMPANY                       : Company
 FLD     .      Каратобе                      : Field
 STATE   .      1                             : State
 COUNT   .      Kazakhstan                    : Country
~CURVE INFORMATION
#MNEM          UNIT     API CODE   Description
#---------- ---------- ----------  -----------
 DEPTH     .M                    : Depth Index
 BSC       .mm                   : Nominal Caliper
 CALI      .mm                   : Caliper
 GR        .gAPI                 : Gamma Ray
 URAN      .PPM                  : Uranium
 THOR      .PPM                  : Thorium
 POTA      .%                    : Potasium
 DT        .uSec/m               : Sonic travel time
 HAZIM     .deg                  : Hole Azimuth
 SDEVM     .deg                  : Hole Deviation
 RHOZ      .g/cm3                : Bulk Density
 PEFZ      .B/E                  : Formation Photoelectric Factor 
 TNPH      .v/v                  : Neutron porosity
 AT10      .ohm.m                : 10" Array Induction, two foot resolution Resistivity
 AT20      .ohm.m                : 20" Array Induction, two foot resolution Resistivity
 AT30      .ohm.m                : 30" Array Induction, two foot resolution Resistivity
 AT60      .ohm.m                : 60" Array Induction, two foot resolution Resistivity
 AT90      .ohm.m                : 90" Array Induction, two foot resolution Resistivity
 RLA1      .ohm.m                : HRLT Borehole Corrected Resistivity 1
 RLA2      .ohm.m                : HRLT Borehole Corrected Resistivity 2
 RLA3      .ohm.m                : HRLT Borehole Corrected Resistivity 3
 RLA4      .ohm.m                : HRLT Borehole Corrected Resisitivity 4
 RLA5      .ohm.m                : HRLT Borehole Corrected Resistivity 5 
 RT        .ohm.m                : Formation Resistivity
 RXO       .ohm.m                : Flushed zone resistivity
 AHMF      .ohm.m                : Array Induction Mud Resistivity Fully Calibrated
 SP        .mV                   : Spontaneous Potential
 MTEM      .degC                 : Formation Temperature
 HMIN      .ohm.m                : HIP Micro Inverse Resistivity
 HMNO      .ohm.m                : HIP Micro Normal Resistivity
~A Log data section
# ...
 318.6000  215.9000  211.9000   78.9212    0.5739    4.6263    3.1566  463.2430    6.0177    0.4542    2.0725    2.5091    0.3872    0.6930    2.6330    3.4616    7.6149   13.7729    2.9403    3.9656    4.4756    4.5750    4.4278    5.8639    1.2744    0.0586 -117.2500   34.0369    0.3642    0.3242 
 318.7000  215.9000  212.0000   76.0852    0.6966    4.4859    3.1134  461.5341    5.8406    0.4516    2.0767    2.5362    0.3666    0.7025    2.8610    3.7700    8.7049   15.6453    2.9847    4.0361    4.5791    4.6268    4.4851    5.9484    1.2813    0.0586 -117.2500   34.0416    0.3740    0.3328 
 318.8000  215.9000  212.1000   72.4879    0.8206    4.5068    3.0791  460.4568    5.6315    0.4491    2.0811    2.5653    0.3942    0.7073    2.8980    3.8160    8.3211   13.2233    3.0456    4.1029    4.6881    4.6755    4.5414    6.0159    1.3224    0.0586 -117.2500   34.0565    0.3731    0.3320 
 318.9000  215.9000  212.2000   69.9514    0.8813    4.6563    3.0602  457.8914    5.3749    0.4462    2.0838    2.6041    0.4002    0.7257    2.9305    3.7599    7.6381    9.9339    3.2440    4.3337    4.9839    4.9440    4.8040    6.3540    1.4268    0.0586 -117.2500   34.0478    0.3754    0.3341 
 319.0000  215.9000  212.1000   68.6574    0.9080    4.7961    3.0298  455.3065    5.0826    0.4420    2.0875    2.6355    0.4017    0.7391    2.9623    3.7253    7.9095    9.2001    3.2565    4.2594    4.8460    4.7961    4.6654    6.1006    1.5021    0.0585 -117.2500   34.0389    0.3607    0.3211 
 319.1000  215.9000  211.9000   69.9606    0.8885    4.8173    2.9571  453.7382    4.7280    0.4348    2.0929    2.6516    0.4066    0.7508    2.9236    3.7593    8.0083    8.4508    3.2227    4.1717    4.6310    4.5895    4.4680    5.7725    1.5562    0.0585 -117.2500   34.0463    0.3517    0.3132 
 319.2000  215.9000  211.9000   71.0579    0.7383    5.1377    2.8722  450.9419    4.4734    0.4303    2.0966    2.6596    0.3979    0.7659    3.0620    4.0746    8.8047    9.3023    3.5010    4.6242    5.0302    5.0323    4.8926    6.3444    1.6359    0.0585 -117.2500   34.0703    0.3626    0.3227 
 319.3000  215.9000  211.8000   71.6167    0.5501    5.4726    2.7872  447.8810    4.2676    0.4268    2.1008    2.6382    0.3853    0.7696    2.8247    3.8160    7.8792    7.9835    3.7652    5.0189    5.3676    5.4145    5.2665    6.8186    1.7499    0.0585 -117.2500   34.0854    0.3798    0.3379 
 319.4000  215.9000  211.7000   70.5235    0.3902    5.4869    2.7164  445.4112    4.1106    0.4234    2.1059    2.5899    0.3754    0.7449    2.4539    3.1386    5.4242    5.1498    3.4549    4.2481    4.4574    4.5074    4.3863    5.4164    1.9616    0.0586 -117.2500   34.0481    0.3653    0.3251 
 319.5000  215.9000  211.8000   68.4407    0.3894    5.3668    2.6467  445.4945    3.8201    0.4182    2.1053    2.5500    0.3727    0.7183    2.1518    2.5735    3.8975    3.6130    3.2748    3.7735    3.9386    3.9979    3.8946    4.5951    2.1266    0.0586 -117.2500   34.0421    0.3634    0.3235 
 319.6000  215.9000  212.0000   66.2322    0.4869    5.1494    2.5738  446.8255    3.5211    0.4131    2.1023    2.5393    0.3727    0.7178    2.0830    2.4265    3.3790    3.3149    3.4750    3.8288    4.0180    4.1218    4.0179    4.5990    2.3173    0.0586 -117.2500   34.0508    0.3825    0.3403 
 319.7000  215.9000  212.0000   65.4806    0.7313    4.7372    2.4828  448.9065    3.4596    0.4123    2.1150    2.5545    0.3711    0.7239    2.1109    2.4386    3.2448    3.2517    3.7569    4.1466    4.3646    4.4954    4.3938    5.0805    2.5208    0.0587 -117.2500   34.0657    0.3769    0.3354 
 319.8000  215.9000  212.1000   63.8087    0.8131    4.4783    2.4226  434.7982    3.4595    0.4115    2.1549    2.6053    0.3583    0.7349    2.1599    2.4880    3.2580    3.2067    3.6202    4.0004    4.2020    4.3228    4.2278    4.8836    2.4247    0.0587 -117.2500   34.0758    0.3634    0.3235 
 319.9000  215.9000  212.2000   61.6799    0.7986    4.3040    2.3809  409.8498    3.4895    0.4107    2.2231    2.6852    0.3341    0.7766    2.4815    2.8914    4.0592    3.7138    3.4427    3.8966    4.0964    4.2021    4.1196    4.8413    2.3541    0.0587 -117.2508   34.0820    0.3985    0.3541 
 320.0000  215.9000  212.4000   59.8353    0.7191    4.1455    2.3538  369.3341    3.4973    0.4103    2.3127    2.8035    0.2699    0.8561    3.8813    4.9496    8.2337    6.4193    7.7764   10.6454   11.7830   12.2385   12.0597   15.9706    3.7516    0.0588 -117.2571   34.0799    0.6931    0.6286 
 320.1000  215.9000  213.2000   58.1135    0.5916    4.2124    2.3666  342.4505    3.4808    0.4112    2.3843    2.8779    0.2261    0.9730    6.8916   10.7224   16.3395   12.9691   18.9665   29.9077   35.0835   36.9613   36.7659   50.7612    6.8771    0.0588 -117.2558   34.0721    2.1280    2.4685 
 320.2000  215.9000  214.6000   56.7674    0.4301    4.4329    2.4079  326.3574    3.4473    0.4132    2.3969    2.8830    0.1998    0.9833    7.2652   11.7399   16.8923   14.4428   28.8297   49.2393   60.1384   64.5664   64.6181   89.2419    8.5880    0.0588 -117.2500   34.0629    4.2013    5.6488 
 320.3000  215.9000  214.1000   58.7993    0.2479    4.6907    2.4681  329.8408    3.4034    0.4175    2.3456    2.8510    0.2157    0.9922    8.1279   12.8583   20.7884   14.7058    6.9007    7.8841    8.7201    8.9936    8.8035   10.7501    3.9099    0.0588 -117.2500   34.0813    2.1208    1.9494 
 320.4000  215.9000  213.1000   60.5028    0.1718    4.8089    2.5381  350.2224    3.4323    0.4214    2.2519    2.7519    0.2555    0.9126    6.5249    9.3777   20.8962    9.4176    4.0334    4.4121    4.8012    4.8512    4.7902    5.6113    2.7494    0.0587 -117.2500   34.0869    0.6091    0.5401 
 320.5000  215.9000  211.8000   61.9372    0.1825    4.8102    2.6166  384.8568    3.5215    0.4249    2.1480    2.5953    0.3146    0.8326    3.8201    4.7983    8.4495    5.0861    3.7091    4.0352    4.3416    4.3723    4.3154    4.9446    2.4909    0.0587 -117.2500   34.0821    0.3667    0.3257 
 320.6000  215.9000  211.6000   63.3627    0.1850    4.7217    2.7141  433.2955    3.6341    0.4287    2.0708    2.4740    0.3580    0.7841    2.9986    3.7638    6.1348    4.4444    4.0660    4.5102    4.8020    4.8405    4.7609    5.5202    2.7520    0.0587 -117.2500   34.0746    0.3348    0.2978 
 320.7000  215.9000  211.6000   64.4375    0.2053    4.7574    2.7771  467.5247    3.9290    0.4323    2.0304    2.4065    0.3876    0.7680    2.7431    3.4521    5.9188    4.1910    4.2817    4.7439    5.0346    5.0752    4.9882    5.7651    2.8776    0.0586 -117.2500   34.0709    0.3813    0.3381 
 320.8000  215.9000  211.7000   65.1616    0.2434    4.9172    2.8056  487.5443    4.4063    0.4358    2.0171    2.3722    0.4034    0.7524    2.4604    3.0630    5.3100    3.7187    3.8698    4.4098    4.6766    4.7099    4.6417    5.4969    2.5390    0.0586 -117.2500   34.0709    0.4305    0.3820 
 320.9000  215.9000  211.7000   66.9840    0.3418    4.9019    2.7909  478.2640    4.6630    0.4382    2.0166    2.3571    0.4062    0.7244    2.1501    2.7990    4.7941    3.5190    3.0494    3.5452    3.6939    3.7076    3.6554    4.3428    2.0647    0.0586 -117.2500   34.0856    0.3611    0.3203 
 321.0000  215.9000  211.9000   68.2590    0.4045    4.9141    2.7685  475.0367    4.9749    0.4402    2.0164    2.3619    0.4181    0.6986    1.9821    2.4576    4.0931    3.2771    2.8675    3.4154    3.5372    3.5418    3.4928    4.1734    1.7860    0.0586 -117.2500   34.0951    0.3007    0.2654 
 321.1000  215.9000  212.1000   68.8653    0.4238    4.9628    2.7383  479.6170    5.3568    0.4418    2.0159    2.3768    0.4411    0.6751    1.8271    2.2457    3.5788    3.2463    2.7821    3.3631    3.4697    3.4635    3.4161    4.1085    1.7072    0.0586 -117.2500   34.0982    0.2963    0.2606 
 321.2000  215.9000  212.1000   68.9967    0.4133    5.1722    2.8177  475.8042    5.7407    0.4405    2.0204    2.3707    0.4282    0.6657    1.7390    2.1377    3.2982    3.3917    2.7358    3.3615    3.5394    3.4971    3.4471    4.2275    1.5790    0.0585 -117.2500   34.0801    0.3008    0.2646 
