~VERSION INFORMATION
 VERS.                 2.0:   CWLS LOG ASCII STANDARD - VERSION 2.0
 WRAP.                  NO:   SINGLE LINE PER DEPTH STEP
~WELL INFORMATION
#MNEM.UNIT       DATA           DESCRIPTION MNEMONIC
#---------    -------------   --------------------------
 STRT.M         0.0000                        : START DEPTH
 STOP.M         998.0000                      : STOP DEPTH
 STEP.M         0.1000                        : STEP VALUE
 NULL.          -999.0000                     : NULL VALUE
 SRVC.          SCH                           : Service Company/Logging company
 DATE.          08.08.2023                    : LAS file Creation Date
 WELL    .      Каратобе КН-3                 : Well Name
 COMP    .      COMPANY                       : Company
 FLD     .      Каратобе                      : Field
 STATE   .      1                             : State
 COUNT   .      Kazakhstan                    : Country
~CURVE INFORMATION
#MNEM          UNIT     API CODE   Description
#---------- ---------- ----------  -----------
 DEPTH     .M                    : Depth Index
 BSC       .mm                   : Nominal Caliper
 CALI      .mm                   : Caliper
 GR        .gAPI                 : Gamma Ray
 URAN      .PPM                  : Uranium
 THOR      .PPM                  : Thorium
 POTA      .%                    : Potasium
 DT        .uSec/m               : Sonic travel time
 HAZIM     .deg                  : Hole Azimuth
 SDEVM     .deg                  : Hole Deviation
 RHOZ      .g/cm3                : Bulk Density
 PEFZ      .B/E                  : Formation Photoelectric Factor 
 TNPH      .v/v                  : Neutron porosity
 AT10      .ohm.m                : 10" Array Induction, two foot resolution Resistivity
 AT20      .ohm.m                : 20" Array Induction, two foot resolution Resistivity
 AT30      .ohm.m                : 30" Array Induction, two foot resolution Resistivity
 AT60      .ohm.m                : 60" Array Induction, two foot resolution Resistivity
 AT90      .ohm.m                : 90" Array Induction, two foot resolution Resistivity
 RLA1      .ohm.m                : HRLT Borehole Corrected Resistivity 1
 RLA2      .ohm.m                : HRLT Borehole Corrected Resistivity 2
 RLA3      .ohm.m                : HRLT Borehole Corrected Resistivity 3
 RLA4      .ohm.m                : HRLT Borehole Corrected Resisitivity 4
 RLA5      .ohm.m                : HRLT Borehole Corrected Resistivity 5 
 RT        .ohm.m                : Formation Resistivity
 RXO       .ohm.m                : Flushed zone resistivity
 AHMF      .ohm.m                : Array Induction Mud Resistivity Fully Calibrated
 SP        .mV                   : Spontaneous Potential
 MTEM      .degC                 : Formation Temperature
 HMIN      .ohm.m                : HIP Micro Inverse Resistivity
 HMNO      .ohm.m                : HIP Micro Normal Resistivity
~A Log data section
# ...
 599.4000  215.9000  213.9000   52.1270    0.0289    4.3063    1.9392  420.0508  344.3705    0.1816    2.0024    2.0295    0.3835    0.4993    0.8606    0.8828    0.9884    1.0308    1.0108    1.0622    1.0976    1.0915    1.0665    1.1030    0.8373    0.0552 -136.0095   36.6122    0.2951    0.2622 
 599.5000  215.9000  214.0000   51.2581    0.1075    4.5751    1.9846  423.7299  345.1854    0.1819    2.0270    2.0727    0.3847    0.4973    0.8464    0.8564    0.9461    0.9975    1.0087    1.0653    1.0998    1.0938    1.0705    1.1150    0.8068    0.0552 -136.4026   36.6228    0.2797    0.2483 
 599.6000  215.9000  214.0000   50.6211    0.1229    4.8554    2.0493  427.4687  346.0699    0.1829    2.0479    2.1394    0.3863    0.4946    0.8314    0.8335    0.9119    0.9683    0.9797    1.0364    1.0689    1.0649    1.0439    1.0892    0.7778    0.0553 -136.6336   36.6171    0.2846    0.2526 
 599.7000  215.9000  214.0000   50.3682    0.1036    5.1598    2.1323  430.9610  346.9869    0.1843    2.0738    2.2237    0.3882    0.5004    0.8407    0.8443    0.9182    0.9656    0.9240    0.9673    0.9937    0.9935    0.9735    1.0012    0.7779    0.0553 -136.7408   36.6024    0.2924    0.2599 
 599.8000  215.9000  214.1000   53.5018    0.2565    5.7124    2.2860  429.9144  347.6198    0.1865    2.1101    2.3287    0.3907    0.5174    0.9197    0.9285    1.0222    1.0611    0.9422    0.9821    1.0101    1.0127    0.9912    1.0158    0.8074    0.0554 -136.7471   36.6350    0.3473    0.3084 
 599.9000  215.9000  214.1000   59.0093    0.4113    6.4298    2.4619  429.0428  348.2475    0.1893    2.1459    2.4663    0.3882    0.5394    1.0214    1.0322    1.1367    1.1832    1.1314    1.1879    1.2308    1.2367    1.2084    1.2592    0.9011    0.0554 -136.7500   36.6363    0.4420    0.3924 
 600.0000  215.9000  214.1000   66.5760    0.5706    7.2852    2.6571  428.2260  348.8765    0.1925    2.1715    2.6110    0.3814    0.5652    1.1145    1.1272    1.2619    1.3110    1.3037    1.3515    1.4034    1.4075    1.3736    1.4141    1.0808    0.0554 -136.7500   36.6111    0.4277    0.3801 
 600.1000  215.9000  214.0000   77.7989    1.0153    7.8928    2.9063  418.0999  350.0896    0.1965    2.1911    2.7067    0.3858    0.5952    1.2019    1.1980    1.3422    1.3697    1.1552    1.1753    1.2164    1.2172    1.1876    1.1968    1.1016    0.0554 -136.7500   36.6181    0.3707    0.3293 
 600.2000  215.9000  213.7000   88.6357    1.3919    8.3923    3.0960  411.0461  351.1708    0.2002    2.2015    2.7420    0.3903    0.6273    1.3249    1.3119    1.4823    1.4923    1.2426    1.2636    1.3058    1.3093    1.2759    1.2823    1.2326    0.0554 -136.7583   36.6284    0.4391    0.3924 
 600.3000  215.9000  213.4000   99.0704    1.6975    8.7791    3.2235  407.1899  352.1147    0.2037    2.2055    2.7195    0.3949    0.6816    1.4965    1.4935    1.6867    1.6841    1.6628    1.7054    1.7658    1.7749    1.7282    1.7473    1.5528    0.0554 -136.7753   36.6421    0.5806    0.5239 
 600.4000  215.9000  213.7000  104.2452    1.8681    9.2531    3.3391  397.7568  353.3989    0.2094    2.2138    2.6356    0.3992    0.7384    1.8103    1.7857    2.0597    1.9938    2.1201    2.1698    2.2568    2.2693    2.2076    2.2439    1.8843    0.0554 -137.2393   36.6258    0.6718    0.5978 
 600.5000  215.9000  214.3000  107.9182    2.0549    9.5458    3.3720  386.2555  354.5854    0.2140    2.2243    2.5445    0.3945    0.7598    1.9594    1.9906    2.2762    2.1194    2.0802    2.1115    2.1895    2.2015    2.1385    2.1606    1.9450    0.0554 -137.8965   36.6237    0.6406    0.5688 
 600.6000  215.9000  215.1000  109.9588    2.2697    9.6031    3.3005  372.4179  355.6296    0.2171    2.2346    2.4755    0.3782    0.7746    2.0088    2.0326    2.3560    2.1529    1.9886    2.0160    2.0879    2.0995    2.0410    2.0602    1.8699    0.0554 -138.7759   36.6413    0.6063    0.5532 
 600.7000  215.9000  215.5000  111.5125    2.3452    9.8857    3.3524  364.3069  356.4718    0.2194    2.2417    2.4463    0.3806    0.7878    2.0936    2.1021    2.4106    2.2089    2.1217    2.1839    2.2631    2.2776    2.2202    2.2626    1.8613    0.0554 -139.6874   36.6403    0.7476    0.7078 
 600.8000  215.9000  215.5000  114.4826    2.4017   10.1950    3.3679  360.5175  357.4209    0.2220    2.2413    2.4520    0.3884    0.8065    2.1357    2.1239    2.4045    2.2196    2.2972    2.3627    2.4428    2.4486    2.3878    2.4245    2.0717    0.0554 -140.4162   36.6424    0.8565    0.7896 
 600.9000  215.9000  215.0000  119.7345    2.4472   10.5153    3.3095  362.7089  358.5644    0.2253    2.2350    2.4626    0.4023    0.8139    2.1631    2.1442    2.4347    2.2417    2.2259    2.2627    2.3345    2.3317    2.2798    2.2961    2.1571    0.0555 -140.8545   36.6520    0.7776    0.7020 
 601.0000  215.9000  214.1000  121.9920    2.3809   11.0391    3.3252  365.6764  359.1158    0.2280    2.2272    2.4631    0.4125    0.8112    2.1457    2.1790    2.4711    2.2929    2.2164    2.2159    2.2955    2.2871    2.2420    2.2548    2.2448    0.0555 -141.1422   36.6413    0.7530    0.6970 
 601.1000  215.9000  213.7000  123.2113    2.2710   11.4068    3.3228  374.1584  279.0829    0.2308    2.2158    2.4647    0.4116    0.7926    2.0008    2.0394    2.3458    2.1985    2.3449    2.3374    2.4210    2.4121    2.3684    2.3830    2.3082    0.0555 -141.2906   36.6361    0.7507    0.6926 
 601.2000  215.9000  214.4000  123.2840    2.1090   11.4125    3.2640  393.1199   42.7934    0.2336    2.2044    2.4674    0.3904    0.7676    1.8079    1.8180    2.1058    1.9696    2.1560    2.1421    2.1946    2.1807    2.1441    2.1661    2.1003    0.0555 -141.2120   36.6479    0.6589    0.6013 
 601.3000  215.9000  214.8000  120.8879    2.3489   11.3128    3.1434  401.7348    0.4673    0.2351    2.1979    2.4735    0.3942    0.7393    1.6337    1.6412    1.8688    1.7585    1.8877    1.8767    1.8888    1.8787    1.8474    1.8725    1.9205    0.0555 -141.1768   36.6461    0.5972    0.5371 
 601.4000  215.9000  214.9000  118.4620    2.5636   11.3994    3.0386  405.8556    0.8050    0.2361    2.1958    2.4892    0.3977    0.7442    1.5889    1.6314    1.8341    1.7560    1.8372    1.8365    1.8313    1.8205    1.7900    1.8127    1.9465    0.0555 -141.2219   36.6468    0.5971    0.5344 
 601.5000  215.9000  214.7000  117.2312    2.5137   11.9747    3.0022  404.7894    1.3446    0.2366    2.1957    2.5092    0.3873    0.7670    1.6919    1.7578    1.9887    1.9098    1.9388    1.9375    1.9306    1.9216    1.8900    1.9115    2.0760    0.0555 -141.4324   36.6606    0.6067    0.5431 
 601.6000  215.9000  215.2000  115.9382    2.4641   12.3057    3.0743  403.6434    1.6725    0.2364    2.2012    2.4943    0.3766    0.7596    1.7745    1.8664    2.0764    2.0037    2.0826    2.0620    2.0557    2.0421    2.0088    2.0169    2.3359    0.0555 -141.5076   36.6511    0.6540    0.5820 
 601.7000  215.9000  215.4000  113.8855    2.3526   12.4556    3.1316  402.4402    1.9595    0.2354    2.2045    2.4375    0.3680    0.7822    1.9030    2.0095    2.2747    2.2046    2.3064    2.2751    2.2754    2.2522    2.2112    2.2218    2.5737    0.0555 -141.4397   36.6410    0.7329    0.6504 
 601.8000  215.9000  213.8000  109.6093    2.0557   12.2812    3.0476  401.1371    2.3138    0.2325    2.1790    2.3654    0.3658    0.7722    1.8873    1.9528    2.2135    2.1410    2.3025    2.2679    2.2847    2.2560    2.2177    2.2470    2.4186    0.0555 -141.0636   36.6506    0.6826    0.6048 
 601.9000  215.9000  213.3000  105.9459    1.7261   11.9756    2.9146  407.4651    2.4884    0.2318    2.1125    2.2802    0.3736    0.7588    1.7938    1.8609    2.2025    2.1595    1.9976    1.9693    1.9928    1.9661    1.9368    1.9658    2.0372    0.0554 -140.8118   36.6625    0.5599    0.4965 
 602.0000  215.9000  213.2000  102.2338    1.4371   11.5655    2.7747  416.1713    2.5835    0.2315    2.0252    2.1835    0.3942    0.7439    1.7159    1.7252    1.9678    1.9603    1.7328    1.7143    1.7371    1.7092    1.6844    1.7069    1.8109    0.0554 -140.6971   36.6702    0.4852    0.4312 
