~VERSION INFORMATION
 VERS.                 2.0:   CWLS LOG ASCII STANDARD - VERSION 2.0
 WRAP.                  NO:   SINGLE LINE PER DEPTH STEP
~WELL INFORMATION
#MNEM.UNIT       DATA           DESCRIPTION MNEMONIC
#---------    -------------   --------------------------
 STRT.M         0.0000                        : START DEPTH
 STOP.M         998.0000                      : STOP DEPTH
 STEP.M         0.1000                        : STEP VALUE
 NULL.          -999.0000                     : NULL VALUE
 SRVC.          SCH                           : Service Company/Logging company
 DATE.          08.08.2023                    : LAS file Creation Date
 WELL    .      Каратобе КН-3                 : Well Name
 COMP    .      COMPANY                       : Company
 FLD     .      Каратобе                      : Field
 STATE   .      1                             : State
 COUNT   .      Kazakhstan                    : Country
~CURVE INFORMATION
#MNEM          UNIT     API CODE   Description
#---------- ---------- ----------  -----------
 DEPTH     .M                    : Depth Index
 BSC       .mm                   : Nominal Caliper
 CALI      .mm                   : Caliper
 GR        .gAPI                 : Gamma Ray
 URAN      .PPM                  : Uranium
 THOR      .PPM                  : Thorium
 POTA      .%                    : Potasium
 DT        .uSec/m               : Sonic travel time
 HAZIM     .deg                  : Hole Azimuth
 SDEVM     .deg                  : Hole Deviation
 RHOZ      .g/cm3                : Bulk Density
 PEFZ      .B/E                  : Formation Photoelectric Factor 
 TNPH      .v/v                  : Neutron porosity
 AT10      .ohm.m                : 10" Array Induction, two foot resolution Resistivity
 AT20      .ohm.m                : 20" Array Induction, two foot resolution Resistivity
 AT30      .ohm.m                : 30" Array Induction, two foot resolution Resistivity
 AT60      .ohm.m                : 60" Array Induction, two foot resolution Resistivity
 AT90      .ohm.m                : 90" Array Induction, two foot resolution Resistivity
 RLA1      .ohm.m                : HRLT Borehole Corrected Resistivity 1
 RLA2      .ohm.m                : HRLT Borehole Corrected Resistivity 2
 RLA3      .ohm.m                : HRLT Borehole Corrected Resistivity 3
 RLA4      .ohm.m                : HRLT Borehole Corrected Resisitivity 4
 RLA5      .ohm.m                : HRLT Borehole Corrected Resistivity 5 
 RT        .ohm.m                : Formation Resistivity
 RXO       .ohm.m                : Flushed zone resistivity
 AHMF      .ohm.m                : Array Induction Mud Resistivity Fully Calibrated
 SP        .mV                   : Spontaneous Potential
 MTEM      .degC                 : Formation Temperature
 HMIN      .ohm.m                : HIP Micro Inverse Resistivity
 HMNO      .ohm.m                : HIP Micro Normal Resistivity
~A Log data section
# ...
 542.7000  215.9000  225.3000   94.6500    2.1983   10.4915    2.1227  431.0157   40.2433    0.1885    2.2628    3.1043    0.4428    0.8451    2.7992    2.8614    3.3224    3.2802    3.7663    3.6541    3.7182    3.6811    3.4856    3.4417    4.5770    0.0562 -146.7283   36.0021    0.7984    0.7375 
 542.8000  215.9000  222.8000   94.6409    2.0633   10.1899    2.1591  429.9242   40.5663    0.1857    2.2626    3.0786    0.4934    0.8419    2.7268    2.7862    3.4048    3.2710    3.5308    3.4711    3.5208    3.4832    3.2982    3.2994    4.2084    0.0562 -146.5751   36.0000    0.5389    0.5202 
 542.9000  215.9000  220.9000   94.1338    1.9501   10.0529    2.1873  428.3159   40.8830    0.1836    2.2652    3.0697    0.5484    0.8401    2.7038    2.7250    3.4586    3.2961    3.3540    3.3215    3.3662    3.3331    3.1572    3.1789    3.9646    0.0562 -146.5000   36.0115    0.4969    0.4929 
 543.0000  215.9000  219.8000   93.1482    1.8579   10.0742    2.2075  426.2111   41.1936    0.1820    2.2723    3.0831    0.6075    0.8429    2.7355    2.7306    3.3975    3.3071    3.3635    3.3095    3.3548    3.3222    3.1488    3.1402    4.0641    0.0563 -146.5000   36.0361    0.6027    0.6087 
 543.1000  215.9000  217.5000   94.4630    1.9279   10.0722    2.2027  424.4223   41.1106    0.1805    2.2726    3.0931    0.6375    0.8475    2.7507    2.7839    3.3153    3.2961    3.4103    3.3486    3.3970    3.3601    3.1857    3.1779    4.0950    0.0563 -146.5000   36.0216    0.7415    0.7037 
 543.2000  215.9000  215.7000   95.2567    1.9396   10.0470    2.2372  422.8942   41.0361    0.1798    2.2767    3.1205    0.6079    0.8485    2.8200    2.8482    3.3839    3.4010    3.3950    3.3606    3.4174    3.3787    3.2093    3.2439    3.9511    0.0563 -146.5000   36.0101    0.7433    0.6953 
 543.3000  215.9000  215.1000   95.4115    1.8808    9.9950    2.3181  421.6684   40.9762    0.1802    2.2897    3.1579    0.5085    0.8438    2.7350    2.8342    3.5145    3.6339    3.4594    3.4358    3.5034    3.4552    3.2845    3.3481    3.9019    0.0563 -146.5000   36.0026    0.7387    0.6964 
 543.4000  215.9000  215.9000   95.4012    1.7748    9.9178    2.3355  422.4330   40.7997    0.1813    2.2959    3.1777    0.4739    0.8318    2.6829    2.7371    3.4131    3.4935    3.2600    3.2615    3.3283    3.2793    3.1246    3.2087    3.5353    0.0562 -146.5000   36.0393    0.5575    0.5377 
 543.5000  215.9000  218.6000   95.6894    1.7365    9.9689    2.3504  422.9706   40.4655    0.1826    2.2931    3.1768    0.4567    0.8207    2.5521    2.7174    3.2346    3.3520    2.9697    2.9811    3.0340    2.9822    2.8465    2.9083    3.3435    0.0562 -146.4971   36.0489    0.4439    0.4439 
 543.6000  215.9000  223.5000   96.4043    1.7961   10.1994    2.3675  423.0191   39.9239    0.1839    2.2902    3.1562    0.4581    0.8328    2.6240    2.7346    3.3067    3.3668    3.2210    3.2557    3.3073    3.2386    3.0994    3.1690    3.6525    0.0561 -146.4903   36.0171    0.5058    0.5064 
 543.7000  215.9000  222.3000   94.7968    1.6122   10.0442    2.4023  423.2210   39.6074    0.1864    2.2864    3.1422    0.4645    0.8470    2.7686    2.8114    3.5048    3.5480    3.6533    3.6708    3.7412    3.6479    3.4958    3.5678    4.1336    0.0561 -146.2845   36.0269    0.7513    0.7128 
 543.8000  215.9000  220.6000   93.7104    1.4366    9.9452    2.4328  422.0599   39.4733    0.1898    2.2866    3.1436    0.4680    0.8432    2.7358    2.8258    3.3719    3.3679    3.6211    3.6136    3.6833    3.5874    3.4391    3.4924    4.1640    0.0561 -146.0616   36.0390    0.7739    0.7127 
 543.9000  215.9000  221.2000   93.9999    1.3262   10.0232    2.4522  418.5454   39.6026    0.1948    2.2913    3.1535    0.4653    0.8247    2.5448    2.7042    3.1913    3.1807    3.3731    3.3321    3.3869    3.2955    3.1686    3.1634    4.0451    0.0561 -145.8513   36.0465    0.6409    0.6327 
 544.0000  215.9000  224.1000   90.1285    1.3214    9.7457    2.4811  415.4854   39.6832    0.1984    2.3046    3.1733    0.4733    0.8196    2.3939    2.5318    3.0065    3.0060    3.1830    3.1360    3.1692    3.0884    2.9756    2.9409    3.9031    0.0561 -145.7803   36.0557    0.5643    0.5864 
 544.1000  215.9000  225.6000   87.3767    1.3539    9.5697    2.5175  412.7719   39.7776    0.2018    2.3162    3.1959    0.4848    0.8332    2.5628    2.6957    3.3104    3.3353    3.2285    3.2057    3.2148    3.1468    3.0314    3.0028    3.9720    0.0562 -145.7051   36.0592    0.5936    0.6079 
 544.2000  215.9000  221.3000   88.6883    1.4226    9.7534    2.5661  410.6109   39.9207    0.2050    2.3131    3.1840    0.4993    0.8534    2.7033    2.8915    3.4748    3.4027    3.3692    3.3257    3.3234    3.2619    3.1437    3.0822    4.2088    0.0562 -145.5646   36.0496    0.6804    0.6700 
 544.3000  215.9000  218.6000   89.1823    1.4766    9.5851    2.5748  410.6915   40.0554    0.2094    2.3061    3.1591    0.5081    0.8643    2.8687    2.9945    3.5671    3.3667    3.5171    3.4281    3.4277    3.3754    3.2608    3.1559    4.4439    0.0562 -145.5283   36.0536    0.7303    0.7080 
 544.4000  215.9000  216.7000   89.6839    1.5339    9.4171    2.5603  410.6665   40.0670    0.2138    2.2998    3.1488    0.5135    0.8681    2.9455    3.0643    3.6044    3.4677    3.6836    3.5045    3.5209    3.4788    3.3642    3.1896    4.6905    0.0563 -145.4875   36.0577    0.7878    0.7439 
 544.5000  215.9000  214.7000   90.7588    1.6104    9.4878    2.5100  408.8404   39.7516    0.2176    2.2902    3.1565    0.5136    0.8721    3.0280    3.1313    3.6571    3.5004    3.6447    3.4876    3.5191    3.4874    3.3721    3.2658    4.4853    0.0562 -145.3641   36.0529    0.8320    0.7626 
 544.6000  215.9000  213.6000   90.3217    1.7258    9.2518    2.4183  406.9462   38.9430    0.2229    2.2821    3.1682    0.4831    0.8774    3.2037    3.2484    3.8667    3.5991    3.5913    3.4878    3.5274    3.4967    3.3902    3.3781    4.1420    0.0562 -145.0933   36.0497    0.8411    0.7628 
 544.7000  215.9000  213.3000   89.3792    1.8024    9.0505    2.3359  401.2544   38.1439    0.2285    2.2793    3.1848    0.4483    0.8788    3.1313    3.3256    3.9917    3.6726    3.4751    3.3978    3.4493    3.4272    3.3350    3.3755    3.7317    0.0562 -144.8171   36.0509    0.8179    0.7449 
 544.8000  215.9000  214.6000   88.4318    1.6962    9.3349    2.3352  382.1791   37.9612    0.2331    2.2917    3.2262    0.4346    0.8818    3.2367    3.3627    4.0585    3.6914    3.4194    3.3721    3.4435    3.4202    3.3279    3.3808    3.5919    0.0562 -144.6956   36.0659    0.7901    0.7315 
 544.9000  215.9000  215.4000   89.1296    1.5787    9.7921    2.3568  364.3605   37.4380    0.2380    2.3192    3.2641    0.4188    0.9131    3.7360    3.7615    4.5049    3.8092    3.8268    3.8271    3.9360    3.9075    3.8046    3.8604    3.9725    0.0562 -144.4947   36.0667    0.7054    0.6928 
 545.0000  215.9000  215.8000   90.1366    1.4544   10.2394    2.3854  349.7412   36.8240    0.2427    2.3551    3.3024    0.4070    0.9463    4.5323    4.8210    6.4342    4.9478    4.6152    4.6968    4.8719    4.8433    4.7264    4.7995    4.3306    0.0562 -144.2083   36.0619    0.5463    0.6097 
 545.1000  215.9000  216.2000   89.3400    1.3212   10.3045    2.4026  347.2433   36.4613    0.2463    2.3964    3.3601    0.4168    0.9627    4.9428    5.2084    7.4330    5.5567    5.4642    5.7760    6.0589    6.0370    5.9295    6.3370    3.8781    0.0563 -143.6875   36.0598    0.5999    0.7249 
 545.2000  215.9000  216.4000   89.7748    1.2150   10.4489    2.3918  346.9951   36.1976    0.2492    2.4277    3.4144    0.4296    0.9249    4.2607    4.5133    6.1928    4.9522    4.3951    4.6407    4.8301    4.8005    4.7365    4.9948    3.3038    0.0563 -143.0263   36.0694    1.2047    1.3183 
 545.3000  215.9000  216.5000   90.8334    1.1323   10.6103    2.3731  350.2101   36.0462    0.2515    2.4257    3.4254    0.4437    0.8837    3.4955    3.8880    5.2652    4.2488    3.9476    4.1437    4.2942    4.2630    4.2146    4.3879    3.1128    0.0563 -142.2575   36.0832    1.4260    1.3066 
