~Version
 VERS              .         3.0                           : CWLS LOG ASCII STANDARD - VERSION 3.0
 WRAP              .         NO                            : ONE LINE PER DEPTH STEP
 DLM               .         SPACE                         : DELIMITING CHARACTER(SPACE TAB OR COMMA)
~Well Information
#_______________________________________________________________________________
#
#PARAMETER_NAME    .UNIT     VALUE                         : DESCRIPTION
#_______________________________________________________________________________
STRT               .M        0                             : First reference value
STOP               .M        840                           : Last reference value
STEP               .M        0.1                           : Step increment
NULL               .         -9999                         : Missing value
COMP               .         ICPetroleum                   : Company
WELL               .         308                           : Well name
FLD                .         Karatobe                      : Field
LOC                .                                       : Location
SRVC               .         SERVICE COMPANY               : Service Company
CTRY               .         KZ                            : Country
DATE               .         10/2/2022                     : Service Date
LATI               .         0                             : Latitude
LONG               .         0                             : Longitude
GDAT               .         WGS 84                        : Geodetic Datum
CNTY               .         COUNTY                        : Kazakhstan
COORDIN            .                                       : Grid System
COUNT              .         KAZAKHSTAN                    : Country
COUNTRY            .         Kazakhstan                    : 
COUNTRY            .         Kazakhstan                    : 
EREF               .m        140                           : 
GRP                .                                       : Group name
ISS                .                                       : Well surveys
KB                 .         139.7                         : KB Elevation
ORIGINALWELLNAME   .         WELL                          : 
PROV               .                                       : Province
RWS                .         -999                          : Def_Rw
TIME               .                                       : LOG TIME
UWI                .         1_308                         : Unique Well Identifier (UWI)
WST                .         -999                          : Def_Rwt
X                  .km       466307.31                     : 
XCOORD             .                                       : X or East-West Coordinate
Y                  .km       5308229.38                    : 
YCOORD             .                                       : Y or North-South Coordinate
~Parameter Information Block
#_______________________________________________________________________________
#
#PARAMETER_NAME    .UNIT     VALUE                         : DESCRIPTION
#_______________________________________________________________________________
SET                .         Las                           : 
BS                 .MM       215.9                         : Bit Size
TLFamily_DEPT      .         Measured Depth                : 
TLFamily_PHI_FINAL .         Porosity                      : 
TLFamily_SW_AR     .         Water Saturation              : 
TLFamily_VSH_FINAL .         Shale Volume                  : 
~Curve Information
#_______________________________________________________________________________
#
#LOGNAME           .UNIT     LOG_ID                        : DESCRIPTION
#_______________________________________________________________________________
DEPT               .M                                      : Depth Curve {F}
PHI_FINAL          .m3/m3                                  : Porosity {F}
SW_AR              .m3/m3                                  :  {F}
VSH_FINAL          .unitless                               : Vshale {F}
~Ascii
# ...
743.7      0.07311169 1          0.5119202 
743.8      0.0305185  1          0.5139372 
743.9      0          1          0.5684108 
744        0.04030749 1          0.6126546 
744.1      0.04976751 1          0.6332907 
744.2      0.0397713  1          0.6710777 
744.3      0          1          0.7563431 
744.4      0          1          0.7962723 
744.5      0          1          0.8044409 
744.6      0          1          0.6979003 
744.7      0          1          0.6449434 
744.8      0          1          0.5770946 
744.9      0.02263656 1          0.5449358 
745        0          1          0.5018676 
745.1      0          1          0.4723756 
745.2      0          1          0.4840468 
745.3      0          1          0.4743171 
745.4      0          1          0.4840369 
745.5      0          1          0.4439571 
745.6      0          1          0.4840565 
745.7      0          1          0.5407482 
745.8      0.04620481 1          0.5792677 
745.9      0.03424019 1          0.5880454 
746        0.04276501 1          0.5555301 
746.1      0.03738599 1          0.5262026 
746.2      0.03113331 1          0.4840468 
746.3      0          1          0.4439571 
746.4      0.007630296 1          0.4439571 
746.5      0.01664484 1          0.4743075 
746.6      0.04972154 1          0.4840468 
746.7      0.09320723 1          0.5159792 
746.8      0.09010983 1          0.518006  
746.9      0.08482546 1          0.5324124 
747        0.06731937 1          0.4628141 
747.1      0.055335   1          0.4111609 
747.2      0.0784805  1          0.3780666 
747.3      0.0520434  1          0.4005523 
747.4      0.1379956  1          0.3679149 
747.5      0.1555626  1          0.3415873 
747.6      0.1114157  1          0.3480869 
747.7      0.07152262 1          0.3679233 
747.8      0.06221179 1          0.3797799 
747.9      0.02438845 1          0.3415793 
748        0.04158391 1          0.3679149 
748.1      0.09786262 1          0.3935673 
748.2      0.0639595  1          0.4310377 
748.3      0          1          0.4147432 
748.4      0.08526076 1          0.4076136 
748.5      0.146489   1          0.4005523 
748.6      0.02109969 1          0.4237611 
748.7      0.03886551 1          0.4439571 
748.8      0.1009424  1          0.457096  
748.9      0.05270857 1          0.4608909 
749        0.1123695  1          0.476244  
749.1      0.1030634  1          0.5282847 
749.2      0.07156966 1          0.5705631 
749.3      0.05277849 1          0.566253  
749.4      0.06266639 1          0.4762343 
749.5      0.0365742  1          0.4365479 
749.6      0.0243687  1          0.4310467 
749.7      0.08420394 1          0.4860068 
749.8      0.1060744  1          0.4840468 
749.9      0          1          0.445802  
750        0          1          0.4458113 
750.1      0          1          0.4899606 
750.2      0.0287506  1          0.5407482 
750.3      0.05328972 1          0.5221149 
750.4      0.009943726 1          0.4820915 
750.5      0.06654181 1          0.4704579 
750.6      0.07087506 1          0.4919249 
750.7      0.05430575 1          0.5038604 
750.8      0.01921136 1          0.4879813 
750.9      0.03776873 1          0.4570866 
751        0.06833433 1          0.4129632 
751.1      0.08222468 1          0.4165363 
751.2      0.07970387 1          0.4347068 
751.3      0.09275439 1          0.4685353 
751.4      0.1379051  1          0.4383844 
751.5      0.1330403  1          0.4129632 
751.6      0.1304247  1          0.3970558 
751.7      0.04894093 1          0.3953007 
751.8      0.03224262 1          0.3780751 
751.9      0.1002952  1          0.3712966 
752        0.08156078 1          0.3831934 
752.1      0.1031216  1          0.3900869 
752.2      0.07075786 1          0.3679233 
752.3      0.08815718 1          0.3763658 
752.4      0.1536483  1          0.3900955 
752.5      0.1757971  1          0.4165363 
752.6      0.1426274  1          0.4255669 
752.7      0.03386442 1          0.4495611 
752.8      0.04240706 1          0.4347159 
752.9      0.06168234 1          0.39878   
753        0.1268805  1          0.3629062 
753.1      0.109597   1          0.3480706 
753.2      0.1731527  1          0.3464418 
753.3      0.1715983  1          0.3529719 
753.4      0.1519909  1          0.3988151 
753.5      0.1230033  1          0.4420889 
753.6      0.1038371  1          0.4762537 
753.7      0.09121578 1          0.491915  
753.8      0.08464034 1          0.5018575 
753.9      0.08660708 1          0.5241666 
754        0.07334699 1          0.5814351 
754.1      0.07951038 1          0.5814461 
754.2      0.09235148 1          0.5512813 
754.3      0.1022646  1          0.4590006 
754.4      0.1192947  1          0.4420982 
754.5      0.1479474  1          0.4093896 
754.6      0.1604106  1          0.3866232 
754.7      0.1760356  1          0.3415793 
754.8      0.1847965  1          0.311592  
754.9      0.1388373  1          0.2888532 
755        0.1668565  1          0.2799879 
755.1      0.1845798  1          0.2829288 
755.2      0.1309105  1          0.2844046 
755.3      0.1440897  1          0.2799953 
755.4      0.1561881  1          0.2888606 
755.5      0.1461025  1          0.2993515 
755.6      0.1172101  1          0.3023857 
755.7      0.1121698  1          0.2785228 
755.8      0.1474469  1          0.2799806 
755.9      0.1764287  1          0.2948424 
756        0.1704287  1          0.2948424 
756.1      0.1431476  1          0.2697983 
756.2      0.1680703  1          0.2770611 
756.3      0.1332849  1          0.2963317 
756.4      0.1129853  1          0.3351501 
756.5      0.1585451  1          0.3240469 
756.6      0.1559054  1          0.3256216 
756.7      0.1312916  1          0.3209087 
756.8      0.1604274  1          0.3240469 
756.9      0.1351025  1          0.3367516 
757        0.09655998 1          0.3431962 
757.1      0.1505516  1          0.3546245 
757.2      0.1894352  1          0.4005523 
757.3      0.1818068  1          0.4801116 
757.4      0.09343744 1          0.5262129 
757.5      0.03387211 1          0.4919349 
757.6      0.09632222 1          0.4076047 
757.7      0.1231399  1          0.3546245 
757.8      0.1209137  1          0.3177933 
757.9      0.07514901 1          0.3023933 
758        0.1140424  1          0.2741557 
758.1      0.1235679  1          0.2583693 
758.2      0.1058045  1          0.247165  
758.3      0.1035713  1          0.2683576 
758.4      0.06392809 1          0.3131444 
758.5      0.1105085  1          0.3415712 
758.6      0.1195036  1          0.3431881 
758.7      0.1045451  1          0.3240469 
758.8      0.1308107  1          0.3367436 
758.9      0.06600794 1          0.3562729 
759        0.08546878 1          0.3629062 
759.1      0.08605146 1          0.3579253 
759.2      0.0539717  1          0.3431962 
759.3      0.07806751 1          0.3480706 
759.4      0.05763239 1          0.3351501 
759.5      0.09802081 1          0.3256295 
759.6      0.04755013 1          0.3162296 
759.7      0.01168074 1          0.3177856 
759.8      0.08786224 1          0.3303687 
759.9      0.06124424 1          0.3146697 
760        0.0870655  1          0.3146774 
760.1      0.06756709 1          0.3069721 
760.2      0.05716136 1          0.3367516 
760.3      0.120514   1          0.3335525 
760.4      0.1705164  1          0.3335445 
760.5      0.1446628  1          0.3240469 
760.6      0.06209253 1          0.3177856 
760.7      0.04462374 1          0.3415793 
760.8      0.03444972 1          0.3415712 
760.9      0.03510482 1          0.3367436 
761        0.0943533  1          0.2858987 
761.1      0.04457748 1          0.2527368 
761.2      0.02130861 1          0.2334508 
761.3      0.06267846 1          0.2213935 
761.4      0.103766   1          0.2056959 
761.5      0.1370324  1          0.2147901 
761.6      0.121054   1          0.2267164 
761.7      0.135253   1          0.2416397 
761.8      0.1616919  1          0.2307473 
