~Version
 VERS              .         3.0                           : CWLS LOG ASCII STANDARD - VERSION 3.0
 WRAP              .         NO                            : ONE LINE PER DEPTH STEP
 DLM               .         SPACE                         : DELIMITING CHARACTER(SPACE TAB OR COMMA)
~Well Information
#_______________________________________________________________________________
#
#PARAMETER_NAME    .UNIT     VALUE                         : DESCRIPTION
#_______________________________________________________________________________
STRT               .M        0                             : First reference value
STOP               .M        840                           : Last reference value
STEP               .M        0.1                           : Step increment
NULL               .         -9999                         : Missing value
COMP               .         ICPetroleum                   : Company
WELL               .         308                           : Well name
FLD                .         Karatobe                      : Field
LOC                .                                       : Location
SRVC               .         SERVICE COMPANY               : Service Company
CTRY               .         KZ                            : Country
DATE               .         10/2/2022                     : Service Date
LATI               .         0                             : Latitude
LONG               .         0                             : Longitude
GDAT               .         WGS 84                        : Geodetic Datum
CNTY               .         COUNTY                        : Kazakhstan
COORDIN            .                                       : Grid System
COUNT              .         KAZAKHSTAN                    : Country
COUNTRY            .         Kazakhstan                    : 
COUNTRY            .         Kazakhstan                    : 
EREF               .m        140                           : 
GRP                .                                       : Group name
ISS                .                                       : Well surveys
KB                 .         139.7                         : KB Elevation
ORIGINALWELLNAME   .         WELL                          : 
PROV               .                                       : Province
RWS                .         -999                          : Def_Rw
TIME               .                                       : LOG TIME
UWI                .         1_308                         : Unique Well Identifier (UWI)
WST                .         -999                          : Def_Rwt
X                  .km       466307.31                     : 
XCOORD             .                                       : X or East-West Coordinate
Y                  .km       5308229.38                    : 
YCOORD             .                                       : Y or North-South Coordinate
~Parameter Information Block
#_______________________________________________________________________________
#
#PARAMETER_NAME    .UNIT     VALUE                         : DESCRIPTION
#_______________________________________________________________________________
SET                .         Las                           : 
BS                 .MM       215.9                         : Bit Size
TLFamily_DEPT      .         Measured Depth                : 
TLFamily_PHI_FINAL .         Porosity                      : 
TLFamily_SW_AR     .         Water Saturation              : 
TLFamily_VSH_FINAL .         Shale Volume                  : 
~Curve Information
#_______________________________________________________________________________
#
#LOGNAME           .UNIT     LOG_ID                        : DESCRIPTION
#_______________________________________________________________________________
DEPT               .M                                      : Depth Curve {F}
PHI_FINAL          .m3/m3                                  : Porosity {F}
SW_AR              .m3/m3                                  :  {F}
VSH_FINAL          .unitless                               : Vshale {F}
~Ascii
# ...
579.9      0.04362493 1          0.8756718 
580        0.0337174  1          0.9155734 
580.1      0.03497485 1          0.9038091 
580.2      0.02100137 1          0.9448749 
580.3      0.02127819 1          0.9092857 
580.4      0.01764442 1          0.9445486 
580.5      0.03757345 1          0.8636802 
580.6      0.05791098 1          0.8255337 
580.7      0.1247202  1          0.6660647 
580.8      0.1685069  1          0.5679765 
580.9      0.2189718  1          0.4926822 
581        0.2009235  1          0.5526966 
581.1      0.1376984  1          0.6569725 
581.2      0.1166902  1          0.6922544 
581.3      0.115732   1          0.6610821 
581.4      0.09394524 1          0.7197102 
581.5      0.03808701 1          0.803346  
581.6      0.03757462 1          0.8032137 
581.7      0.07747995 1          0.6738178 
581.8      0.08938149 1          0.5863609 
581.9      0.1116723  1          0.5670108 
582        0.1021629  1          0.5745624 
582.1      0.1069239  1          0.5822009 
582.2      0.118267   1          0.5592139 
582.3      0.139114   1          0.5052987 
582.4      0.1609143  1          0.4342885 
582.5      0.164129   1          0.3964385 
582.6      0.1913747  1          0.4402736 
582.7      0.1790417  1          0.4463419 
582.8      0.166735   1          0.3991137 
582.9      0.1747148  1          0.3311596 
583        0.1873591  1          0.3215497 
583.1      0.1851962  1          0.3144886 
583.2      0.1999344  1          0.3214808 
583.3      0.197535   1          0.3482278 
583.4      0.1858373  1          0.3767933 
583.5      0.142024   1          0.3794476 
583.6      0.1414409  1          0.3506415 
583.7      0.1590529  1          0.333246  
583.8      0.1572445  1          0.3430299 
583.9      0.1953907  1          0.3454907 
584        0.1819851  1          0.4184957 
584.1      0.1759222  1          0.421387  
584.2      0.1646865  1          0.4213297 
584.3      0.1590237  1          0.4242073 
584.4      0.1353815  1          0.4641223 
584.5      0.1400217  1          0.4935167 
584.6      0.1124545  1          0.4834509 
584.7      0.1176724  1          0.4866944 
584.8      0.1154648  1          0.5138219 
584.9      0.09946086 1          0.5102794 
585        0.1532108  1          0.4511329 
585.1      0.1826369  1          0.3786228 
585.2      0.1972358  1          0.3549975 
585.3      0.1834798  1          0.3977273 
585.4      0.1627182  1          0.4571422 
585.5      0.1403639  1          0.5133044 
585.6      0.1285717  1          0.5344626 
585.7      0.1076122  1          0.5600677 
585.8      0.1157653  1          0.5488442 
585.9      0.1288608  1          0.5061049 
586        0.1405986  1          0.5129353 
586.1      0.1284482  1          0.5269263 
586.2      0.09910876 1          0.5863996 
586.3      0.08115888 1          0.5902215 
586.4      0.1132788  1          0.5707949 
586.5      0.1023331  1          0.6018871 
586.6      0.09752741 1          0.609859  
586.7      0.09460232 1          0.6729755 
586.8      0.1086265  1          0.6096541 
586.9      0.1155539  1          0.5896716 
587        0.1796727  1          0.4720519 
587.1      0.2180248  1          0.3696418 
587.2      0.2388532  1          0.2883455 
587.3      0.244362   1          0.2572656 
587.4      0.2311883  1          0.3151577 
587.5      0.2173598  1          0.364226  
587.6      0.2110149  1          0.3965245 
587.7      0.1992187  1          0.4106423 
587.8      0.1531673  1          0.494526  
587.9      0.1009505  1          0.6086409 
588        0.134918   1          0.6005684 
588.1      0.1772124  1          0.5044971 
588.2      0.1952466  1          0.4278915 
588.3      0.2245326  1          0.3587054 
588.4      0.2444857  1          0.317052  
588.5      0.2428681  1          0.3312189 
588.6      0.1787764  1          0.4614441 
588.7      0.117013   1          0.6797047 
588.8      0.04447677 1          0.8962255 
588.9      0.09586975 1          0.7064962 
589        0.1869305  1          0.4805241 
589.1      0.2454305  1          0.3121543 
589.2      0.2604801  1          0.2586753 
589.3      0.2701528  1          0.2265041 
589.4      0.2920397  1          0.1754295 
589.5      0.2842001  1          0.1799646 
589.6      0.2834771  1          0.2106654 
589.7      0.2468448  1          0.244908  
589.8      0.2469738  1          0.2245838 
589.9      0.306917   1          0.1650395 
590        0.3058112  1          0.1607433 
590.1      0.2996659  1          0.1579178 
590.2      0.2978725  1          0.1798317 
590.3      0.284242   1          0.1939125 
590.4      0.2953344  1          0.2104626 
590.5      0.2904918  1          0.2138771 
590.6      0.2842992  1          0.1954707 
590.7      0.2887057  1          0.2019948 
590.8      0.2833973  1          0.2243138 
590.9      0.26785    1          0.2483968 
591        0.2590654  1          0.2483681 
591.1      0.2692584  1          0.2052182 
591.2      0.2911808  1          0.1677207 
591.3      0.3126044  1          0.1454622 
591.4      0.3080752  1          0.1415031 
591.5      0.3200673  1          0.1454332 
591.6      0.3211117  1          0.1363228 
591.7      0.3050514  1          0.1375862 
591.8      0.3227244  1          0.1263458 
591.9      0.3211314  1          0.1156738 
592        0.3090554  1          0.1156687 
592.1      0.3000943  1          0.1215126 
592.2      0.2931225  1          0.1493418 
592.3      0.2801775  1          0.1547823 
592.4      0.2924698  1          0.1479612 
592.5      0.304162   1          0.1202836 
592.6      0.3061198  1          0.1011706 
592.7      0.2918671  1          0.0877886 
592.8      0.3252051  1          0.08289873
592.9      0.3177611  1          0.09178682
593        0.3173389  1          0.1098791 
593.1      0.3164352  1          0.1213914 
593.2      0.3164893  1          0.1249668 
593.3      0.2972821  1          0.1132386 
593.4      0.2970983  1          0.115517  
593.5      0.2933536  1          0.1225277 
593.6      0.273013   1          0.1285672 
593.7      0.2782813  1          0.1131964 
593.8      0.3008237  1          0.09477358
593.9      0.3191803  1          0.08968671
594        0.3292866  1          0.09169232
594.1      0.3242524  1          0.07900089
594.2      0.338468   1          0.0698767 
594.3      0.3382246  1          0.06550474
594.4      0.3326766  1          0.08278874
594.5      0.3272564  1          0.07991985
594.6      0.3389351  1          0.07803129
594.7      0.3312188  1          0.07073572
594.8      0.3396674  1          0.07989453
594.9      0.3276198  1          0.08565394
595        0.3297429  1          0.08860289
595.1      0.3128888  1          0.07340198
595.2      0.2613781  1          0.05873417
595.3      0.1928187  1          0.03751572
595.4      0.1281878  1          0.03339384
595.5      0.1284227  1          0.03890689
595.6      0.1755063  1          0.0432175 
595.7      0.2539386  1          0.05627012
595.8      0.3187625  1          0.06035208
595.9      0.3310735  1          0.07609648
596        0.3418036  1          0.08654569
596.1      0.3420008  1          0.103002  
596.2      0.3326484  1          0.1084488 
596.3      0.3269576  1          0.1008427 
596.4      0.3366917  1          0.1008283 
596.5      0.3286344  1          0.1051241 
596.6      0.3427666  1          0.1084089 
596.7      0.3370562  1          0.1051049 
596.8      0.3344222  1          0.1007918 
596.9      0.329956   1          0.0997224 
597        0.3389508  1          0.08648   
597.1      0.3513325  1          0.06882265
597.2      0.3581155  1          0.05223403
597.3      0.3644114  1          0.04316143
597.4      0.3686118  1          0.04027277
597.5      0.3646506  1          0.0453629 
597.6      0.352708   1          0.05862483
597.7      0.344579   1          0.06967311
597.8      0.3407725  1          0.06618084
597.9      0.3503519  1          0.05617132
598        0.3690681  1          0.05696977
