~Version
 VERS              .         3.0                           : CWLS LOG ASCII STANDARD - VERSION 3.0
 WRAP              .         NO                            : ONE LINE PER DEPTH STEP
 DLM               .         SPACE                         : DELIMITING CHARACTER(SPACE TAB OR COMMA)
~Well Information
#_______________________________________________________________________________
#
#PARAMETER_NAME    .UNIT     VALUE                         : DESCRIPTION
#_______________________________________________________________________________
STRT               .M        0                             : First reference value
STOP               .M        840                           : Last reference value
STEP               .M        0.1                           : Step increment
NULL               .         -9999                         : Missing value
COMP               .         ICPetroleum                   : Company
WELL               .         308                           : Well name
FLD                .         Karatobe                      : Field
LOC                .                                       : Location
SRVC               .         SERVICE COMPANY               : Service Company
CTRY               .         KZ                            : Country
DATE               .         10/2/2022                     : Service Date
LATI               .         0                             : Latitude
LONG               .         0                             : Longitude
GDAT               .         WGS 84                        : Geodetic Datum
CNTY               .         COUNTY                        : Kazakhstan
COORDIN            .                                       : Grid System
COUNT              .         KAZAKHSTAN                    : Country
COUNTRY            .         Kazakhstan                    : 
COUNTRY            .         Kazakhstan                    : 
EREF               .m        140                           : 
GRP                .                                       : Group name
ISS                .                                       : Well surveys
KB                 .         139.7                         : KB Elevation
ORIGINALWELLNAME   .         WELL                          : 
PROV               .                                       : Province
RWS                .         -999                          : Def_Rw
TIME               .                                       : LOG TIME
UWI                .         1_308                         : Unique Well Identifier (UWI)
WST                .         -999                          : Def_Rwt
X                  .km       466307.31                     : 
XCOORD             .                                       : X or East-West Coordinate
Y                  .km       5308229.38                    : 
YCOORD             .                                       : Y or North-South Coordinate
~Parameter Information Block
#_______________________________________________________________________________
#
#PARAMETER_NAME    .UNIT     VALUE                         : DESCRIPTION
#_______________________________________________________________________________
SET                .         Las                           : 
BS                 .MM       215.9                         : Bit Size
TLFamily_DEPT      .         Measured Depth                : 
TLFamily_PHI_FINAL .         Porosity                      : 
TLFamily_SW_AR     .         Water Saturation              : 
TLFamily_VSH_FINAL .         Shale Volume                  : 
~Curve Information
#_______________________________________________________________________________
#
#LOGNAME           .UNIT     LOG_ID                        : DESCRIPTION
#_______________________________________________________________________________
DEPT               .M                                      : Depth Curve {F}
PHI_FINAL          .m3/m3                                  : Porosity {F}
SW_AR              .m3/m3                                  :  {F}
VSH_FINAL          .unitless                               : Vshale {F}
~Ascii
# ...
452.5      0.04776862 1          0.8258073 
452.6      0.04201515 1          0.8028401 
452.7      0.0732269  1          0.8197517 
452.8      0.05709021 1          0.8788483 
452.9      0.03175532 1          1         
453        0.02946578 1          1         
453.1      0.004758114 1          1         
453.2      0.003775973 1          1         
453.3      0.003316521 1          1         
453.4      0.003107294 1          1         
453.5      0.004131748 1          0.9805312 
453.6      0.004293327 1          1         
453.7      0.01720868 1          1         
453.8      0.02661852 1          1         
453.9      0.03155931 1          0.9663713 
454        0.005443478 1          1         
454.1      0.004482472 1          1         
454.2      0.00371163 1          1         
454.3      0.03270305 1          0.8582952 
454.4      0.02450359 1          0.9391311 
454.5      0.01106248 1          1         
454.6      0.01078945 1          1         
454.7      0.00491475 1          1         
454.8      0.00920825 1          1         
454.9      0.008464295 1          1         
455        0.01150522 1          1         
455.1      0.009548585 1          0.9575621 
455.2      0.03566116 1          0.8996192 
455.3      0.02451927 1          0.9704894 
455.4      0.03415975 1          0.9636431 
455.5      0.02123177 1          1         
455.6      0.005310455 1          1         
455.7      0.01134136 1          0.9764578 
455.8      0.03124066 1          0.892415  
455.9      0.02366735 1          0.8922508 
456        0.01154805 1          1         
456.1      0.02019714 1          1         
456.2      0.004079773 1          1         
456.3      0.004260107 1          1         
456.4      0.02318047 1          0.9818997 
456.5      0.0157947  1          1         
456.6      0.01738714 1          1         
456.7      0.01439299 1          1         
456.8      0.03699468 1          0.8845893 
456.9      0.08235569 1          0.7692516 
457        0.08232653 1          0.7477812 
457.1      0.07146922 1          0.8076345 
457.2      0.05714108 1          0.8478883 
457.3      0.03203167 1          0.9340916 
457.4      0.006728122 1          1         
457.5      0.007435202 1          1         
457.6      0.007422263 1          1         
457.7      0.04147305 1          0.9529002 
457.8      0.05598022 1          0.9015344 
457.9      0.03730765 1          0.895152  
458        0.04121812 1          0.9074564 
458.1      0.08095937 1          0.7676269 
458.2      0.07955512 1          0.7514838 
458.3      0.112233   1          0.6902904 
458.4      0.07156464 1          0.80015   
458.5      0.04966949 1          0.9003715 
458.6      0.01734974 1          0.9644773 
458.7      0.009866752 1          0.9511171 
458.8      0.04847766 1          0.8337522 
458.9      0.06174093 1          0.7938688 
459        0.06679138 1          0.7718065 
459.1      0.02161585 1          0.9182105 
459.2      0.01002572 1          1         
459.3      0.01444621 1          1         
459.4      0.01461717 1          1         
459.5      0.02359772 1          1         
459.6      0.02211007 1          0.9962801 
459.7      0.01579935 1          1         
459.8      0.009905674 1          1         
459.9      0.01600839 1          1         
460        0.01661894 1          1         
460.1      0.01791414 1          1         
460.2      0.006597834 1          1         
460.3      0.02417257 1          1         
460.4      0.02547773 1          1         
460.5      0.02916276 1          1         
460.6      0.02792359 1          1         
460.7      0.0197056  1          1         
460.8      0.01546139 1          1         
460.9      0.008334461 1          1         
461        0.003787053 1          1         
461.1      0.005205932 1          1         
461.2      0.01868778 1          0.9597834 
461.3      0.03730886 1          0.8773616 
461.4      0.02997577 1          0.9206345 
461.5      0.01053434 1          0.9725009 
461.6      0.002335995 1          1         
461.7      0.001037882 1          0.9458008 
461.8      0.01243202 1          0.7679865 
461.9      0.03972917 1          0.5737261 
462        0.04734822 1          0.5180332 
462.1      0.06098229 1          0.5571393 
462.2      0.06455383 1          0.6118267 
462.3      0.05228763 1          0.7052956 
462.4      0.01852454 1          0.7944815 
462.5      0.04426278 1          0.7617184 
462.6      0.1109615  1          0.6566914 
462.7      0.111835   1          0.6707249 
462.8      0.05779024 1          0.8050902 
462.9      0.03119842 1          0.9055228 
463        0.04175306 1          0.9306329 
463.1      0.04685308 1          0.8989711 
463.2      0.07996219 1          0.7501998 
463.3      0.1083171  1          0.6844417 
463.4      0.1245104  1          0.6511397 
463.5      0.1109821  1          0.7188623 
463.6      0.0959255  1          0.6987541 
463.7      0.09802702 1          0.6648607 
463.8      0.08274103 1          0.6936001 
463.9      0.09264412 1          0.7234398 
464        0.02061829 1          0.8974872 
464.1      0.002258956 1          1         
464.2      0          1          1         
464.3      0.0001373738 1          1         
464.4      0.0003494273 1          1         
464.5      0.008401939 1          1         
464.6      0.02712843 1          1         
464.7      0.02192332 1          1         
464.8      0.05635919 1          0.8899865 
464.9      0.189116   1          0.5427275 
465        0.2278296  1          0.4093411 
465.1      0.2258603  1          0.3910087 
465.2      0.2024363  1          0.4649003 
465.3      0.1703602  1          0.4968067 
465.4      0.1885039  0.996748   0.4444484 
465.5      0.2465789  0.7146031  0.3535141 
465.6      0.2625613  0.6290817  0.3507229 
465.7      0.2526505  0.6508154  0.3702323 
465.8      0.2305556  0.8110198  0.4246084 
465.9      0.1950408  1          0.467869  
466        0.1549404  1          0.5496864 
466.1      0.137579   1          0.6345442 
466.2      0.1277489  1          0.6527467 
466.3      0.1508218  1          0.5905427 
466.4      0.1885868  0.9855552  0.5033236 
466.5      0.2023839  0.8448355  0.4674444 
466.6      0.2164895  0.7270597  0.4241095 
466.7      0.213233   0.6990048  0.4337172 
466.8      0.2015365  0.7283655  0.4468316 
466.9      0.1989054  0.7456319  0.4706366 
467        0.1948052  0.7558349  0.4991615 
467.1      0.190017   0.7644439  0.5027608 
467.2      0.2064203  0.7068537  0.4634988 
467.3      0.2349442  0.6276944  0.3809187 
467.4      0.2682188  0.5800751  0.2868245 
467.5      0.2831965  0.5935218  0.2534732 
467.6      0.2835288  0.64312    0.2513306 
467.7      0.2519089  0.7594831  0.2961365 
467.8      0.2200164  0.8822138  0.3362533 
467.9      0.2022045  1          0.3864797 
468        0.197401   1          0.4137728 
468.1      0.2276834  1          0.4105975 
468.2      0.2421338  0.9820919  0.4167866 
468.3      0.2283703  1          0.4392384 
468.4      0.1915406  1          0.5319113 
468.5      0.1570325  1          0.6012323 
468.6      0.1411907  1          0.5883474 
468.7      0.1414312  1          0.5316804 
468.8      0.154538   1          0.5239156 
468.9      0.1597335  1          0.52003   
469        0.1572645  1          0.504974  
469.1      0.1556278  1          0.4690725 
469.2      0.167348   1          0.4724829 
469.3      0.1741936  1          0.501057  
469.4      0.1521223  1          0.5046621 
469.5      0.1683877  1          0.508289  
469.6      0.1791232  0.8446869  0.5008254 
469.7      0.1732961  0.7730951  0.4898456 
469.8      0.1944806  0.6432216  0.4157995 
469.9      0.1855005  0.6611736  0.4003281 
470        0.21556    0.5729082  0.3912463 
470.1      0.199568   0.6042487  0.4380525 
470.2      0.2179394  0.5437864  0.4250586 
470.3      0.2141813  0.5340937  0.4281976 
470.4      0.228091   0.4796421  0.424934  
470.5      0.2510334  0.4258317  0.3909666 
470.6      0.2669151  0.3839063  0.3195104 
