~Version
 VERS              .         3.0                           : CWLS LOG ASCII STANDARD - VERSION 3.0
 WRAP              .         NO                            : ONE LINE PER DEPTH STEP
 DLM               .         SPACE                         : DELIMITING CHARACTER(SPACE TAB OR COMMA)
~Well Information
#_______________________________________________________________________________
#
#PARAMETER_NAME    .UNIT     VALUE                         : DESCRIPTION
#_______________________________________________________________________________
STRT               .M        0                             : First reference value
STOP               .M        840                           : Last reference value
STEP               .M        0.1                           : Step increment
NULL               .         -9999                         : Missing value
COMP               .         ICPetroleum                   : Company
WELL               .         308                           : Well name
FLD                .         Karatobe                      : Field
LOC                .                                       : Location
SRVC               .         SERVICE COMPANY               : Service Company
CTRY               .         KZ                            : Country
DATE               .         10/2/2022                     : Service Date
LATI               .         0                             : Latitude
LONG               .         0                             : Longitude
GDAT               .         WGS 84                        : Geodetic Datum
CNTY               .         COUNTY                        : Kazakhstan
COORDIN            .                                       : Grid System
COUNT              .         KAZAKHSTAN                    : Country
COUNTRY            .         Kazakhstan                    : 
COUNTRY            .         Kazakhstan                    : 
EREF               .m        140                           : 
GRP                .                                       : Group name
ISS                .                                       : Well surveys
KB                 .         139.7                         : KB Elevation
ORIGINALWELLNAME   .         WELL                          : 
PROV               .                                       : Province
RWS                .         -999                          : Def_Rw
TIME               .                                       : LOG TIME
UWI                .         1_308                         : Unique Well Identifier (UWI)
WST                .         -999                          : Def_Rwt
X                  .km       466307.31                     : 
XCOORD             .                                       : X or East-West Coordinate
Y                  .km       5308229.38                    : 
YCOORD             .                                       : Y or North-South Coordinate
~Parameter Information Block
#_______________________________________________________________________________
#
#PARAMETER_NAME    .UNIT     VALUE                         : DESCRIPTION
#_______________________________________________________________________________
SET                .         Las                           : 
BS                 .MM       215.9                         : Bit Size
TLFamily_DEPT      .         Measured Depth                : 
TLFamily_PHI_FINAL .         Porosity                      : 
TLFamily_SW_AR     .         Water Saturation              : 
TLFamily_VSH_FINAL .         Shale Volume                  : 
~Curve Information
#_______________________________________________________________________________
#
#LOGNAME           .UNIT     LOG_ID                        : DESCRIPTION
#_______________________________________________________________________________
DEPT               .M                                      : Depth Curve {F}
PHI_FINAL          .m3/m3                                  : Porosity {F}
SW_AR              .m3/m3                                  :  {F}
VSH_FINAL          .unitless                               : Vshale {F}
~Ascii
# ...
488.9      0.3599927  0.3539966  0.03549341
489        0.3569095  0.3503718  0.04074927
489.1      0.3721528  0.3343071  0.03622504
489.2      0.3657589  0.329547   0.03622215
489.3      0.359467   0.3296874  0.03115408
489.4      0.3546573  0.3443407  0.02698207
489.5      0.3619666  0.3521703  0.02428548
489.6      0.364537   0.360725   0.02100837
489.7      0.3818778  0.3550892  0.02230463
489.8      0.3754607  0.3766422  0.02100524
489.9      0.3675635  0.4115438  0.0283438 
490        0.3785417  0.4126553  0.03184684
490.1      0.3760954  0.4172267  0.03619619
490.2      0.371599   0.4230313  0.0332744 
490.3      0.3616492  0.4214972  0.02696346
490.4      0.3614278  0.4196844  0.02099583
490.5      0.3701306  0.4573897  0.02035179
490.6      0.36417    0.5307749  0.02035028
490.7      0.3731341  0.5978884  0.02099113
490.8      0.3750316  0.6784289  0.02492822
490.9      0.3517665  0.8185987  0.03253803
491        0.3485863  0.8742291  0.0399194 
491.1      0.3615389  0.8643801  0.04858387
491.2      0.3681626  0.8595677  0.0493974 
491.3      0.3581157  0.8772609  0.05271435
491.4      0.3340367  0.9197658  0.05440139
491.5      0.2986591  1          0.06227237
491.6      0.3204938  0.9631599  0.06776598
491.7      0.3460281  0.9360133  0.05524089
491.8      0.3761167  0.8953596  0.05185451
491.9      0.3693264  0.9182272  0.03989041
492        0.3719848  0.9246386  0.04141824
492.1      0.3806693  0.9119193  0.04141488
492.2      0.3813766  0.9134268  0.04853937
492.3      0.3727187  0.9281892  0.04140816
492.4      0.3763416  0.8927808  0.03321688
492.5      0.3700502  0.8723792  0.03037262
492.6      0.3468771  0.8978777  0.04690539
492.7      0.3431641  0.8997186  0.06769996
492.8      0.341528   0.8954494  0.08031668
492.9      0.3336827  0.8995275  0.07146391
493        0.3663213  0.8064376  0.0509707 
493.1      0.3696101  0.7912815  0.04449762
493.2      0.3674547  0.7864245  0.0452851 
493.3      0.3599817  0.7888272  0.0476841 
493.4      0.3654924  0.7640067  0.04448668
493.5      0.3636087  0.7832105  0.03683733
493.6      0.3670374  0.8021402  0.0468666 
493.7      0.3519537  0.8653001  0.05094078
493.8      0.3487355  0.9079253  0.05686126
493.9      0.3640195  0.910855   0.05513752
494        0.3548367  0.9635378  0.05428143
494.1      0.3679961  0.9632875  0.06484841
494.2      0.3561413  0.9980821  0.08224406
494.3      0.3477954  1          0.1016837 
494.4      0.3475261  1          0.1171257 
494.5      0.3754375  0.9207815  0.1233947 
494.6      0.383117   0.8788415  0.1519835 
494.7      0.3788449  0.8502558  0.231159  
494.8      0.351905   0.8386215  0.3292941 
494.9      0.3126167  0.8399881  0.4351287 
495        0.2816468  0.914056   0.4749365 
495.1      0.2400406  1          0.4783229 
495.2      0.174892   1          0.532747  
495.3      0.1509149  1          0.5759745 
495.4      0.1097246  1          0.6858842 
495.5      0.1058568  1          0.7347509 
495.6      0.08889703 1          0.7975259 
495.7      0.06313766 1          0.8768938 
495.8      0.04548236 1          0.9253416 
495.9      0.02981556 1          0.9314187 
496        0.07007243 1          0.8415308 
496.1      0.07764829 1          0.8244188 
496.2      0.0223501  1          0.9246715 
496.3      0.003818139 1          1         
496.4      0.003987729 1          1         
496.5      0.01643655 1          1         
496.6      0.07676723 1          0.8125735 
496.7      0.1748882  1          0.6079708 
496.8      0.2814983  1          0.4182084 
496.9      0.362294   0.7803946  0.2828607 
497        0.4283955  0.6574436  0.2228765 
497.1      0.4358444  0.6214346  0.2135586 
497.2      0.4455931  0.5681949  0.2027572 
497.3      0.4666062  0.5394538  0.1839786 
497.4      0.4325842  0.6170558  0.1872719 
497.5      0.367429   0.7619706  0.2565461 
497.6      0.2648823  1          0.399552  
497.7      0.1520186  1          0.5737795 
497.8      0.1030089  1          0.6974652 
497.9      0.1107042  1          0.7070327 
498        0.1282087  1          0.655112  
498.1      0.1024448  1          0.6875554 
498.2      0.09188497 1          0.7466047 
498.3      0.1061301  1          0.7312773 
498.4      0.142109   1          0.6456664 
498.5      0.1685671  1          0.5730577 
498.6      0.1654593  1          0.5004731 
498.7      0.1685999  1          0.4049092 
498.8      0.1661473  1          0.3150593 
498.9      0.1710937  1          0.2776565 
499        0.1648375  1          0.3052986 
499.1      0.1958768  1          0.3755369 
499.2      0.1862646  1          0.46857   
499.3      0.1790928  1          0.503547  
499.4      0.1925073  1          0.4684483 
499.5      0.2069923  1          0.4322385 
499.6      0.1654519  1          0.4925834 
499.7      0.1547048  1          0.5560384 
499.8      0.120386   1          0.6221225 
499.9      0.1226587  1          0.617694  
500        0.1129933  1          0.65752   
500.1      0.1079171  1          0.7093016 
500.2      0.06547824 1          0.7594929 
500.3      0.09339898 1          0.70904   
500.4      0.1393881  1          0.6001866 
500.5      0.1524716  1          0.5246701 
500.6      0.1839772  1          0.5061741 
500.7      0.182982   1          0.5024825 
500.8      0.1844356  1          0.4742801 
500.9      0.1799906  1          0.4507143 
501        0.1738018  1          0.4986644 
501.1      0.1653363  1          0.5707228 
501.2      0.1312648  1          0.6746514 
501.3      0.1079796  1          0.7275862 
501.4      0.1036134  1          0.7788926 
501.5      0.1375258  1          0.6884252 
501.6      0.18444    1          0.5662691 
501.7      0.1955021  1          0.4534775 
501.8      0.165524   1          0.4339759 
501.9      0.1292773  1          0.4838529 
502        0.1349417  1          0.4872945 
502.1      0.1367248  1          0.5461804 
502.2      0.1335434  1          0.5697398 
502.3      0.1183094  1          0.6327086 
502.4      0.1408202  1          0.5940838 
502.5      0.1416524  1          0.5857165 
502.6      0.1402283  1          0.5980695 
502.7      0.09668922 1          0.6965846 
502.8      0.09268741 1          0.7061102 
502.9      0.08865503 1          0.7457572 
503        0.09036857 1          0.7255086 
503.1      0.07172681 1          0.7872547 
503.2      0.07909422 1          0.7453783 
503.3      0.08851119 1          0.7401785 
503.4      0.1310921  1          0.6142378 
503.5      0.1401264  1          0.6184356 
503.6      0.1189365  1          0.640214  
503.7      0.08818465 1          0.7396784 
503.8      0.08661041 1          0.7548518 
503.9      0.1026212  1          0.6904331 
504        0.09838446 1          0.6950832 
504.1      0.1368493  1          0.6092857 
504.2      0.1353574  1          0.6177423 
504.3      0.1451506  1          0.5443273 
504.4      0.1274108  1          0.6262005 
504.5      0.1202359  1          0.6572403 
504.6      0.09459618 1          0.7186254 
504.7      0.1105011  1          0.684792  
504.8      0.133717   1          0.6301624 
504.9      0.1597559  1          0.5673394 
505        0.160459   1          0.5834127 
505.1      0.1398068  1          0.6083149 
505.2      0.1593374  1          0.5710755 
505.3      0.1561028  1          0.5831374 
505.4      0.1312213  1          0.583025  
505.5      0.08726207 1          0.7526766 
505.6      0.05788416 1          0.8501113 
505.7      0.003514431 1          0.991346  
505.8      0.006798286 1          0.9272498 
505.9      0.07288534 1          0.722012  
506        0.1493349  1          0.5429028 
506.1      0.1681687  1          0.5466692 
506.2      0.1141842  1          0.6375279 
506.3      0.09036681 1          0.6552928 
506.4      0.07895427 1          0.5620655 
506.5      0.08013217 1          0.5198916 
506.6      0.07556007 1          0.5942904 
506.7      0.1010441  1          0.6370136 
506.8      0.08799067 1          0.7408571 
506.9      0.08395568 1          0.7560208 
507        0.0714112  1          0.8310611 
