~Version
 VERS              .         3.0                           : CWLS LOG ASCII STANDARD - VERSION 3.0
 WRAP              .         NO                            : ONE LINE PER DEPTH STEP
 DLM               .         SPACE                         : DELIMITING CHARACTER(SPACE TAB OR COMMA)
~Well Information
#_______________________________________________________________________________
#
#PARAMETER_NAME    .UNIT     VALUE                         : DESCRIPTION
#_______________________________________________________________________________
STRT               .M        0                             : First reference value
STOP               .M        840                           : Last reference value
STEP               .M        0.1                           : Step increment
NULL               .         -9999                         : Missing value
COMP               .         ICPetroleum                   : Company
WELL               .         308                           : Well name
FLD                .         Karatobe                      : Field
LOC                .                                       : Location
SRVC               .         SERVICE COMPANY               : Service Company
CTRY               .         KZ                            : Country
DATE               .         10/2/2022                     : Service Date
LATI               .         0                             : Latitude
LONG               .         0                             : Longitude
GDAT               .         WGS 84                        : Geodetic Datum
CNTY               .         COUNTY                        : Kazakhstan
COORDIN            .                                       : Grid System
COUNT              .         KAZAKHSTAN                    : Country
COUNTRY            .         Kazakhstan                    : 
COUNTRY            .         Kazakhstan                    : 
EREF               .m        140                           : 
GRP                .                                       : Group name
ISS                .                                       : Well surveys
KB                 .         139.7                         : KB Elevation
ORIGINALWELLNAME   .         WELL                          : 
PROV               .                                       : Province
RWS                .         -999                          : Def_Rw
TIME               .                                       : LOG TIME
UWI                .         1_308                         : Unique Well Identifier (UWI)
WST                .         -999                          : Def_Rwt
X                  .km       466307.31                     : 
XCOORD             .                                       : X or East-West Coordinate
Y                  .km       5308229.38                    : 
YCOORD             .                                       : Y or North-South Coordinate
~Parameter Information Block
#_______________________________________________________________________________
#
#PARAMETER_NAME    .UNIT     VALUE                         : DESCRIPTION
#_______________________________________________________________________________
SET                .         Las                           : 
BS                 .MM       215.9                         : Bit Size
TLFamily_DEPT      .         Measured Depth                : 
TLFamily_PHI_FINAL .         Porosity                      : 
TLFamily_SW_AR     .         Water Saturation              : 
TLFamily_VSH_FINAL .         Shale Volume                  : 
~Curve Information
#_______________________________________________________________________________
#
#LOGNAME           .UNIT     LOG_ID                        : DESCRIPTION
#_______________________________________________________________________________
DEPT               .M                                      : Depth Curve {F}
PHI_FINAL          .m3/m3                                  : Porosity {F}
SW_AR              .m3/m3                                  :  {F}
VSH_FINAL          .unitless                               : Vshale {F}
~Ascii
# ...
780.1      0.08425336 1          0.3662385 
780.2      0.07382257 1          0.3497032 
780.3      0.02097979 1          0.3303687 
780.4      0.02362513 1          0.3287746 
780.5      0.08868113 1          0.3115842 
780.6      0.1177988  1          0.3115842 
780.7      0.05160394 1          0.3240469 
780.8      0.02520582 1          0.3272002 
780.9      0.09226063 1          0.3256137 
781        0.123387   1          0.3115842 
781.1      0.07812241 1          0.3224837 
781.2      0.05081195 1          0.3513397 
781.3      0.05541977 1          0.3562729 
781.4      0.06212935 1          0.3224602 
781.5      0.03628261 1          0.2963393 
781.6      0.06198038 1          0.2993666 
781.7      0.03795686 1          0.3240469 
781.8      0.03497575 1          0.3287825 
781.9      0.02098059 1          0.3399662 
782        0.07320703 1          0.3431962 
782.1      0.1375253  1          0.3497032 
782.2      0.08027062 1          0.3529801 
782.3      0.04681917 1          0.3679149 
782.4      0.04313221 1          0.4058507 
782.5      0.04922311 1          0.4219416 
782.6      0.03358027 1          0.4165273 
782.7      0          1          0.3814803 
782.8      0.05990047 1          0.3970383 
782.9      0.05640441 1          0.4347251 
783        0.007118258 1          0.4476979 
783.1      0          1          0.4093806 
783.2      0.07164383 1          0.4023112 
783.3      0.05381392 1          0.4219326 
783.4      0.04234026 1          0.423743  
783.5      0.09896199 1          0.3918293 
783.6      0.1162842  1          0.3918293 
783.7      0.07210226 1          0.4005523 
783.8      0.06551948 1          0.4183337 
783.9      0.03998461 1          0.4005523 
784        0.05483101 1          0.4040744 
784.1      0.05776452 1          0.3953007 
784.2      0.07024511 1          0.3780666 
784.3      0.06701561 1          0.3662469 
784.4      0.1078041  1          0.3399662 
784.5      0.07709815 1          0.3399662 
784.6      0.0945681  1          0.3303687 
784.7      0.1267397  1          0.3272002 
784.8      0.1268027  1          0.3415712 
784.9      0.1139244  1          0.3383569 
785        0.142066   1          0.34645   
785.1      0.1005493  1          0.3546328 
785.2      0.06589141 1          0.3746692 
785.3      0.04606613 1          0.3780751 
785.4      0.06456084 1          0.3831934 
785.5      0.06359174 1          0.3712882 
785.6      0.09538003 1          0.3546081 
785.7      0.1341004  1          0.3319587 
785.8      0.1351452  1          0.344809  
785.9      0.01356724 1          0.3797714 
786        0.01015463 1          0.3763744 
786.1      0.04015532 1          0.3529719 
786.2      0.06665568 1          0.3480706 
786.3      0.08056668 1          0.3595734 
786.4      0.06299312 1          0.3679233 
786.5      0.06233335 1          0.3319666 
786.6      0.06950425 1          0.3177856 
786.7      0.07748623 1          0.3240469 
786.8      0.04685912 1          0.3415793 
786.9      0.04968802 1          0.3303607 
787        0.05559862 1          0.3562647 
787.1      0          1          0.3729851 
787.2      0.004244366 1          0.3746692 
787.3      0.05024007 1          0.3224837 
787.4      0.09049622 1          0.3069721 
787.5      0.08595915 1          0.324039  
787.6      0          1          0.3287825 
787.7      0.005098267 1          0.3399662 
787.8      0.0873328  1          0.3303687 
787.9      0.087008   1          0.3562729 
788        0.1026558  1          0.3480706 
788.1      0.114434   1          0.3546245 
788.2      0.09898835 1          0.3513397 
788.3      0.03647855 1          0.3562729 
788.4      0.01154693 1          0.3866405 
788.5      0.05495025 1          0.3746692 
788.6      0.1125445  1          0.3849019 
788.7      0.1247061  1          0.3712882 
788.8      0.07115855 1          0.4111609 
788.9      0.07852481 1          0.4347159 
789        0.06802339 1          0.4458206 
789.1      0.07580679 1          0.4439571 
789.2      0.06384183 1          0.4310377 
789.3      0.09929908 1          0.4040833 
789.4      0.1064809  1          0.3562647 
789.5      0.09509418 1          0.3069798 
789.6      0.1325756  1          0.2903432 
789.7      0.1521568  1          0.2873668 
789.8      0.08454861 1          0.2948349 
789.9      0.1296625  1          0.2978473 
790        0.0830664  1          0.3008744 
790.1      0.1143743  1          0.2948273 
790.2      0.1376274  1          0.2873668 
790.3      0.1092898  1          0.2683648 
790.4      0.09832107 1          0.261206  
790.5      0.07444809 1          0.2583764 
790.6      0.09828353 1          0.2829362 
790.7      0.07709574 1          0.3383569 
790.8      0.06476017 1          0.395292  
790.9      0.05052942 1          0.44583   
791        0.04308788 1          0.4685353 
791.1      0.01559408 1          0.4801408 
791.2      0.009219578 1          0.4762537 
791.3      0.02784184 1          0.4552149 
791.4      0.05016327 1          0.468545  
791.5      0.06631906 1          0.5078605 
791.6      0.02155475 1          0.5749158 
791.7      0          1          0.630977  
791.8      0          1          0.6591128 
791.9      0          1          0.6402538 
792        0          1          0.5366014 
792.1      0          1          0.3763319 
792.2      0          1          0.2348075 
792.3      0          1          0.1382175 
792.4      0          1          0.08216725
792.5      0          1          0.04709112
792.6      0          1          0.02083575
792.7      0          1          0.009224684
792.8      0          1          0.001164247
792.9      0          1          0.003562056
793        0          1          0.005977233
793.1      0          1          0.01168086
793.2      0          1          0.01086017
793.3      0          1          0.01004145
793.4      0          1          0.01004145
793.5      0          1          0.007597056
793.6      0          1          0.01168086
793.7      0          1          0.01004145
793.8      0          1          0.01168086
793.9      0          1          0.01250353
794        0          1          0.02252721
794.1      0          1          0.0285161 
794.2      0          1          0.02168469
794.3      0          1          0.008413962
794.4      0          1          0         
794.5      0          1          0         
794.6      0          1          0         
794.7      0          1          0         
794.8      0          1          0         
794.9      0          1          0.002760864
795        0          1          0.008409891
795.1      0          1          0.01250353
795.2      0          1          0.01250353
795.3      0          1          0.007597056
795.4      0          1          0.0003688146
795.5      0          1          0         
795.6      0          1          0         
795.7      0          1          0         
795.8      0          1          0         
795.9      0          1          0         
796        0          1          0         
796.1      0          1          0         
796.2      0          1          0         
796.3      0          1          0         
796.4      0          1          0         
796.5      0          1          0         
796.6      0          1          0         
796.7      0          1          0.0003688146
796.8      0          1          0         
796.9      0          1          0         
797        0          1          0         
797.1      0          1          0         
797.2      0          1          0         
797.3      0          1          0.005170241
797.4      0          1          0.01086017
797.5      0          1          0.01332818
797.6      0          1          0.01498345
797.7      0          1          0.01332818
797.8      0          1          0.007597056
797.9      0          1          0         
798        0          1          0         
798.1      0          1          0         
798.2      0          1          0         
