~Version
 VERS              .         3.0                           : CWLS LOG ASCII STANDARD - VERSION 3.0
 WRAP              .         NO                            : ONE LINE PER DEPTH STEP
 DLM               .         SPACE                         : DELIMITING CHARACTER(SPACE TAB OR COMMA)
~Well Information
#_______________________________________________________________________________
#
#PARAMETER_NAME    .UNIT     VALUE                         : DESCRIPTION
#_______________________________________________________________________________
STRT               .M        0                             : First reference value
STOP               .M        840                           : Last reference value
STEP               .M        0.1                           : Step increment
NULL               .         -9999                         : Missing value
COMP               .         ICPetroleum                   : Company
WELL               .         308                           : Well name
FLD                .         Karatobe                      : Field
LOC                .                                       : Location
SRVC               .         SERVICE COMPANY               : Service Company
CTRY               .         KZ                            : Country
DATE               .         10/2/2022                     : Service Date
LATI               .         0                             : Latitude
LONG               .         0                             : Longitude
GDAT               .         WGS 84                        : Geodetic Datum
CNTY               .         COUNTY                        : Kazakhstan
COORDIN            .                                       : Grid System
COUNT              .         KAZAKHSTAN                    : Country
COUNTRY            .         Kazakhstan                    : 
COUNTRY            .         Kazakhstan                    : 
EREF               .m        140                           : 
GRP                .                                       : Group name
ISS                .                                       : Well surveys
KB                 .         139.7                         : KB Elevation
ORIGINALWELLNAME   .         WELL                          : 
PROV               .                                       : Province
RWS                .         -999                          : Def_Rw
TIME               .                                       : LOG TIME
UWI                .         1_308                         : Unique Well Identifier (UWI)
WST                .         -999                          : Def_Rwt
X                  .km       466307.31                     : 
XCOORD             .                                       : X or East-West Coordinate
Y                  .km       5308229.38                    : 
YCOORD             .                                       : Y or North-South Coordinate
~Parameter Information Block
#_______________________________________________________________________________
#
#PARAMETER_NAME    .UNIT     VALUE                         : DESCRIPTION
#_______________________________________________________________________________
SET                .         Las                           : 
BS                 .MM       215.9                         : Bit Size
TLFamily_DEPT      .         Measured Depth                : 
TLFamily_PHI_FINAL .         Porosity                      : 
TLFamily_SW_AR     .         Water Saturation              : 
TLFamily_VSH_FINAL .         Shale Volume                  : 
~Curve Information
#_______________________________________________________________________________
#
#LOGNAME           .UNIT     LOG_ID                        : DESCRIPTION
#_______________________________________________________________________________
DEPT               .M                                      : Depth Curve {F}
PHI_FINAL          .m3/m3                                  : Porosity {F}
SW_AR              .m3/m3                                  :  {F}
VSH_FINAL          .unitless                               : Vshale {F}
~Ascii
# ...
216        -9999      -9999      0.4160511 
216.1      -9999      -9999      0.6244391 
216.2      -9999      -9999      0.74646   
216.3      -9999      -9999      0.7783675 
216.4      -9999      -9999      0.6348497 
216.5      -9999      -9999      0.5673245 
216.6      0.2276987  0.9392084  0.4972901 
216.7      0.2152092  0.9847703  0.5381848 
216.8      0.1898645  1          0.5819538 
216.9      0.1890605  1          0.5427071 
217        0.235807   0.868076   0.4345753 
217.1      0.2664832  0.7901649  0.3583269 
217.2      0.2867811  0.7568882  0.3753145 
217.3      0.2964233  0.7283086  0.4151011 
217.4      0.2951995  0.6976811  0.3615028 
217.5      0.3138329  0.5592476  0.2604898 
217.6      0.348583   0.4712955  0.201159  
217.7      0.3276837  0.6066943  0.2426556 
217.8      0.2892216  0.7562625  0.3579055 
217.9      0.2634124  0.8625579  0.4222629 
218        0.2294167  0.9971963  0.4872941 
218.1      0.2022387  1          0.5182583 
218.2      0.2040478  1          0.5605751 
218.3      0.1656166  1          0.6163774 
218.4      0.1505726  1          0.6269284 
218.5      0.1604172  1          0.6768702 
218.6      0.1930571  1          0.6320739 
218.7      0.1984755  1          0.6212028 
218.8      0.1983165  1          0.5747006 
218.9      0.1996607  1          0.5312759 
219        0.191738   1          0.5500575 
219.1      0.1674905  1          0.5997238 
219.2      0.1537024  1          0.5842817 
219.3      0.1618974  0.9126008  0.4861297 
219.4      0.1792889  0.8106119  0.4061152 
219.5      0.2216486  0.7952209  0.3950676 
219.6      0.2079256  0.9408274  0.5213592 
219.7      0.1537137  1          0.6526228 
219.8      0.1171002  1          0.7791319 
219.9      0.1218146  1          0.7222372 
220        0.1099394  1          0.7405655 
220.1      0.1306313  1          0.7404113 
220.2      0.1715703  1          0.6575484 
220.3      0.2400921  0.9051465  0.4724911 
220.4      0.2669432  0.8158357  0.3872879 
220.5      0.2672526  0.8159269  0.3907901 
220.6      0.1963257  1          0.5531742 
220.7      0.1441717  1          0.7271463 
220.8      0.07484791 1          0.9103895 
220.9      0.06694151 1          0.9027101 
221        0.07922373 1          0.8517285 
221.1      0.1216959  1          0.7705234 
221.2      0.1374478  1          0.7387204 
221.3      0.169459   1          0.6673517 
221.4      0.1771583  1          0.6448839 
221.5      0.1953589  1          0.5918009 
221.6      0.2083832  1          0.571604  
221.7      0.211118   1          0.5520149 
221.8      0.214707   0.9786848  0.5567232 
221.9      0.2064559  1          0.5964525 
222        0.1898404  1          0.6066743 
222.1      0.1553337  1          0.6776783 
222.2      0.1505843  1          0.6775413 
222.3      0.154472   1          0.6948235 
222.4      0.1609728  1          0.6491047 
222.5      0.1842421  1          0.6008986 
222.6      0.2039818  1          0.5705051 
222.7      0.1824664  1          0.5414668 
222.8      0.1760295  1          0.5954074 
222.9      0.1828818  1          0.6004295 
223        0.1264122  1          0.7484199 
223.1      0.1281756  1          0.7482639 
223.2      0.1362014  1          0.7418618 
223.3      0.1577407  1          0.6992884 
223.4      0.1693363  1          0.7050679 
223.5      0.171918   1          0.699003  
223.6      0.1716944  1          0.6258419 
223.7      0.2107935  0.9231243  0.5547087 
223.8      0.2010962  0.9410131  0.5642917 
223.9      0.2130225  0.904113   0.540239  
224        0.2132583  0.9274593  0.5354565 
224.1      0.1925423  1          0.5542862 
224.2      0.1853707  1          0.5786548 
224.3      0.1858165  1          0.5835483 
224.4      0.1937129  1          0.5491869 
224.5      0.174026   1          0.5783203 
224.6      0.1923473  1          0.5489784 
224.7      0.2094937  1          0.4986126 
224.8      0.2287796  0.956559   0.4563161 
224.9      0.2048113  1          0.5392195 
225        0.1831405  1          0.618809  
225.1      0.2143434  1          0.5628898 
225.2      0.247031   0.9443415  0.4894641 
225.3      0.2923191  0.8120817  0.3840542 
225.4      0.2832352  0.8337094  0.3839887 
225.5      0.2830978  0.8144312  0.3468055 
225.6      0.2355018  0.954394   0.4556611 
225.7      0.2001268  1          0.5720097 
225.8      0.1730448  1          0.5919465 
225.9      0.1640951  1          0.4676927 
226        0.1939952  0.9286906  0.3275522 
226.1      0.17952    1          0.3153245 
226.2      0.2180122  0.9565698  0.3399894 
226.3      0.2527408  0.8509353  0.4012835 
226.4      0.2156339  0.9852891  0.5147777 
226.5      0.190551   1          0.5810753 
226.6      0.1773372  1          0.6168677 
226.7      0.2169009  0.9577476  0.5758763 
226.8      0.2063383  1          0.6489258 
226.9      0.1929983  1          0.6433127 
227        0.1842204  1          0.6541908 
227.1      0.1900353  1          0.5955414 
227.2      0.2012617  1          0.5703912 
227.3      0.1893726  1          0.570282  
227.4      0.1885856  1          0.5751024 
227.5      0.1704649  1          0.6371132 
227.6      0.1735522  1          0.6209313 
227.7      0.2208582  0.9403683  0.5180366 
227.8      0.1924316  1          0.5362815 
227.9      0.1899052  1          0.5696272 
228        0.1690666  1          0.6364833 
228.1      0.1782992  1          0.5842835 
228.2      0.1675913  1          0.6526278 
228.3      0.1332007  1          0.7590032 
228.4      0.09706864 1          0.8452108 
228.5      0.1322693  1          0.6746654 
228.6      0.1322998  1          0.6745298 
228.7      0.1448167  1          0.6801042 
228.8      0.1134568  1          0.7969863 
228.9      0.08237025 1          0.8304808 
229        0.08047957 1          0.8371875 
229.1      0.1065241  1          0.7768933 
229.2      0.1428401  1          0.6794195 
229.3      0.153353   1          0.6679233 
229.4      0.149241   1          0.6965038 
229.5      0.1309785  1          0.7445941 
229.6      0.1710796  1          0.6344748 
229.7      0.1860428  1          0.6079311 
229.8      0.1728417  1          0.6026483 
229.9      0.1228602  1          0.7691752 
230        0.06764384 1          0.9447975 
230.1      0.05770237 1          0.983866  
230.2      0.06491757 1          0.9443792 
230.3      0.1059918  1          0.8280041 
230.4      0.09932649 1          0.8415942 
230.5      0.1014219  1          0.8414141 
230.6      0.1190889  1          0.8005694 
230.7      0.1767203  1          0.6331002 
230.8      0.2198419  1          0.5520344 
230.9      0.2089624  1          0.5663726 
231        0.1850715  1          0.6381117 
231.1      0.1654862  1          0.6999563 
231.2      0.1821362  1          0.6542532 
231.3      0.1845393  1          0.6708847 
231.4      0.1799114  1          0.6821334 
231.5      0.1541342  1          0.7730048 
231.6      0.1294465  1          0.8533644 
231.7      0.1619195  1          0.7536632 
231.8      0.1700971  1          0.6989636 
231.9      0.1560597  1          0.7226038 
232        0.1381472  1          0.7531953 
232.1      0.09774663 1          0.8737063 
232.2      0.1137049  1          0.8111683 
232.3      0.1403858  1          0.7527276 
232.4      0.1900303  1          0.6363522 
232.5      0.1811763  1          0.6692754 
232.6      0.09641191 1          0.879946  
232.7      0.08464346 1          0.9016229 
232.8      0.1388405  1          0.7837926 
232.9      0.1896359  1          0.6520479 
233        0.1550867  1          0.7454145 
233.1      0.09827175 1          0.8718216 
233.2      0.06351735 1          0.9850379 
233.3      0.09185906 1          0.9078317 
233.4      0.09191688 1          0.8929195 
233.5      0.1046032  1          0.8429406 
233.6      0.1201486  1          0.7889809 
233.7      0.1409368  1          0.7443394 
233.8      0.1440896  1          0.7629576 
233.9      0.1061894  1          0.8632151 
234        0.09635802 1          0.8917568 
234.1      0.126213   1          0.834971  
