~Version
 VERS              .         3.0                           : CWLS LOG ASCII STANDARD - VERSION 3.0
 WRAP              .         NO                            : ONE LINE PER DEPTH STEP
 DLM               .         SPACE                         : DELIMITING CHARACTER(SPACE TAB OR COMMA)
~Well Information
#_______________________________________________________________________________
#
#PARAMETER_NAME    .UNIT     VALUE                         : DESCRIPTION
#_______________________________________________________________________________
STRT               .M        0                             : First reference value
STOP               .M        840                           : Last reference value
STEP               .M        0.1                           : Step increment
NULL               .         -9999                         : Missing value
COMP               .         ICPetroleum                   : Company
WELL               .         308                           : Well name
FLD                .         Karatobe                      : Field
LOC                .                                       : Location
SRVC               .         SERVICE COMPANY               : Service Company
CTRY               .         KZ                            : Country
DATE               .         10/2/2022                     : Service Date
LATI               .         0                             : Latitude
LONG               .         0                             : Longitude
GDAT               .         WGS 84                        : Geodetic Datum
CNTY               .         COUNTY                        : Kazakhstan
COORDIN            .                                       : Grid System
COUNT              .         KAZAKHSTAN                    : Country
COUNTRY            .         Kazakhstan                    : 
COUNTRY            .         Kazakhstan                    : 
EREF               .m        140                           : 
GRP                .                                       : Group name
ISS                .                                       : Well surveys
KB                 .         139.7                         : KB Elevation
ORIGINALWELLNAME   .         WELL                          : 
PROV               .                                       : Province
RWS                .         -999                          : Def_Rw
TIME               .                                       : LOG TIME
UWI                .         1_308                         : Unique Well Identifier (UWI)
WST                .         -999                          : Def_Rwt
X                  .km       466307.31                     : 
XCOORD             .                                       : X or East-West Coordinate
Y                  .km       5308229.38                    : 
YCOORD             .                                       : Y or North-South Coordinate
~Parameter Information Block
#_______________________________________________________________________________
#
#PARAMETER_NAME    .UNIT     VALUE                         : DESCRIPTION
#_______________________________________________________________________________
SET                .         Las                           : 
BS                 .MM       215.9                         : Bit Size
TLFamily_DEPT      .         Measured Depth                : 
TLFamily_PHI_FINAL .         Porosity                      : 
TLFamily_SW_AR     .         Water Saturation              : 
TLFamily_VSH_FINAL .         Shale Volume                  : 
~Curve Information
#_______________________________________________________________________________
#
#LOGNAME           .UNIT     LOG_ID                        : DESCRIPTION
#_______________________________________________________________________________
DEPT               .M                                      : Depth Curve {F}
PHI_FINAL          .m3/m3                                  : Porosity {F}
SW_AR              .m3/m3                                  :  {F}
VSH_FINAL          .unitless                               : Vshale {F}
~Ascii
# ...
288.8      0.06420577 1          0.9827003 
288.9      0.03639368 1          1         
289        0.06658038 1          0.8875506 
289.1      0.1022291  1          0.7167819 
289.2      0.149856   1          0.5952287 
289.3      0.1463894  1          0.6506824 
289.4      0.1237535  1          0.7163626 
289.5      0.0924148  1          0.8525392 
289.6      0.08090382 1          0.9146036 
289.7      0.08842522 1          0.8862625 
289.8      0.09519889 1          0.879168  
289.9      0.08185788 1          0.8653158 
290        0.05639758 1          0.9427826 
290.1      0.0825306  1          0.8786227 
290.2      0.09565122 1          0.8580253 
290.3      0.1153234  1          0.7928926 
290.4      0.0824899  1          0.9130391 
290.5      0.04997303 1          1         
290.6      0.0511043  1          1         
290.7      0.05976686 1          1         
290.8      0.05273743 1          1         
290.9      0.0463324  1          1         
291        0.06198444 1          1         
291.1      0.05591531 1          1         
291.2      0.0499653  1          1         
291.3      0.03568998 1          1         
291.4      0.03154919 1          0.9848323 
291.5      0.07554484 1          0.8490538 
291.6      0.09894364 1          0.7190113 
291.7      0.09778917 1          0.6477326 
291.8      0.09216001 1          0.6905925 
291.9      0.072538   1          0.7718316 
292        0.09131765 1          0.7535543 
292.1      0.1097972  1          0.6524787 
292.2      0.1628401  1          0.5320892 
292.3      0.1719371  1          0.4774586 
292.4      0.1541     1          0.4538691 
292.5      0.1367484  1          0.4461792 
292.6      0.1066381  1          0.4461037 
292.7      0.117167   1          0.4311315 
292.8      0.1006157  1          0.50575   
292.9      0.07154155 1          0.6836113 
293        0.04561057 1          0.8531148 
293.1      0.02626846 1          0.9661837 
293.2      0.03799191 1          0.9810614 
293.3      0.0370573  1          0.9509093 
293.4      0.04098602 1          0.8933777 
293.5      0.03512914 1          0.9358622 
293.6      0.02132096 1          1         
293.7      0.00599495 1          1         
293.8      0.006542735 1          1         
293.9      0.03655142 1          0.8994017 
294        0.08030822 1          0.8058604 
294.1      0.09572235 1          0.7564054 
294.2      0.1355853  1          0.6929272 
294.3      0.1824444  1          0.5754032 
294.4      0.2067216  1          0.521328  
294.5      0.1928887  1          0.5343014 
294.6      0.1612912  1          0.5798215 
294.7      0.1474465  1          0.5797157 
294.8      0.1957408  1          0.5166692 
294.9      0.1943821  1          0.4833414 
295        0.1643774  1          0.5122289 
295.1      0.1632085  1          0.5425852 
295.2      0.1431579  1          0.5983363 
295.3      0.1281975  1          0.6279861 
295.4      0.1384145  1          0.6078926 
295.5      0.1389965  1          0.5931706 
295.6      0.2164205  0.7184647  0.4590813 
295.7      0.2581448  0.5388023  0.3705773 
295.8      0.2843236  0.4371237  0.283253  
295.9      0.2895587  0.4045273  0.2580329 
296        0.2836184  0.4181578  0.2507868 
296.1      0.2920321  0.4042573  0.2460309 
296.2      0.2923256  0.3979551  0.2883376 
296.3      0.2870611  0.4053539  0.3156987 
296.4      0.2867326  0.4205285  0.315665  
296.5      0.3006159  0.41519    0.2553931 
296.6      0.3013963  0.4313003  0.250573  
296.7      0.2821057  0.4769441  0.2934459 
296.8      0.2442915  0.6344589  0.3964685 
296.9      0.2029769  0.9567176  0.5147403 
297        0.1254577  1          0.734454  
297.1      0.05788116 1          0.9145315 
297.2      0.06853797 1          0.8458364 
297.3      0.1484231  1          0.6256222 
297.4      0.2092479  1          0.4693435 
297.5      0.2285568  0.9081979  0.4350103 
297.6      0.2370788  0.8380493  0.4423594 
297.7      0.2221162  0.854479   0.4651895 
297.8      0.210067   0.8931834  0.5055161 
297.9      0.2072894  0.9099885  0.5224081 
298        0.2089     0.9560665  0.5095382 
298.1      0.2249594  1          0.5010827 
298.2      0.1997126  1          0.562123  
298.3      0.1527181  1          0.6874965 
298.4      0.1631992  1          0.7039723 
298.5      0.1569064  1          0.6603366 
298.6      0.1757251  1          0.6445304 
298.7      0.1605625  1          0.7378359 
298.8      0.1043957  1          0.9255772 
298.9      0.08117139 1          1         
299        0.04442836 1          1         
299.1      0.02824308 1          1         
299.2      0.07909785 1          0.8293496 
299.3      0.1267179  1          0.6540571 
299.4      0.1309117  1          0.6644793 
299.5      0.1044522  1          0.7908    
299.6      0.07868984 1          0.875155  
299.7      0.07709894 1          0.8886808 
299.8      0.095833   1          0.8154923 
299.9      0.04220426 1          0.888315  
300        0.05855839 1          0.8676633 
300.1      0.05887186 1          0.8408709 
300.2      0.07222658 1          0.8148375 
300.3      0.1294628  1          0.6794418 
300.4      0.1072234  1          0.741223  
300.5      0.1354606  1          0.6684393 
300.6      0.09365543 1          0.7586654 
300.7      0.08996868 1          0.7466562 
300.8      0.09293161 1          0.7764713 
300.9      0.0970862  1          0.7582181 
301        0.05920532 1          0.8135304 
301.1      0.06377392 1          0.83917   
301.2      0.08782417 1          0.7697855 
301.3      0.1044861  1          0.6568559 
301.4      0.1140485  1          0.5868027 
301.5      0.135727   1          0.5914626 
301.6      0.1270486  1          0.6460698 
301.7      0.06466267 1          0.8781924 
301.8      0.04156097 1          1         
301.9      0.0403739  1          1         
302        0.0345974  1          1         
302.1      0.02486292 1          1         
302.2      0.0253388  1          1         
302.3      0.03387345 1          1         
302.4      0.0441806  1          0.9922076 
302.5      0.06895106 1          0.9844055 
302.6      0.05648442 1          0.9917868 
302.7      0.07033172 1          0.9615457 
302.8      0.07252207 1          1         
302.9      0.08833078 1          1         
303        0.08002127 1          0.9609398 
303.1      0.1561752  1          0.8038111 
303.2      0.1478709  1          0.8226944 
303.3      0.09279542 1          0.9603348 
303.4      0.09164792 1          0.9977344 
303.5      0.1428171  1          0.8817713 
303.6      0.1087719  1          0.9023014 
303.7      0.1055708  1          0.9021154 
303.8      0.1068321  1          0.9019293 
303.9      0.134229   1          0.8151574 
304        0.112043   1          0.8740694 
304.1      0.09763662 1          0.8944284 
304.2      0.06496993 1          0.9585228 
304.3      0.06852421 1          0.9509782 
304.4      0.04624629 1          0.9804614 
304.5      0.03025182 1          1         
304.6      0.03325091 1          1         
304.7      0.02326362 1          1         
304.8      0.01791333 1          1         
304.9      0.01498622 1          1         
305        0.02837184 1          0.9350814 
305.1      0.09994906 1          0.7461174 
305.2      0.1677366  1          0.5506049 
305.3      0.1814577  1          0.4554055 
305.4      0.1941783  1          0.4221348 
305.5      0.1629445  1          0.4220653 
305.6      0.1660357  1          0.3616472 
305.7      0.1677279  1          0.3196928 
305.8      0.1333403  1          0.3196585 
305.9      0.1392923  1          0.3311419 
306        0.1656054  1          0.3709443 
306.1      0.2118949  1          0.3489763 
306.2      0.214196   0.9518577  0.3871501 
306.3      0.2126842  0.8554404  0.4323379 
306.4      0.2070453  0.8278407  0.4699735 
306.5      0.2038016  0.8291419  0.4817385 
306.6      0.2260568  0.7399255  0.4142259 
306.7      0.23293    0.7175056  0.4003061 
306.8      0.2136469  0.8144298  0.4176144 
306.9      0.2256578  0.7933183  0.421094  
