~Version
 VERS              .         3.0                           : CWLS LOG ASCII STANDARD - VERSION 3.0
 WRAP              .         NO                            : ONE LINE PER DEPTH STEP
 DLM               .         SPACE                         : DELIMITING CHARACTER(SPACE TAB OR COMMA)
~Well Information
#_______________________________________________________________________________
#
#PARAMETER_NAME    .UNIT     VALUE                         : DESCRIPTION
#_______________________________________________________________________________
STRT               .M        0                             : First reference value
STOP               .M        840                           : Last reference value
STEP               .M        0.1                           : Step increment
NULL               .         -9999                         : Missing value
COMP               .         ICPetroleum                   : Company
WELL               .         308                           : Well name
FLD                .         Karatobe                      : Field
LOC                .                                       : Location
SRVC               .         SERVICE COMPANY               : Service Company
CTRY               .         KZ                            : Country
DATE               .         10/2/2022                     : Service Date
LATI               .         0                             : Latitude
LONG               .         0                             : Longitude
GDAT               .         WGS 84                        : Geodetic Datum
CNTY               .         COUNTY                        : Kazakhstan
COORDIN            .                                       : Grid System
COUNT              .         KAZAKHSTAN                    : Country
COUNTRY            .         Kazakhstan                    : 
COUNTRY            .         Kazakhstan                    : 
EREF               .m        140                           : 
GRP                .                                       : Group name
ISS                .                                       : Well surveys
KB                 .         139.7                         : KB Elevation
ORIGINALWELLNAME   .         WELL                          : 
PROV               .                                       : Province
RWS                .         -999                          : Def_Rw
TIME               .                                       : LOG TIME
UWI                .         1_308                         : Unique Well Identifier (UWI)
WST                .         -999                          : Def_Rwt
X                  .km       466307.31                     : 
XCOORD             .                                       : X or East-West Coordinate
Y                  .km       5308229.38                    : 
YCOORD             .                                       : Y or North-South Coordinate
~Parameter Information Block
#_______________________________________________________________________________
#
#PARAMETER_NAME    .UNIT     VALUE                         : DESCRIPTION
#_______________________________________________________________________________
SET                .         Las                           : 
BS                 .MM       215.9                         : Bit Size
TLFamily_DEPT      .         Measured Depth                : 
TLFamily_PHI_FINAL .         Porosity                      : 
TLFamily_SW_AR     .         Water Saturation              : 
TLFamily_VSH_FINAL .         Shale Volume                  : 
~Curve Information
#_______________________________________________________________________________
#
#LOGNAME           .UNIT     LOG_ID                        : DESCRIPTION
#_______________________________________________________________________________
DEPT               .M                                      : Depth Curve {F}
PHI_FINAL          .m3/m3                                  : Porosity {F}
SW_AR              .m3/m3                                  :  {F}
VSH_FINAL          .unitless                               : Vshale {F}
~Ascii
# ...
689.1      0.05576655 1          0.493894  
689.2      0.0819291  1          0.4899409 
689.3      0.09823026 1          0.4743171 
689.4      0.05818889 1          0.4704579 
689.5      0.1018269  1          0.4476886 
689.6      0.1209233  1          0.4495611 
689.7      0.1215908  1          0.4820915 
689.8      0.1189281  1          0.4860068 
689.9      0.0971571  1          0.4723659 
690        0.07819304 1          0.4402436 
690.1      0.1030571  1          0.4571055 
690.2      0.09995368 1          0.5018575 
690.3      0.09306525 1          0.5344784 
690.4      0.08065818 1          0.5576623 
690.5      0.0545646  1          0.5365806 
690.6      0.05917051 1          0.5119202 
690.7      0.1007985  1          0.4723853 
690.8      0.07646559 1          0.4743171 
690.9      0.05199434 1          0.4533195 
691        0.08205038 1          0.453329  
691.1      0.09532219 1          0.4628046 
691.2      0.08173681 1          0.478195  
691.3      0.09641929 1          0.5282745 
691.4      0.1041593  1          0.5407586 
691.5      0.1073578  1          0.5770836 
691.6      0.1128809  1          0.574905  
691.7      0.08795127 1          0.6126659 
691.8      0.04379684 1          0.6519907 
691.9      0.021543   1          0.7485728 
692        0          1          0.880486  
692.1      0          1          1         
692.2      0          1          1         
692.3      0          1          1         
692.4      0          1          1         
692.5      0          1          1         
692.6      0          1          1         
692.7      0          1          0.7178797 
692.8      0.03979114 1          0.6014102 
692.9      0.04052039 1          0.5303305 
693        0.07106838 1          0.4704675 
693.1      0.08423578 1          0.4420982 
693.2      0.09647325 1          0.4608909 
693.3      0.08522791 1          0.5449252 
693.4      0.0552138  1          0.5991731 
693.5      0.05660173 1          0.637935  
693.6      0.04847279 1          0.5946925 
693.7      0          1          0.5924826 
693.8      0.03174265 1          0.5491751 
693.9      0.05540383 1          0.513927  
694        0.06948423 1          0.4762537 
694.1      0.05654183 1          0.4704579 
694.2      0.09466787 1          0.4860068 
694.3      0.09619813 1          0.493894  
694.4      0.08400568 1          0.5078806 
694.5      0.09865899 1          0.4998594 
694.6      0.1010567  1          0.4743075 
694.7      0.1075418  1          0.4704579 
694.8      0.09579851 1          0.4781853 
694.9      0.05324473 1          0.5058681 
695        0.0602447  1          0.5058681 
695.1      0.07565649 1          0.5058681 
695.2      0.07761285 1          0.5180162 
695.3      0.09269863 1          0.4919249 
695.4      0.07829588 1          0.4646943 
695.5      0.1088627  1          0.4255669 
695.6      0.09039114 1          0.4495704 
695.7      0.1098849  1          0.4820915 
695.8      0.09446473 1          0.5119202 
695.9      0.1120707  1          0.4998594 
696        0.09341746 1          0.5078806 
696.1      0.04574774 1          0.5139576 
696.2      0.05677705 1          0.520058  
696.3      0.0517579  1          0.464723  
696.4      0.1079103  1          0.4076047 
696.5      0.1537549  1          0.3579336 
696.6      0.1244456  1          0.3729851 
696.7      0.1161731  1          0.4023112 
696.8      0.04066544 1          0.4310377 
696.9      0.03251534 1          0.4365479 
697        0.06335913 1          0.4476792 
697.1      0.1212837  1          0.4685353 
697.2      0.1208948  1          0.4704579 
697.3      0.1180634  1          0.4938841 
697.4      0.07403256 1          0.5159895 
697.5      0.06900553 1          0.5512813 
697.6      0.06253997 1          0.5282641 
697.7      0.08312339 1          0.5078806 
697.8      0.09490979 1          0.4860068 
697.9      0.04992916 1          0.4801408 
698        0.04843232 1          0.44583   
698.1      0.0702258  1          0.4219326 
698.2      0.09787913 1          0.4023112 
698.3      0.08687187 1          0.4201355 
698.4      0.1046736  1          0.4292096 
698.5      0.08685416 1          0.455196  
698.6      0.09456559 1          0.427377  
698.7      0.1356769  1          0.4273861 
698.8      0.1275025  1          0.4291914 
698.9      0.08298509 1          0.4899507 
699        0.07232961 1          0.5159792 
699.1      0.05671829 1          0.520058  
699.2      0.04600943 1          0.5058681 
699.3      0.1210875  1          0.5262026 
699.4      0.08177547 1          0.5470634 
699.5      0.09464683 1          0.5079008 
699.6      0.05504756 1          0.4439385 
699.7      0.02410503 1          0.4147432 
699.8      0.07854099 1          0.4328608 
699.9      0.05621031 1          0.4723853 
700        0.03863674 1          0.4685353 
700.1      0.0402277  1          0.4685257 
700.2      0.08281779 1          0.4533195 
700.3      0.08068801 1          0.4495611 
700.4      0.00406782 1          0.4998694 
700.5      0          1          0.553382  
700.6      0          1          0.6240689 
700.7      0.01058997 1          0.6614943 
700.8      0.02050375 1          0.6831874 
700.9      0          1          0.6425782 
701        0.02649368 1          0.5684217 
701.1      0.06848345 1          0.4978563 
701.2      0.04481781 1          0.4533195 
701.3      0.08784015 1          0.4402436 
701.4      0.09692162 1          0.4439664 
701.5      0.1432174  1          0.4495611 
701.6      0.1032577  1          0.4058242 
701.7      0.1205225  1          0.3679233 
701.8      0.1033835  1          0.3431962 
701.9      0.1122701  1          0.3595816 
702        0.1540769  1          0.3970383 
702.1      0.0837853  1          0.44583   
702.2      0.06551141 1          0.4495611 
702.3      0.03213587 1          0.451438  
702.4      0.02756854 1          0.4255669 
702.5      0.01720508 1          0.4384028 
702.6      0.03415114 1          0.4273861 
702.7      0.06143962 1          0.4552054 
702.8      0.03647522 1          0.4938841 
702.9      0.008339076 1          0.5139474 
703        0.05596929 1          0.4724046 
703.1      0.07108217 1          0.4458206 
703.2      0.05484894 1          0.4076136 
703.3      0.02793074 1          0.4201355 
703.4      0          1          0.4219507 
703.5      0          1          0.4328699 
703.6      0          1          0.4093806 
703.7      0          1          0.4005523 
703.8      0.01408689 1          0.4076047 
703.9      0.02364316 1          0.4647135 
704        0.05858242 1          0.4685353 
704.1      0.05567576 1          0.5282847 
704.2      0.04014496 1          0.637935  
704.3      0          1          0.9340044 
704.4      0          1          1         
704.5      0          1          1         
704.6      0          1          1         
704.7      0          1          1         
704.8      0          1          0.8747941 
704.9      0.01330673 1          0.6194571 
705        0.04517922 1          0.5078906 
705.1      0.05238502 1          0.4589911 
705.2      0.08473717 1          0.4383936 
705.3      0.07186832 1          0.4439479 
705.4      0.05624492 1          0.4704675 
705.5      0.05387338 1          0.5303305 
705.6      0.03770781 1          0.5924937 
705.7      0.03882613 1          0.6194913 
705.8      0.06115504 1          0.5991731 
705.9      0.04020721 1          0.5179958 
706        0.07413051 1          0.4840565 
706.1      0.0728851  1          0.4608909 
706.2      0.1098813  1          0.4647039 
706.3      0.06293199 1          0.4801311 
706.4      0.01740934 1          0.5099081 
706.5      0.06163286 1          0.5407482 
706.6      0.09563479 1          0.5619419 
706.7      0.09806989 1          0.5576623 
706.8      0.04001327 1          0.5428551 
706.9      0.02647808 1          0.5282745 
707        0.05607047 1          0.5038604 
707.1      0.06830695 1          0.5386567 
707.2      0.02048175 1          0.5576623 
