~Version
 VERS              .         3.0                           : CWLS LOG ASCII STANDARD - VERSION 3.0
 WRAP              .         NO                            : ONE LINE PER DEPTH STEP
 DLM               .         SPACE                         : DELIMITING CHARACTER(SPACE TAB OR COMMA)
~Well Information
#_______________________________________________________________________________
#
#PARAMETER_NAME    .UNIT     VALUE                         : DESCRIPTION
#_______________________________________________________________________________
STRT               .M        0                             : First reference value
STOP               .M        840                           : Last reference value
STEP               .M        0.1                           : Step increment
NULL               .         -9999                         : Missing value
COMP               .         ICPetroleum                   : Company
WELL               .         308                           : Well name
FLD                .         Karatobe                      : Field
LOC                .                                       : Location
SRVC               .         SERVICE COMPANY               : Service Company
CTRY               .         KZ                            : Country
DATE               .         10/2/2022                     : Service Date
LATI               .         0                             : Latitude
LONG               .         0                             : Longitude
GDAT               .         WGS 84                        : Geodetic Datum
CNTY               .         COUNTY                        : Kazakhstan
COORDIN            .                                       : Grid System
COUNT              .         KAZAKHSTAN                    : Country
COUNTRY            .         Kazakhstan                    : 
COUNTRY            .         Kazakhstan                    : 
EREF               .m        140                           : 
GRP                .                                       : Group name
ISS                .                                       : Well surveys
KB                 .         139.7                         : KB Elevation
ORIGINALWELLNAME   .         WELL                          : 
PROV               .                                       : Province
RWS                .         -999                          : Def_Rw
TIME               .                                       : LOG TIME
UWI                .         1_308                         : Unique Well Identifier (UWI)
WST                .         -999                          : Def_Rwt
X                  .km       466307.31                     : 
XCOORD             .                                       : X or East-West Coordinate
Y                  .km       5308229.38                    : 
YCOORD             .                                       : Y or North-South Coordinate
~Parameter Information Block
#_______________________________________________________________________________
#
#PARAMETER_NAME    .UNIT     VALUE                         : DESCRIPTION
#_______________________________________________________________________________
SET                .         Las                           : 
BS                 .MM       215.9                         : Bit Size
TLFamily_DEPT      .         Measured Depth                : 
TLFamily_PHI_FINAL .         Porosity                      : 
TLFamily_SW_AR     .         Water Saturation              : 
TLFamily_VSH_FINAL .         Shale Volume                  : 
~Curve Information
#_______________________________________________________________________________
#
#LOGNAME           .UNIT     LOG_ID                        : DESCRIPTION
#_______________________________________________________________________________
DEPT               .M                                      : Depth Curve {F}
PHI_FINAL          .m3/m3                                  : Porosity {F}
SW_AR              .m3/m3                                  :  {F}
VSH_FINAL          .unitless                               : Vshale {F}
~Ascii
# ...
252.4      0.3175879  0.2918121  0.2148459 
252.5      0.2912583  0.2805669  0.2352358 
252.6      0.3101084  0.2412637  0.2104293 
252.7      0.3151442  0.2408743  0.2082462 
252.8      0.3207264  0.2428464  0.1796788 
252.9      0.3335271  0.2268874  0.1453501 
253        0.3541647  0.2135663  0.1041525 
253.1      0.3491235  0.2291681  0.09473661
253.2      0.3473662  0.2369131  0.09736299
253.3      0.356574   0.2291283  0.1027434 
253.4      0.3520912  0.2321743  0.1169238 
253.5      0.3467308  0.2444753  0.1452401 
253.6      0.3338515  0.2712176  0.1873317 
253.7      0.3320961  0.2708938  0.1775377 
253.8      0.3283261  0.2526872  0.1813778 
253.9      0.3420658  0.2301939  0.1418326 
254        0.3347923  0.2343413  0.1352928 
254.1      0.3369478  0.2453497  0.1273901 
254.2      0.3345947  0.2582276  0.158944  
254.3      0.332687   0.2717789  0.1679898 
254.4      0.3336619  0.2865213  0.1698211 
254.5      0.3387319  0.2779642  0.1661063 
254.6      0.3452261  0.2673422  0.173523  
254.7      0.3322397  0.2905381  0.1753938 
254.8      0.3208718  0.3355244  0.1992118 
254.9      0.3193192  0.3840433  0.2162856 
255        0.3148978  0.4319391  0.2251889 
255.1      0.328075   0.4565771  0.1970627 
255.2      0.3349187  0.4800143  0.1791038 
255.3      0.3399676  0.4908837  0.1829622 
255.4      0.3367432  0.506296   0.1990476 
255.5      0.3272268  0.5285022  0.205309  
255.6      0.3405131  0.515822   0.1770894 
255.7      0.354291   0.5035118  0.1640239 
255.8      0.3535027  0.51135    0.1603984 
255.9      0.3388909  0.5406413  0.1867508 
256        0.3264126  0.5746052  0.2009627 
256.1      0.3366822  0.575147   0.1988564 
256.2      0.3392763  0.5772296  0.1847012 
256.3      0.3368507  0.5811607  0.1988018 
256.4      0.3263901  0.593002   0.202945  
256.5      0.3282544  0.5891058  0.2114422 
256.6      0.3451668  0.5597287  0.163832  
256.7      0.3403463  0.5789991  0.1429901 
256.8      0.3637344  0.5596938  0.122397  
256.9      0.3613606  0.5720585  0.1269569 
257        0.3607518  0.5620355  0.1300472 
257.1      0.3343869  0.5930355  0.1445832 
257.2      0.3429097  0.574904   0.147931  
257.3      0.3468999  0.5631793  0.1729054 
257.4      0.3331388  0.5795263  0.1824481 
257.5      0.3202305  0.6045153  0.2047415 
257.6      0.3315279  0.5892674  0.1943469 
257.7      0.3207967  0.6101059  0.1902801 
257.8      0.3029384  0.6394206  0.1963362 
257.9      0.323537   0.6015755  0.2004383 
258        0.332332   0.5900545  0.1922146 
258.1      0.3383119  0.5746022  0.1635131 
258.2      0.3267563  0.5880925  0.154615  
258.3      0.349033   0.5585691  0.1528589 
258.4      0.343183   0.5723912  0.151116  
258.5      0.3352525  0.5774669  0.1563043 
258.6      0.3492776  0.5615823  0.1580454 
258.7      0.3433445  0.5742152  0.1545162 
258.8      0.336819   0.5777109  0.1048215 
258.9      0.3511482  0.5533744  0.07683989
259        0.3645465  0.5373567  0.05914209
259.1      0.364131   0.5544161  0.07682334
259.2      0.3564956  0.5914228  0.09279229
259.3      0.3348995  0.633499   0.1020355 
259.4      0.3252096  0.634327   0.09021396
259.5      0.3384658  0.6013103  0.0644154 
259.6      0.335726   0.6074153  0.05399376
259.7      0.355489   0.5678401  0.05499571
259.8      0.3635507  0.5420098  0.06657093
259.9      0.3720863  0.5373304  0.07101145
260        0.3631634  0.5693718  0.07558306
260.1      0.3421164  0.5789545  0.08514438
260.2      0.2878334  0.5966824  0.0901335 
260.3      0.2244274  0.6749806  0.08886024
260.4      0.2191488  0.6168746  0.07907226
260.5      0.1988418  0.7341041  0.0802547 
260.6      0.1919223  0.8991935  0.09523755
260.7      0.2713837  0.7086838  0.1101734 
260.8      0.3062938  0.6482627  0.140616  
260.9      0.3379863  0.5985011  0.1472421 
261        0.3425439  0.5959728  0.1422235 
261.1      0.3390434  0.6025207  0.137315  
261.2      0.3372254  0.6092476  0.152296  
261.3      0.332362   0.6296923  0.1757572 
261.4      0.3338219  0.6339149  0.1814763 
261.5      0.3511645  0.6115629  0.1700942 
261.6      0.357131   0.6179993  0.173802  
261.7      0.3322523  0.6785489  0.1853006 
261.8      0.3281558  0.6646942  0.1663528 
261.9      0.3405103  0.6080693  0.1355828 
262        0.3454479  0.5792381  0.1100062 
262.1      0.3474866  0.5753252  0.1099934 
262.2      0.3406265  0.5933983  0.1157085 
262.3      0.3389175  0.604183   0.1469914 
262.4      0.3302307  0.6147457  0.183164  
262.5      0.3345332  0.59279    0.2096847 
262.6      0.3474408  0.5691825  0.1910214 
262.7      0.3612697  0.5763449  0.1643438 
262.8      0.3613694  0.6480413  0.1716599 
262.9      0.3436548  0.7554371  0.1850032 
263        0.3490538  0.7567999  0.2031959 
263.1      0.3606249  0.6850668  0.1908925 
263.2      0.3617591  0.6298249  0.1678769 
263.3      0.3481028  0.6136945  0.1969196 
263.4      0.306348   0.6663834  0.2864224 
263.5      0.257507   0.7891545  0.4190322 
263.6      0.2168547  0.9340357  0.4936897 
263.7      0.2147804  0.9655212  0.5106956 
263.8      0.2159085  0.9653842  0.5062842 
263.9      0.1775624  1          0.5601546 
264        0.1769026  1          0.5695109 
264.1      0.1945488  1          0.5599474 
264.2      0.2190037  0.9365637  0.510236  
264.3      0.2366105  0.9122564  0.4847244 
264.4      0.2265659  0.9828776  0.4887972 
264.5      0.2162764  1          0.5099608 
264.6      0.1923896  1          0.5409456 
264.7      0.199142   1          0.5687705 
264.8      0.1939692  1          0.6129008 
264.9      0.1439552  1          0.6764554 
265        0.1243209  1          0.7518725 
265.1      0.1471076  1          0.6436751 
265.2      0.1399385  1          0.5588099 
265.3      0.1659506  1          0.4595915 
265.4      0.1525501  1          0.4555688 
265.5      0.1541521  1          0.4476919 
265.6      0.1843106  1          0.5220471 
265.7      0.1486137  1          0.6644184 
265.8      0.110092   1          0.7816165 
265.9      0.08546218 1          0.8333795 
266        0.1087019  1          0.7503594 
266.1      0.1325929  1          0.6693672 
266.2      0.1654497  1          0.6214708 
266.3      0.1568836  1          0.6691067 
266.4      0.1395915  1          0.731745  
266.5      0.1233537  1          0.7556945 
266.6      0.1284273  1          0.7314528 
266.7      0.1553527  1          0.6964731 
266.8      0.1634484  1          0.6575853 
266.9      0.1677511  1          0.6361914 
267        0.1525681  1          0.6960619 
267.1      0.1387866  1          0.730723  
267.2      0.1356788  1          0.724673  
267.3      0.1593343  1          0.690001  
267.4      0.1935358  1          0.6676767 
267.5      0.2083275  1          0.640711  
267.6      0.1992484  1          0.6096564 
267.7      0.1741419  1          0.6352171 
267.8      0.161633   1          0.6456277 
267.9      0.1829715  1          0.6093105 
268        0.185818   1          0.5653018 
268.1      0.1716784  1          0.6090802 
268.2      0.1654231  1          0.6294056 
268.3      0.1419375  1          0.6830537 
268.4      0.1663866  1          0.655554  
268.5      0.1496167  1          0.6996867 
268.6      0.1421942  1          0.7052631 
268.7      0.1564125  1          0.6659933 
268.8      0.1553784  1          0.6496983 
268.9      0.1744915  1          0.6132059 
269        0.1507976  1          0.6821199 
269.1      0.1433758  1          0.6819867 
269.2      0.1342412  1          0.7276709 
269.3      0.1382894  1          0.7158238 
269.4      0.1150176  1          0.7885001 
269.5      0.1231837  1          0.7451034 
269.6      0.1208137  1          0.7945356 
269.7      0.1616787  1          0.738809  
269.8      0.1626575  1          0.7150863 
269.9      0.1664191  1          0.6325507 
270        0.1690068  1          0.6429049 
270.1      0.1344608  1          0.7263695 
270.2      0.1112901  1          0.7746617 
270.3      0.1021534  1          0.8192469 
270.4      0.1071578  1          0.845679  
270.5      0.1443595  1          0.7679862 
