~Version
 VERS              .         3.0                           : CWLS LOG ASCII STANDARD - VERSION 3.0
 WRAP              .         NO                            : ONE LINE PER DEPTH STEP
 DLM               .         SPACE                         : DELIMITING CHARACTER(SPACE TAB OR COMMA)
~Well Information
#_______________________________________________________________________________
#
#PARAMETER_NAME    .UNIT     VALUE                         : DESCRIPTION
#_______________________________________________________________________________
STRT               .M        0                             : First reference value
STOP               .M        840                           : Last reference value
STEP               .M        0.1                           : Step increment
NULL               .         -9999                         : Missing value
COMP               .         ICPetroleum                   : Company
WELL               .         308                           : Well name
FLD                .         Karatobe                      : Field
LOC                .                                       : Location
SRVC               .         SERVICE COMPANY               : Service Company
CTRY               .         KZ                            : Country
DATE               .         10/2/2022                     : Service Date
LATI               .         0                             : Latitude
LONG               .         0                             : Longitude
GDAT               .         WGS 84                        : Geodetic Datum
CNTY               .         COUNTY                        : Kazakhstan
COORDIN            .                                       : Grid System
COUNT              .         KAZAKHSTAN                    : Country
COUNTRY            .         Kazakhstan                    : 
COUNTRY            .         Kazakhstan                    : 
EREF               .m        140                           : 
GRP                .                                       : Group name
ISS                .                                       : Well surveys
KB                 .         139.7                         : KB Elevation
ORIGINALWELLNAME   .         WELL                          : 
PROV               .                                       : Province
RWS                .         -999                          : Def_Rw
TIME               .                                       : LOG TIME
UWI                .         1_308                         : Unique Well Identifier (UWI)
WST                .         -999                          : Def_Rwt
X                  .km       466307.31                     : 
XCOORD             .                                       : X or East-West Coordinate
Y                  .km       5308229.38                    : 
YCOORD             .                                       : Y or North-South Coordinate
~Parameter Information Block
#_______________________________________________________________________________
#
#PARAMETER_NAME    .UNIT     VALUE                         : DESCRIPTION
#_______________________________________________________________________________
SET                .         Las                           : 
BS                 .MM       215.9                         : Bit Size
TLFamily_DEPT      .         Measured Depth                : 
TLFamily_PHI_FINAL .         Porosity                      : 
TLFamily_SW_AR     .         Water Saturation              : 
TLFamily_VSH_FINAL .         Shale Volume                  : 
~Curve Information
#_______________________________________________________________________________
#
#LOGNAME           .UNIT     LOG_ID                        : DESCRIPTION
#_______________________________________________________________________________
DEPT               .M                                      : Depth Curve {F}
PHI_FINAL          .m3/m3                                  : Porosity {F}
SW_AR              .m3/m3                                  :  {F}
VSH_FINAL          .unitless                               : Vshale {F}
~Ascii
# ...
543.5      0.2090902  1          0.4717028 
543.6      0.1597493  1          0.6009406 
543.7      0.1603634  1          0.6090613 
543.8      0.1527865  1          0.6215011 
543.9      0.1721552  1          0.5419536 
544        0.1529294  1          0.5964706 
544.1      0.1602238  1          0.592346  
544.2      0.1483332  1          0.6600634 
544.3      0.1807992  1          0.5801548 
544.4      0.2186699  1          0.4744161 
544.5      0.2339215  1          0.4296067 
544.6      0.2079744  1          0.4878407 
544.7      0.1808541  1          0.556418  
544.8      0.161691   1          0.6332665 
544.9      0.1399362  1          0.6505261 
545        0.123876   1          0.7096853 
545.1      0.1459641  1          0.6862261 
545.2      0.1606515  1          0.620143  
545.3      0.1702532  1          0.6034333 
545.4      0.1737659  1          0.5010217 
545.5      0.2012202  1          0.4414113 
545.6      0.2259927  1          0.3992567 
545.7      0.216511   1          0.4288857 
545.8      0.204884   1          0.4571094 
545.9      0.1657798  1          0.5478626 
546        0.1257504  1          0.694424  
546.1      0.08263215 1          0.7826289 
546.2      0.09968404 1          0.7620583 
546.3      0.1272071  1          0.6895052 
546.4      0.09383911 1          0.7128139 
546.5      0.1038626  1          0.7079593 
546.6      0.1020895  1          0.698453  
546.7      0.1040651  1          0.7220264 
546.8      0.09084821 1          0.7267305 
546.9      0.05596125 1          0.8570088 
547        0.03123916 1          0.8852906 
547.1      0.03233336 1          0.9325098 
547.2      0.07013535 1          0.8343664 
547.3      0.0749642  1          0.8287641 
547.4      0.04332059 1          0.8789759 
547.5      0.03257005 1          0.9079373 
547.6      0.0223285  1          0.907779  
547.7      0.05061963 1          0.8727703 
547.8      0.06298888 1          0.8280889 
547.9      0.08758575 1          0.7498896 
548        0.09330475 1          0.7253078 
548.1      0.07722037 1          0.8276948 
548.2      0.05367159 1          0.8950889 
548.3      0.04336918 1          0.9008158 
548.4      0.06899964 1          0.8381462 
548.5      0.06817108 1          0.8325253 
548.6      0.0650398  1          0.8600997 
548.7      0.03989655 1          0.935987  
548.8      0.06294169 1          0.8883764 
548.9      0.08593327 1          0.7997431 
549        0.1223927  1          0.7050986 
549.1      0.09102284 1          0.7995532 
549.2      0.03955382 1          0.9849169 
549.3      0.02257706 1          1         
549.4      0.0265924  1          0.9656087 
549.5      0.06043603 1          0.8365802 
549.6      0.06480675 1          0.8201399 
549.7      0.06847497 1          0.8146342 
549.8      0.05223786 1          0.8471779 
549.9      0.03535312 1          0.8808975 
550        0.02940783 1          0.8923026 
550.1      0.01893863 1          0.8635179 
550.2      0.03181786 1          0.8747171 
550.3      0.0453903  1          0.8354445 
550.4      0.0600748  1          0.8298201 
550.5      0.1142595  1          0.7223594 
550.6      0.08234073 1          0.7975459 
550.7      0.09281161 1          0.7366434 
550.8      0.09700125 1          0.7220547 
550.9      0.1207142  1          0.6530895 
551        0.1213573  1          0.6399514 
551.1      0.1152218  1          0.6485133 
551.2      0.1403138  1          0.6185458 
551.3      0.1406501  1          0.5818629 
551.4      0.1304809  1          0.6438873 
551.5      0.0948205  1          0.7068999 
551.6      0.07958318 1          0.7754689 
551.7      0.1172185  1          0.6881337 
551.8      0.1451987  1          0.5933924 
551.9      0.1567121  1          0.5892673 
552        0.1524456  1          0.605374  
552.1      0.1638284  1          0.5890666 
552.2      0.1566361  1          0.5771043 
552.3      0.1330469  1          0.6216503 
552.4      0.09294367 1          0.7106531 
552.5      0.04006393 1          0.7794542 
552.6      0.06605635 1          0.7844708 
552.7      0.06855413 1          0.815864  
552.8      0.08680137 1          0.8210894 
552.9      0.1230261  1          0.7536502 
553        0.1316448  1          0.6731099 
553.1      0.152765   1          0.6043476 
553.2      0.1396569  1          0.6819189 
553.3      0.103775   1          0.8149871 
553.4      0.07260484 1          0.8928658 
553.5      0.08702485 1          0.8529557 
553.6      0.08518038 1          0.8308135 
553.7      0.03039545 1          0.892403  
553.8      0.05631773 1          0.8197337 
553.9      0.1271412  1          0.6412999 
554        0.1318584  1          0.4778874 
554.1      0.09216511 1          0.3512798 
554.2      0.09055056 1          0.2676011 
554.3      0.1016374  1          0.1885102 
554.4      0.1015589  1          0.1966787 
554.5      0.1403012  1          0.2531916 
554.6      0.1073676  1          0.3485163 
554.7      0.0818604  1          0.3943214 
554.8      0.0596115  1          0.3971123 
554.9      0.03061025 1          0.3747738 
555        0.04393089 1          0.3457792 
555.1      0.04401077 1          0.3068468 
555.2      0.07588053 1          0.2909311 
555.3      0.1078933  1          0.2998853 
555.4      0.1495801  1          0.3044229 
555.5      0.182425   1          0.337973  
555.6      0.2082484  1          0.369036  
555.7      0.1985901  1          0.4475767 
555.8      0.1952187  1          0.457049  
555.9      0.2185873  1          0.4198324 
556        0.2547437  0.9506256  0.3402725 
556.1      0.2507333  0.9695976  0.3158208 
556.2      0.2529024  0.9571714  0.3277953 
556.3      0.2281104  1          0.3906332 
556.4      0.2204328  1          0.4195576 
556.5      0.2104627  1          0.4408176 
556.6      0.213044   1          0.4284683 
556.7      0.203469   1          0.4406943 
556.8      0.1454487  1          0.5136416 
556.9      0.1361942  1          0.5425879 
557        0.1548831  1          0.510015  
557.1      0.1459619  1          0.5064153 
557.2      0.1489262  1          0.5204768 
557.3      0.1170018  1          0.5923949 
557.4      0.1506986  1          0.5571961 
557.5      0.1936669  1          0.4889039 
557.6      0.1946449  1          0.4956401 
557.7      0.1967763  1          0.4622514 
557.8      0.21288    1          0.4687073 
557.9      0.2431248  0.9552675  0.3982769 
558        0.2697597  0.8194789  0.3546906 
558.1      0.2719974  0.8072768  0.3126564 
558.2      0.275271   0.8078141  0.3126288 
558.3      0.2686891  0.858747   0.3125894 
558.4      0.265795   0.9056314  0.3493352 
558.5      0.2851094  0.8187022  0.3101844 
558.6      0.2729459  0.7678294  0.314822  
558.7      0.2959145  0.651403   0.2874722 
558.8      0.2913847  0.6625808  0.2918651 
558.9      0.3047512  0.712885   0.274462  
559        0.2946149  0.8947796  0.2851669 
559.1      0.2521292  1          0.3439392 
559.2      0.2240006  1          0.4179416 
559.3      0.2294183  1          0.4061675 
559.4      0.2359043  1          0.377949  
559.5      0.2525861  1          0.3387217 
559.6      0.24055    1          0.3462386 
559.7      0.2568332  1          0.341139  
559.8      0.2451758  1          0.3887936 
559.9      0.2073932  1          0.470577  
560        0.1629829  1          0.5703048 
560.1      0.1720928  1          0.5663809 
560.2      0.2077498  1          0.5111107 
560.3      0.2225848  1          0.4384978 
560.4      0.240594   1          0.4113638 
560.5      0.2484943  1          0.3693165 
560.6      0.2600083  1          0.3283707 
560.7      0.283136   1          0.2824138 
560.8      0.2744329  1          0.2911335 
560.9      0.2811508  1          0.2823447 
561        0.27732    1          0.3068842 
561.1      0.2759025  1          0.3022701 
561.2      0.2612076  1          0.3257053 
561.3      0.2693113  1          0.2999107 
561.4      0.2833484  1          0.2821611 
561.5      0.2864113  1          0.3066804 
561.6      0.2923268  1          0.2930645 
