~Version
 VERS              .         3.0                           : CWLS LOG ASCII STANDARD - VERSION 3.0
 WRAP              .         NO                            : ONE LINE PER DEPTH STEP
 DLM               .         SPACE                         : DELIMITING CHARACTER(SPACE TAB OR COMMA)
~Well Information
#_______________________________________________________________________________
#
#PARAMETER_NAME    .UNIT     VALUE                         : DESCRIPTION
#_______________________________________________________________________________
STRT               .M        0                             : First reference value
STOP               .M        840                           : Last reference value
STEP               .M        0.1                           : Step increment
NULL               .         -9999                         : Missing value
COMP               .         ICPetroleum                   : Company
WELL               .         308                           : Well name
FLD                .         Karatobe                      : Field
LOC                .                                       : Location
SRVC               .         SERVICE COMPANY               : Service Company
CTRY               .         KZ                            : Country
DATE               .         10/2/2022                     : Service Date
LATI               .         0                             : Latitude
LONG               .         0                             : Longitude
GDAT               .         WGS 84                        : Geodetic Datum
CNTY               .         COUNTY                        : Kazakhstan
COORDIN            .                                       : Grid System
COUNT              .         KAZAKHSTAN                    : Country
COUNTRY            .         Kazakhstan                    : 
COUNTRY            .         Kazakhstan                    : 
EREF               .m        140                           : 
GRP                .                                       : Group name
ISS                .                                       : Well surveys
KB                 .         139.7                         : KB Elevation
ORIGINALWELLNAME   .         WELL                          : 
PROV               .                                       : Province
RWS                .         -999                          : Def_Rw
TIME               .                                       : LOG TIME
UWI                .         1_308                         : Unique Well Identifier (UWI)
WST                .         -999                          : Def_Rwt
X                  .km       466307.31                     : 
XCOORD             .                                       : X or East-West Coordinate
Y                  .km       5308229.38                    : 
YCOORD             .                                       : Y or North-South Coordinate
~Parameter Information Block
#_______________________________________________________________________________
#
#PARAMETER_NAME    .UNIT     VALUE                         : DESCRIPTION
#_______________________________________________________________________________
SET                .         Las                           : 
BS                 .MM       215.9                         : Bit Size
TLFamily_DEPT      .         Measured Depth                : 
TLFamily_PHI_FINAL .         Porosity                      : 
TLFamily_SW_AR     .         Water Saturation              : 
TLFamily_VSH_FINAL .         Shale Volume                  : 
~Curve Information
#_______________________________________________________________________________
#
#LOGNAME           .UNIT     LOG_ID                        : DESCRIPTION
#_______________________________________________________________________________
DEPT               .M                                      : Depth Curve {F}
PHI_FINAL          .m3/m3                                  : Porosity {F}
SW_AR              .m3/m3                                  :  {F}
VSH_FINAL          .unitless                               : Vshale {F}
~Ascii
# ...
652.7      0.3004161  0.5249158  0.09295822
652.8      0.3025943  0.5427402  0.09997299
652.9      0.3054652  0.5491615  0.0979248 
653        0.3283356  0.53067    0.09691281
653.1      0.3123593  0.569984   0.103046  
653.2      0.2992501  0.5821567  0.1250359 
653.3      0.3102052  0.5392487  0.1227119 
653.4      0.3111804  0.5196239  0.1072136 
653.5      0.3161348  0.4881327  0.08148976
653.6      0.310623   0.4714919  0.07784252
653.7      0.300007   0.4674007  0.08613173
653.8      0.3023901  0.4268057  0.09385611
653.9      0.3113412  0.3962558  0.07603169
654        0.3403139  0.3751686  0.05842836
654.1      0.340672   0.4119175  0.05529855
654.2      0.3259319  0.4794833  0.08515351
654.3      0.3124649  0.5220391  0.1103412 
654.4      0.3236473  0.4844526  0.1103314 
654.5      0.3122981  0.4477827  0.1071145 
654.6      0.3111075  0.3779716  0.09379171
654.7      0.3477335  0.3327487  0.08987832
654.8      0.3456679  0.3562932  0.06988548
654.9      0.3373028  0.3192547  0.05837965
655        0.3403976  0.2867655  0.04775191
655.1      0.3600346  0.2808158  0.03524032
655.2      0.3662678  0.2793783  0.03134591
655.3      0.3647565  0.2636875  0.03070714
655.4      0.3681895  0.2267291  0.03656353
655.5      0.3631737  0.1974892  0.04772675
655.6      0.367406   0.1861205  0.05600467
655.7      0.3654594  0.1917526  0.05677834
655.8      0.3513912  0.2140974  0.05067066
655.9      0.363559   0.2255194  0.04483052
656        0.3606781  0.2320531  0.04626181
656.1      0.3682772  0.2192301  0.04917951
656.2      0.3636411  0.2067557  0.05520552
656.3      0.3714328  0.199414   0.04770547
656.4      0.3665713  0.1986891  0.03653395
656.5      0.3706701  0.1929904  0.02391504
656.6      0.3714956  0.1952272  0.02331868
656.7      0.3698137  0.2114525  0.01754917
656.8      0.3752684  0.2345538  0.01867592
656.9      0.3774648  0.2490529  0.01754966
657        0.3585645  0.2757118  0.02450477
657.1      0.3715456  0.3242908  0.02510428
657.2      0.3734654  0.3912647  0.02154556
657.3      0.38521    0.3995034  0.0209628 
657.4      0.3874721  0.3783354  0.02038337
657.5      0.369368   0.3997459  0.02692063
657.6      0.3504371  0.4049998  0.03066084
657.7      0.350567   0.3563652  0.03321832
657.8      0.3977763  0.2583984  0.03192753
657.9      0.4015695  0.2277436  0.02448974
658        0.4028186  0.2282008  0.02153397
658.1      0.3885831  0.2586938  0.01809481
658.2      0.3698393  0.2980806  0.01697309
658.3      0.3507781  0.3283944  0.01155599
658.4      0.3211517  0.4081603  0.01753229
658.5      0.3245235  0.4785203  0.02628838
658.6      0.3462906  0.5101524  0.04545474
658.7      0.3436358  0.5252283  0.05433252
658.8      0.341851   0.4877306  0.06058712
658.9      0.3368435  0.4340378  0.06463778
659        0.3613576  0.329673   0.05663406
659.1      0.3556647  0.2872506  0.04120961
659.2      0.349985   0.272515   0.0232776 
659.3      0.3534624  0.2743476  0.01102088
659.4      0.3641177  0.3002804  0.005927413
659.5      0.3622818  0.3471577  0.0006433767
659.6      0.3418916  0.4284977  0         
659.7      0.3157805  0.5062535  0         
659.8      0.3375941  0.520673   0         
659.9      0.355905   0.5117985  0         
660        0.3529992  0.5176624  0         
660.1      0.3564035  0.5274801  0         
660.2      0.3548469  0.5387177  0         
660.3      0.3514007  0.5275065  0         
660.4      0.3119701  0.5882292  0         
660.5      0.2955201  0.6475165  0         
660.6      0.3460585  0.5803657  0         
660.7      0.3568232  0.6052859  0         
660.8      0.3623181  0.6319312  0         
660.9      0.3576072  0.6291659  0         
661        0.3339454  0.635978   0         
661.1      0.302186   0.6479372  0         
661.2      0.3128254  0.5684948  0         
661.3      0.3051894  0.5503014  0         
661.4      0.2978899  0.5515152  0         
661.5      0.2718213  0.5763069  0         
661.6      0.2502187  0.6309146  0         
661.7      0.2761207  0.5961796  0         
661.8      0.2640735  0.645775   0         
661.9      0.2440493  0.707726   0         
662        0.2272867  0.7570043  0         
662.1      0.2061862  0.8629617  0         
662.2      0.2308949  0.7943625  0.0006423315
662.3      0.2555757  0.7555364  0.003479258
662.4      0.2955472  0.6960732  0.002046459
662.5      0.3090541  0.6794087  0.0006422157
662.6      0.3104383  0.6652409  0.002050939
662.7      0.2903239  0.6935622  0.006909166
662.8      0.2252776  0.8380534  0.007913657
662.9      0.1587827  0.9736373  0.001105839
663        0.04846148 1          0.06853119
663.1      0.07785645 1          0.0723881 
663.2      0.06774484 1          0.08816755
663.3      0.04486977 1          0.115143  
663.4      0.05540986 1          0.1855064 
663.5      0.05764158 1          0.3319188 
663.6      0.003876297 1          0.5428971 
663.7      0          1          0.7254668 
663.8      0          1          0.7855038 
663.9      0          1          0.7407938 
664        0          1          0.6662865 
664.1      0          1          0.5858293 
664.2      0          1          0.5159792 
664.3      0.02073172 1          0.4347159 
664.4      0.04410121 1          0.4365479 
664.5      0.07467501 1          0.4551866 
664.6      0.06901925 1          0.5555515 
664.7      0.06459637 1          0.6081429 
664.8      0.05650239 1          0.6402655 
664.9      0.06654377 1          0.630977  
665        0.05710348 1          0.6379234 
665.1      0.06041768 1          0.6286688 
665.2      0.06839588 1          0.6263661 
665.3      0.06398645 1          0.5902669 
665.4      0.06579682 1          0.6149355 
665.5      0.04812804 1          0.6171993 
665.6      0.0309379  1          0.630977  
665.7      0.04605637 1          0.5770836 
665.8      0.05155514 1          0.5365806 
665.9      0.08588353 1          0.4646943 
666        0.02395499 1          0.4402529 
666.1      0.04725918 1          0.4292188 
666.2      0.05423796 1          0.4608909 
666.3      0.01620079 1          0.4666172 
666.4      0          1          0.427377  
666.5      0.05281359 1          0.4183337 
666.6      0.09840438 1          0.4347251 
666.7      0.1051195  1          0.493894  
666.8      0.06613196 1          0.5576516 
666.9      0.097662   1          0.6195027 
667        0.0802584  1          0.6172221 
667.1      0.08067195 1          0.5576409 
667.2      0.08994475 1          0.4820915 
667.3      0.06405313 1          0.4533195 
667.4      0.06434722 1          0.4533195 
667.5      0.01806356 1          0.4938841 
667.6      0          1          0.5727531 
667.7      0.02024288 1          0.6662745 
667.8      0.03265399 1          0.710347  
667.9      0.03176448 1          0.7356687 
668        0.01158917 1          0.7229318 
668.1      0.03060448 1          0.6954313 
668.2      0.08380324 1          0.5902669 
668.3      0.0860548  1          0.4647325 
668.4      0.07531956 1          0.4076136 
668.5      0.08698671 1          0.4129454 
668.6      0.08499558 1          0.4533195 
668.7      0.09032398 1          0.4183337 
668.8      0.08442923 1          0.3866405 
668.9      0.1104511  1          0.3399662 
669        0.1233001  1          0.3712797 
669.1      0.1261015  1          0.4219597 
669.2      0.1198039  1          0.4273861 
669.3      0.1049414  1          0.3988151 
669.4      0.1141114  1          0.3131212 
669.5      0.1139342  1          0.3039236 
669.6      0.1018803  1          0.2873668 
669.7      0.07081719 1          0.2858839 
669.8      0.09859685 1          0.2640706 
669.9      0.1071929  1          0.233444  
670        0.09632973 1          0.2253792 
670.1      0.09654052 1          0.2200625 
670.2      0.1636777  1          0.2443957 
670.3      0.1650128  1          0.2640563 
670.4      0.1469115  1          0.3024009 
670.5      0.1288197  1          0.3146774 
670.6      0.09105102 1          0.2933266 
670.7      0.0985722  1          0.2485547 
670.8      0.1260671  1          0.2005804 
