~Version
 VERS              .         3.0                           : CWLS LOG ASCII STANDARD - VERSION 3.0
 WRAP              .         NO                            : ONE LINE PER DEPTH STEP
 DLM               .         SPACE                         : DELIMITING CHARACTER(SPACE TAB OR COMMA)
~Well Information
#_______________________________________________________________________________
#
#PARAMETER_NAME    .UNIT     VALUE                         : DESCRIPTION
#_______________________________________________________________________________
STRT               .M        0                             : First reference value
STOP               .M        840                           : Last reference value
STEP               .M        0.1                           : Step increment
NULL               .         -9999                         : Missing value
COMP               .         ICPetroleum                   : Company
WELL               .         308                           : Well name
FLD                .         Karatobe                      : Field
LOC                .                                       : Location
SRVC               .         SERVICE COMPANY               : Service Company
CTRY               .         KZ                            : Country
DATE               .         10/2/2022                     : Service Date
LATI               .         0                             : Latitude
LONG               .         0                             : Longitude
GDAT               .         WGS 84                        : Geodetic Datum
CNTY               .         COUNTY                        : Kazakhstan
COORDIN            .                                       : Grid System
COUNT              .         KAZAKHSTAN                    : Country
COUNTRY            .         Kazakhstan                    : 
COUNTRY            .         Kazakhstan                    : 
EREF               .m        140                           : 
GRP                .                                       : Group name
ISS                .                                       : Well surveys
KB                 .         139.7                         : KB Elevation
ORIGINALWELLNAME   .         WELL                          : 
PROV               .                                       : Province
RWS                .         -999                          : Def_Rw
TIME               .                                       : LOG TIME
UWI                .         1_308                         : Unique Well Identifier (UWI)
WST                .         -999                          : Def_Rwt
X                  .km       466307.31                     : 
XCOORD             .                                       : X or East-West Coordinate
Y                  .km       5308229.38                    : 
YCOORD             .                                       : Y or North-South Coordinate
~Parameter Information Block
#_______________________________________________________________________________
#
#PARAMETER_NAME    .UNIT     VALUE                         : DESCRIPTION
#_______________________________________________________________________________
SET                .         Las                           : 
BS                 .MM       215.9                         : Bit Size
TLFamily_DEPT      .         Measured Depth                : 
TLFamily_PHI_FINAL .         Porosity                      : 
TLFamily_SW_AR     .         Water Saturation              : 
TLFamily_VSH_FINAL .         Shale Volume                  : 
~Curve Information
#_______________________________________________________________________________
#
#LOGNAME           .UNIT     LOG_ID                        : DESCRIPTION
#_______________________________________________________________________________
DEPT               .M                                      : Depth Curve {F}
PHI_FINAL          .m3/m3                                  : Porosity {F}
SW_AR              .m3/m3                                  :  {F}
VSH_FINAL          .unitless                               : Vshale {F}
~Ascii
# ...
416.2      0.05444556 1          0.8643181 
416.3      0.09596539 1          0.7216877 
416.4      0.09272903 1          0.7374511 
416.5      0.08455106 1          0.7644999 
416.6      0.0666102  1          0.8155642 
416.7      0.04589195 1          0.8635082 
416.8      0.04306486 1          0.8510898 
416.9      0.06843825 1          0.7695125 
417        0.1306423  1          0.6271746 
417.1      0.1520622  1          0.5484755 
417.2      0.1714873  1          0.5483856 
417.3      0.1324588  1          0.5996374 
417.4      0.1418772  1          0.5564843 
417.5      0.1336425  1          0.5950038 
417.6      0.1121637  1          0.6500239 
417.7      0.08773694 1          0.7357371 
417.8      0.08574287 1          0.688997  
417.9      0.08508144 1          0.6592944 
418        0.07231105 1          0.6738234 
418.1      0.07988502 1          0.740557  
418.2      0.04235736 1          0.8797097 
418.3      0.00754483 1          1         
418.4      0.009127873 1          1         
418.5      0.008621519 1          1         
418.6      0.05040495 1          0.8728055 
418.7      0.1316714  1          0.6779393 
418.8      0.1381024  1          0.6827893 
418.9      0.07693437 1          0.777808  
419        0.03774799 1          0.8536825 
419.1      0.03727724 1          0.8060147 
419.2      0.07384492 1          0.7284704 
419.3      0.08259647 1          0.7230786 
419.4      0.08362526 1          0.7550344 
419.5      0.04613736 1          0.8468181 
419.6      0.01726592 1          0.9287007 
419.7      0.004254534 1          1         
419.8      0.02234872 1          0.9283133 
419.9      0.01087204 1          0.9752688 
420        0.0176728  1          0.968221  
420.1      0.01677614 1          0.9957323 
420.2      0.0784349  1          0.8160069 
420.3      0.1098544  1          0.6960515 
420.4      0.1110799  1          0.671015  
420.5      0.0988749  1          0.6857464 
420.6      0.1079135  1          0.6906395 
420.7      0.1191687  1          0.6706654 
420.8      0.172441   1          0.5961193 
420.9      0.1575072  1          0.6655514 
421        0.09341192 1          0.7804724 
421.1      0.02661943 1          0.959371  
421.2      0.01994511 1          1         
421.3      0.02377586 1          1         
421.4      0.01584086 1          1         
421.5      0.02834942 1          1         
421.6      0.03125299 1          1         
421.7      0.02321797 1          1         
421.8      0.0239772  1          1         
421.9      0.01857719 1          1         
422        0.04219391 1          0.9442806 
422.1      0.07861064 1          0.8487694 
422.2      0.02832603 1          1         
422.3      0.03237564 1          1         
422.4      0.03766075 1          1         
422.5      0.04822021 1          1         
422.6      0.0416265  1          1         
422.7      0.03611912 1          1         
422.8      0.03362556 1          1         
422.9      0.02755893 1          1         
423        0.01531473 1          1         
423.1      0.004864968 1          1         
423.2      0.01139694 1          1         
423.3      0.05067848 1          0.9027987 
423.4      0.009540297 1          1         
423.5      0.01101327 1          1         
423.6      0.01074516 1          1         
423.7      0.009773232 1          1         
423.8      0.01323085 1          1         
423.9      0.01476001 1          1         
424        0.05574802 1          0.8278857 
424.1      0.06205076 1          0.7595493 
424.2      0.05519417 1          0.770409  
424.3      0.1058881  1          0.7063968 
424.4      0.147915   1          0.5969534 
424.5      0.1620634  1          0.5459481 
424.6      0.1168813  1          0.6191246 
424.7      0.05047232 1          0.7808413 
424.8      0.008732297 1          0.9002455 
424.9      0.002880107 1          0.9727209 
425        0.005400145 1          0.9793965 
425.1      0.02169058 1          0.9190281 
425.2      0.01173504 1          0.9518449 
425.3      0.001850033 1          1         
425.4      0.002434158 1          1         
425.5      0.002604012 1          1         
425.6      0.002158169 1          1         
425.7      0.001004442 1          1         
425.8      0.0009444496 1          1         
425.9      0          1          1         
426        0          1          1         
426.1      0.0001248461 1          1         
426.2      0          1          1         
426.3      0          1          1         
426.4      0          1          1         
426.5      0.001489902 1          1         
426.6      0.0006111206 1          1         
426.7      0.0005100957 1          1         
426.8      0.003641421 1          1         
426.9      0.003348956 1          1         
427        0.003941317 1          0.9756242 
427.1      0.002011319 1          0.9618256 
427.2      0.006677648 1          0.9616411 
427.3      0.004631315 1          1         
427.4      0.003116155 1          1         
427.5      0.002651527 1          1         
427.6      0.0001666786 1          1         
427.7      0          1          1         
427.8      0.03107112 1          0.8579404 
427.9      0.02217609 1          0.8638853 
428        0.03698931 1          0.8276924 
428.1      0          1          0.9667491 
428.2      0          1          1         
428.3      0.00286365 1          1         
428.4      0.0005202086 1          1         
428.5      0          1          0.993488  
428.6      0          1          1         
428.7      0          1          1         
428.8      0.001588662 1          1         
428.9      0.03531054 1          0.9060615 
429        0.1174738  1          0.7107908 
429.1      0.03974257 1          0.8498261 
429.2      0.007010445 1          1         
429.3      0.0194012  1          1         
429.4      0.02203997 1          1         
429.5      0.02383975 1          0.9915689 
429.6      0.03596538 1          0.9505306 
429.7      0.01312472 1          0.9911856 
429.8      0.008578337 1          0.9435163 
429.9      0.005897937 1          0.9838897 
430        0.005566561 1          1         
430.1      0.005951562 1          1         
430.2      0.00853208 1          1         
430.3      0.006199372 1          1         
430.4      0.01851245 1          0.9292826 
430.5      0.01979443 1          0.9161221 
430.6      0.01575921 1          0.9621257 
430.7      0.007027313 1          0.9687085 
430.8      0.03841955 1          0.9156034 
430.9      0.06872323 1          0.8410211 
431        0.0974384  1          0.7556235 
431.1      0.1301792  1          0.6880155 
431.2      0.1252241  1          0.6731161 
431.3      0.07295705 1          0.8285914 
431.4      0.02378229 1          0.9879042 
431.5      0.01202745 1          0.9877483 
431.6      0.01722932 1          0.9535778 
431.7      0.05710429 1          0.8578146 
431.8      0.08447998 1          0.8045759 
431.9      0.1556708  1          0.6297318 
432        0.1722581  1          0.5474213 
432.1      0.1676231  1          0.5721996 
432.2      0.1119645  1          0.6966934 
432.3      0.0566368  1          0.8876881 
432.4      0.02598401 1          1         
432.5      0.03930367 1          1         
432.6      0.03768973 1          1         
432.7      0.02291318 1          1         
432.8      0.006105132 1          1         
432.9      0          1          1         
433        0.0000847  1          0.9918031 
433.1      0.01777222 1          0.8677711 
433.2      0.03218403 1          0.8374706 
433.3      0.003570978 1          1         
433.4      0.005202367 1          1         
433.5      0.006980456 1          1         
433.6      0.05286757 1          0.8731062 
433.7      0.05850829 1          0.813307  
433.8      0.05669514 1          0.8605782 
433.9      0.01282802 1          0.9627922 
434        0.003479465 1          1         
434.1      0.03493877 1          0.8972229 
434.2      0.03119606 1          0.9622406 
