~Version
 VERS              .         3.0                           : CWLS LOG ASCII STANDARD - VERSION 3.0
 WRAP              .         NO                            : ONE LINE PER DEPTH STEP
 DLM               .         SPACE                         : DELIMITING CHARACTER(SPACE TAB OR COMMA)
~Well Information
#_______________________________________________________________________________
#
#PARAMETER_NAME    .UNIT     VALUE                         : DESCRIPTION
#_______________________________________________________________________________
STRT               .M        0                             : First reference value
STOP               .M        840                           : Last reference value
STEP               .M        0.1                           : Step increment
NULL               .         -9999                         : Missing value
COMP               .         ICPetroleum                   : Company
WELL               .         308                           : Well name
FLD                .         Karatobe                      : Field
LOC                .                                       : Location
SRVC               .         SERVICE COMPANY               : Service Company
CTRY               .         KZ                            : Country
DATE               .         10/2/2022                     : Service Date
LATI               .         0                             : Latitude
LONG               .         0                             : Longitude
GDAT               .         WGS 84                        : Geodetic Datum
CNTY               .         COUNTY                        : Kazakhstan
COORDIN            .                                       : Grid System
COUNT              .         KAZAKHSTAN                    : Country
COUNTRY            .         Kazakhstan                    : 
COUNTRY            .         Kazakhstan                    : 
EREF               .m        140                           : 
GRP                .                                       : Group name
ISS                .                                       : Well surveys
KB                 .         139.7                         : KB Elevation
ORIGINALWELLNAME   .         WELL                          : 
PROV               .                                       : Province
RWS                .         -999                          : Def_Rw
TIME               .                                       : LOG TIME
UWI                .         1_308                         : Unique Well Identifier (UWI)
WST                .         -999                          : Def_Rwt
X                  .km       466307.31                     : 
XCOORD             .                                       : X or East-West Coordinate
Y                  .km       5308229.38                    : 
YCOORD             .                                       : Y or North-South Coordinate
~Parameter Information Block
#_______________________________________________________________________________
#
#PARAMETER_NAME    .UNIT     VALUE                         : DESCRIPTION
#_______________________________________________________________________________
SET                .         Las                           : 
BS                 .MM       215.9                         : Bit Size
TLFamily_DEPT      .         Measured Depth                : 
TLFamily_PHI_FINAL .         Porosity                      : 
TLFamily_SW_AR     .         Water Saturation              : 
TLFamily_VSH_FINAL .         Shale Volume                  : 
~Curve Information
#_______________________________________________________________________________
#
#LOGNAME           .UNIT     LOG_ID                        : DESCRIPTION
#_______________________________________________________________________________
DEPT               .M                                      : Depth Curve {F}
PHI_FINAL          .m3/m3                                  : Porosity {F}
SW_AR              .m3/m3                                  :  {F}
VSH_FINAL          .unitless                               : Vshale {F}
~Ascii
# ...
616.3      0.06313115 1          0.7310957 
616.4      0.03359096 1          0.7788677 
616.5      0.01955773 1          0.8720754 
616.6      0.01275594 1          0.9052485 
616.7      0.01473929 1          0.8609632 
616.8      0.03491282 1          0.783283  
616.9      0.02138839 1          0.7782219 
617        0.02170371 1          0.7830079 
617.1      0.01203157 1          0.8604248 
617.2      0.01203924 1          0.8442261 
617.3      0.02641053 1          0.8128722 
617.4      0.05407727 1          0.7825326 
617.5      0.03169029 1          0.7873653 
617.6      0.004913556 1          0.8815074 
617.7      0.007977598 1          0.8435375 
617.8      0.03179543 1          0.7722569 
617.9      0.07824904 1          0.6668285 
618        0.1161933  1          0.585805  
618.1      0.1144136  1          0.6050878 
618.2      0.1304189  1          0.559435  
618.3      0.1167181  1          0.6128095 
618.4      0.08108082 1          0.7013848 
618.5      0.06487901 1          0.7860827 
618.6      0.08529773 1          0.7615048 
618.7      0.1319972  1          0.6407973 
618.8      0.1745643  1          0.5233507 
618.9      0.1851501  1          0.4547634 
619        0.1790918  1          0.4395891 
619.1      0.170888   1          0.4455282 
619.2      0.1819052  1          0.4276801 
619.3      0.2281357  0.9152651  0.3211283 
619.4      0.2656702  0.6382157  0.2071944 
619.5      0.3348764  0.4327258  0.1364326 
619.6      0.343547   0.4046693  0.1094255 
619.7      0.3333591  0.4513808  0.1195528 
619.8      0.3041834  0.5662991  0.1587074 
619.9      0.2686876  0.7093799  0.2330406 
620        0.2140532  0.9467396  0.3185218 
620.1      0.1833296  1          0.396157  
620.2      0.1648602  1          0.4271098 
620.3      0.1598378  1          0.4329037 
620.4      0.1668712  1          0.4070396 
620.5      0.196993   1          0.3541887 
620.6      0.2177704  1          0.346718  
620.7      0.1844348  1          0.3540869 
620.8      0.1490239  1          0.4012723 
620.9      0.154606   1          0.4296256 
621        0.1666661  1          0.4627369 
621.1      0.1729326  1          0.4564883 
621.2      0.181318   1          0.4094107 
621.3      0.1605372  1          0.4235744 
621.4      0.1384263  1          0.5248998 
621.5      0.1160254  1          0.6138676 
621.6      0.103363   1          0.63799   
621.7      0.09412775 1          0.642034  
621.8      0.08229332 1          0.6932347 
621.9      0.04355347 1          0.7386291 
622        0          1          0.9254276 
622.1      0          1          1         
622.2      0.0003990026 1          1         
622.3      0          1          1         
622.4      0          1          1         
622.5      0          1          1         
622.6      0          1          1         
622.7      0.001403524 1          0.9956781 
622.8      0.005486256 1          0.9533666 
622.9      0          1          0.9650728 
623        0.00230973 1          0.9530748 
623.1      0.01201812 1          0.8955603 
623.2      0.04931827 1          0.7951099 
623.3      0.06364023 1          0.7417173 
623.4      0.09592634 1          0.6321881 
623.5      0.123756   1          0.5588349 
623.6      0.1633772  1          0.5129712 
623.7      0.14268    1          0.5550147 
623.8      0.1187146  1          0.6078363 
623.9      0.09764307 1          0.6523632 
624        0.07978023 1          0.6952906 
624.1      0.06360563 1          0.7314447 
624.2      0.08150776 1          0.6478982 
624.3      0.1375207  1          0.5193148 
624.4      0.1826696  1          0.4104787 
624.5      0.2040788  0.8895233  0.3966029 
624.6      0.2306659  0.7611519  0.3911271 
624.7      0.2241313  0.7811811  0.3937805 
624.8      0.2346251  0.77863    0.3751241 
624.9      0.2206264  0.9035613  0.3936918 
625        0.203003   1          0.4390102 
625.1      0.1472715  1          0.5539171 
625.2      0.09371328 1          0.6224436 
625.3      0.05736643 1          0.6764577 
625.4      0.06744092 1          0.6938419 
625.5      0.06356098 1          0.6805797 
625.6      0.05923376 1          0.7069637 
625.7      0.06681141 1          0.6547774 
625.8      0.07271109 1          0.6933945 
625.9      0.08416039 1          0.6715395 
626        0.0919734  1          0.6887831 
626.1      0.1012632  1          0.641919  
626.2      0.08332101 1          0.617528  
626.3      0.1013826  1          0.5602136 
626.4      0.1248824  1          0.4975976 
626.5      0.1350511  1          0.4206936 
626.6      0.1249574  1          0.40099   
626.7      0.1002972  1          0.4716212 
626.8      0.1400884  1          0.4907817 
626.9      0.1529818  1          0.471461  
627        0.1727222  1          0.4467862 
627.1      0.1381447  1          0.5206909 
627.2      0.1454567  1          0.5036864 
627.3      0.1923763  1          0.3898038 
627.4      0.2518856  0.7369291  0.2513129 
627.5      0.2751188  0.6077731  0.1759444 
627.6      0.3031006  0.4772716  0.1429317 
627.7      0.3149067  0.3677269  0.1256577 
627.8      0.3234724  0.3130617  0.1232963 
627.9      0.3462172  0.2846527  0.1042989 
628        0.3460751  0.2965987  0.1032348 
628.1      0.3331605  0.3331122  0.1209338 
628.2      0.3369199  0.3424195  0.1255989 
628.3      0.3271931  0.3608134  0.1303821 
628.4      0.3236425  0.3398512  0.1140693 
628.5      0.311094   0.3005264  0.117442  
628.6      0.3262395  0.2489248  0.1096268 
628.7      0.351565   0.2418919  0.08895525
628.8      0.3549862  0.2732334  0.06877665
628.9      0.3537573  0.3363692  0.05717987
629        0.3442174  0.4304705  0.06535231
629.1      0.320351   0.5785436  0.09793925
629.2      0.2921931  0.7147162  0.1465839 
629.3      0.2780546  0.8343542  0.196968  
629.4      0.2584886  0.9499269  0.2623247 
629.5      0.2056609  1          0.3239791 
629.6      0.1775896  1          0.3832909 
629.7      0.1752573  1          0.4160686 
629.8      0.1901362  1          0.436202  
629.9      0.1922718  1          0.4854524 
630        0.1865872  1          0.4758008 
630.1      0.1908916  1          0.4509485 
630.2      0.1793701  1          0.4539381 
630.3      0.1487765  1          0.4508424 
630.4      0.1198169  1          0.4692451 
630.5      0.1318589  1          0.4507208 
630.6      0.1278122  1          0.4817752 
630.7      0.06697346 1          0.5318072 
630.8      0.0599551  1          0.5317319 
630.9      0.0866397  1          0.4912391 
631        0.09579063 1          0.4097573 
631.1      0.104474   1          0.3593997 
631.2      0.1058475  1          0.3373791 
631.3      0.1003452  1          0.3209969 
631.4      0.07252973 1          0.309678  
631.5      0.08235925 1          0.3008455 
631.6      0.08571786 1          0.279677  
631.7      0.1098005  1          0.2408115 
631.8      0.1352707  1          0.2028673 
631.9      0.1498696  1          0.231738  
632        0.1955702  1          0.2878302 
632.1      0.1970941  1          0.374245  
632.2      0.1865741  1          0.4008137 
632.3      0.1676913  1          0.4680173 
632.4      0.1556229  1          0.4870039 
632.5      0.1271713  1          0.5167233 
632.6      0.1163301  1          0.5409033 
632.7      0.1103058  1          0.5199815 
632.8      0.1121356  1          0.4554189 
632.9      0.1072509  1          0.3738386 
633        0.1271177  1          0.3895659 
633.1      0.160114   1          0.4372542 
633.2      0.16555    1          0.446086  
633.3      0.179767   1          0.4113163 
633.4      0.1878397  1          0.3762044 
633.5      0.1879741  1          0.360834  
633.6      0.1842822  1          0.3866282 
633.7      0.193898   1          0.3582403 
633.8      0.182561   1          0.3532451 
633.9      0.1867979  1          0.3043429 
634        0.1734205  1          0.2871855 
634.1      0.1875434  1          0.262848  
634.2      0.2050176  0.8771314  0.2494068 
634.3      0.1682681  0.8451021  0.2437883 
634.4      0.1228678  0.8990375  0.2188857 
