~Version
 VERS              .         3.0                           : CWLS LOG ASCII STANDARD - VERSION 3.0
 WRAP              .         NO                            : ONE LINE PER DEPTH STEP
 DLM               .         SPACE                         : DELIMITING CHARACTER(SPACE TAB OR COMMA)
~Well Information
#_______________________________________________________________________________
#
#PARAMETER_NAME    .UNIT     VALUE                         : DESCRIPTION
#_______________________________________________________________________________
STRT               .M        0                             : First reference value
STOP               .M        840                           : Last reference value
STEP               .M        0.1                           : Step increment
NULL               .         -9999                         : Missing value
COMP               .         ICPetroleum                   : Company
WELL               .         308                           : Well name
FLD                .         Karatobe                      : Field
LOC                .                                       : Location
SRVC               .         SERVICE COMPANY               : Service Company
CTRY               .         KZ                            : Country
DATE               .         10/2/2022                     : Service Date
LATI               .         0                             : Latitude
LONG               .         0                             : Longitude
GDAT               .         WGS 84                        : Geodetic Datum
CNTY               .         COUNTY                        : Kazakhstan
COORDIN            .                                       : Grid System
COUNT              .         KAZAKHSTAN                    : Country
COUNTRY            .         Kazakhstan                    : 
COUNTRY            .         Kazakhstan                    : 
EREF               .m        140                           : 
GRP                .                                       : Group name
ISS                .                                       : Well surveys
KB                 .         139.7                         : KB Elevation
ORIGINALWELLNAME   .         WELL                          : 
PROV               .                                       : Province
RWS                .         -999                          : Def_Rw
TIME               .                                       : LOG TIME
UWI                .         1_308                         : Unique Well Identifier (UWI)
WST                .         -999                          : Def_Rwt
X                  .km       466307.31                     : 
XCOORD             .                                       : X or East-West Coordinate
Y                  .km       5308229.38                    : 
YCOORD             .                                       : Y or North-South Coordinate
~Parameter Information Block
#_______________________________________________________________________________
#
#PARAMETER_NAME    .UNIT     VALUE                         : DESCRIPTION
#_______________________________________________________________________________
SET                .         Las                           : 
BS                 .MM       215.9                         : Bit Size
TLFamily_DEPT      .         Measured Depth                : 
TLFamily_PHI_FINAL .         Porosity                      : 
TLFamily_SW_AR     .         Water Saturation              : 
TLFamily_VSH_FINAL .         Shale Volume                  : 
~Curve Information
#_______________________________________________________________________________
#
#LOGNAME           .UNIT     LOG_ID                        : DESCRIPTION
#_______________________________________________________________________________
DEPT               .M                                      : Depth Curve {F}
PHI_FINAL          .m3/m3                                  : Porosity {F}
SW_AR              .m3/m3                                  :  {F}
VSH_FINAL          .unitless                               : Vshale {F}
~Ascii
# ...
343.4      0.1790287  1          0.4640632 
343.5      0.1588884  1          0.4715564 
343.6      0.1639457  1          0.4714785 
343.7      0.1365006  1          0.4600896 
343.8      0.1359031  1          0.4068397 
343.9      0.1257256  1          0.3618634 
344        0.1052053  1          0.3587631 
344.1      0.1415661  1          0.3901152 
344.2      0.1480148  1          0.4486438 
344.3      0.1291989  1          0.5022195 
344.4      0.1337699  1          0.5351814 
344.5      0.1493162  1          0.5479546 
344.6      0.1478482  1          0.5789227 
344.7      0.1444484  1          0.6161898 
344.8      0.1159767  1          0.6919088 
344.9      0.1086929  1          0.7411591 
345        0.0834702  1          0.7697922 
345.1      0.06142907 1          0.8492247 
345.2      0.09358367 1          0.7992607 
345.3      0.1037765  1          0.746243  
345.4      0.1429375  1          0.6701803 
345.5      0.1547411  1          0.6396827 
345.6      0.150322   1          0.6151986 
345.7      0.1531815  1          0.5961915 
345.8      0.1241726  1          0.664543  
345.9      0.06356899 1          0.7921584 
346        0.05597398 1          0.9002255 
346.1      0.05902326 1          0.886653  
346.2      0.05020419 1          0.8864769 
346.3      0.07414939 1          0.8097277 
346.4      0.04402458 1          0.8599036 
346.5      0.03795669 1          0.8793274 
346.6      0.01695264 1          1         
346.7      0.01398093 1          1         
346.8      0.01488121 1          1         
346.9      0.01680166 1          1         
347        0.03483668 1          0.9396347 
347.1      0.08016666 1          0.8651958 
347.2      0.08864465 1          0.8144482 
347.3      0.1007057  1          0.7900291 
347.4      0.1016231  1          0.7547182 
347.5      0.1239485  1          0.6624829 
347.6      0.1158926  1          0.6572728 
347.7      0.1183129  1          0.6622413 
347.8      0.1126729  1          0.7149513 
347.9      0.1005278  1          0.6879569 
348        0.08530182 1          0.7256868 
348.1      0.07928368 1          0.7652578 
348.2      0.09305763 1          0.7478658 
348.3      0.135982   1          0.6218045 
348.4      0.1414889  1          0.5616994 
348.5      0.1004997  1          0.5660305 
348.6      0.07589399 1          0.6071732 
348.7      0.07506339 1          0.6165783 
348.8      0.0738031  1          0.6116967 
348.9      0.08758359 1          0.5227457 
349        0.1532847  1          0.4239096 
349.1      0.1764028  1          0.4523646 
349.2      0.1626829  1          0.4902039 
349.3      0.1324154  1          0.6304142 
349.4      0.1359352  1          0.6158088 
349.5      0.1196523  1          0.6703106 
349.6      0.1498656  1          0.5693963 
349.7      0.180128   1          0.5261681 
349.8      0.2047125  0.9053639  0.4780817 
349.9      0.2068214  0.9031574  0.4818529 
350        0.2297075  0.8168085  0.4232339 
350.1      0.2228667  0.8415266  0.4197168 
350.2      0.2125526  0.8716246  0.437133  
350.3      0.2059443  0.8894114  0.485407  
350.4      0.1960498  0.9183725  0.5131872 
350.5      0.1788672  0.9883527  0.5640661 
350.6      0.1814498  0.9470599  0.5595605 
350.7      0.2061025  0.833443   0.504836  
350.8      0.2214951  0.778549   0.4367112 
350.9      0.2151624  0.8198667  0.4547054 
351        0.1810869  1          0.5418563 
351.1      0.1385191  1          0.6381716 
351.2      0.08599892 1          0.7900931 
351.3      0.04281808 1          0.884153  
351.4      0.04306662 1          0.8515362 
351.5      0.09393918 1          0.6992844 
351.6      0.1596642  1          0.5674184 
351.7      0.1972464  1          0.4727744 
351.8      0.2015707  0.9688616  0.4689144 
351.9      0.2010529  0.9344006  0.4880065 
352        0.1809235  1          0.5324649 
352.1      0.1809129  1          0.5281863 
352.2      0.1906127  0.9886995  0.4995756 
352.3      0.2074944  0.9347415  0.4427726 
352.4      0.2187619  0.8966829  0.3947986 
352.5      0.2424189  0.8156404  0.360177  
352.6      0.2460385  0.8179768  0.3755072 
352.7      0.2417357  0.8727484  0.3881385 
352.8      0.2211242  1          0.4353104 
352.9      0.2187396  1          0.4317158 
353        0.214457   1          0.4387187 
353.1      0.2145965  1          0.4315776 
353.2      0.2133434  1          0.4385777 
353.3      0.2163958  1          0.4279418 
353.4      0.2305465  0.9462053  0.3909398 
353.5      0.2357474  0.8958528  0.4073206 
353.6      0.2161367  0.959789   0.4418637 
353.7      0.2123009  0.9868019  0.463714  
353.8      0.2056479  1          0.4636382 
353.9      0.2202732  0.9587194  0.4206166 
354        0.2341681  0.8929458  0.3905758 
354.1      0.2428877  0.8584478  0.3474046 
354.2      0.2606634  0.8126798  0.3055163 
354.3      0.2551959  0.8371474  0.3216921 
354.4      0.2413198  0.9138323  0.3501767 
354.5      0.2260744  0.9813721  0.3713071 
354.6      0.2446149  0.9032692  0.3743571 
354.7      0.2503202  0.8711675  0.3742998 
354.8      0.2440913  0.9018494  0.3900914 
354.9      0.2648694  0.8357809  0.3499286 
355        0.2427527  0.9152765  0.3835685 
355.1      0.2252817  1          0.4407984 
355.2      0.2189911  1          0.4892295 
355.3      0.2393369  0.9765244  0.4371015 
355.4      0.2489349  0.9601201  0.39296   
355.5      0.2424571  0.9949532  0.3928989 
355.6      0.2372944  1          0.3832138 
355.7      0.2397162  0.9808785  0.3495088 
355.8      0.2519678  0.946921   0.3465214 
355.9      0.2633512  0.9278023  0.3406604 
356        0.2442852  1          0.376675  
356.1      0.2323831  1          0.4056616 
356.2      0.2224421  1          0.4259694 
356.3      0.2134216  1          0.4293778 
356.4      0.2340259  1          0.3733274 
356.5      0.2508061  0.9985361  0.3403565 
356.6      0.261412   0.9796773  0.3233681 
356.7      0.2541641  1          0.3489854 
356.8      0.2425009  1          0.3762136 
356.9      0.2356907  1          0.376156  
357        0.242385   1          0.3488287 
357.1      0.2385224  1          0.3576798 
357.2      0.2392759  1          0.3667109 
357.3      0.2428966  1          0.342839  
357.4      0.2510284  1          0.317504  
357.5      0.2657743  1          0.28357   
357.6      0.2648624  1          0.2936379 
357.7      0.2534451  1          0.3066215 
357.8      0.2383626  1          0.3484113 
357.9      0.2377416  1          0.3755807 
358        0.2197973  1          0.4178956 
358.1      0.2244816  1          0.3945537 
358.2      0.2496675  1          0.3482029 
358.3      0.2605343  1          0.3337435 
358.4      0.2355247  1          0.366028  
358.5      0.2252684  1          0.4384004 
358.6      0.2398559  1          0.4243492 
358.7      0.2645774  1          0.3628367 
358.8      0.2791063  0.9802136  0.3334973 
358.9      0.2817665  0.9646275  0.3168121 
359        0.2577823  1          0.3749497 
359.1      0.2378183  1          0.424013  
359.2      0.2090808  1          0.5096732 
359.3      0.1868241  1          0.5176932 
359.4      0.1845874  1          0.4858423 
359.5      0.2145004  1          0.3872668 
359.6      0.220779   1          0.3359394 
359.7      0.2340608  1          0.333055  
359.8      0.2229173  1          0.3562283 
359.9      0.2283285  1          0.3713396 
360        0.2281621  1          0.3901699 
360.1      0.2155155  1          0.4165139 
360.2      0.2213663  1          0.4232751 
360.3      0.2219633  1          0.4661646 
360.4      0.1980938  1          0.4811996 
360.5      0.2143778  1          0.5045651 
360.6      0.2077459  1          0.4772269 
360.7      0.2122094  1          0.4848023 
360.8      0.2152323  1          0.4583885 
360.9      0.2206501  1          0.4694449 
361        0.2479676  1          0.45824   
361.1      0.2612957  1          0.4091365 
361.2      0.2906762  0.9355425  0.3799311 
361.3      0.2973686  0.9123877  0.3408074 
361.4      0.3012777  0.9054276  0.3465586 
361.5      0.321114   0.8494194  0.2746309 
