~Version
 VERS              .         3.0                           : CWLS LOG ASCII STANDARD - VERSION 3.0
 WRAP              .         NO                            : ONE LINE PER DEPTH STEP
 DLM               .         SPACE                         : DELIMITING CHARACTER(SPACE TAB OR COMMA)
~Well Information
#_______________________________________________________________________________
#
#PARAMETER_NAME    .UNIT     VALUE                         : DESCRIPTION
#_______________________________________________________________________________
STRT               .M        0                             : First reference value
STOP               .M        840                           : Last reference value
STEP               .M        0.1                           : Step increment
NULL               .         -9999                         : Missing value
COMP               .         ICPetroleum                   : Company
WELL               .         308                           : Well name
FLD                .         Karatobe                      : Field
LOC                .                                       : Location
SRVC               .         SERVICE COMPANY               : Service Company
CTRY               .         KZ                            : Country
DATE               .         10/2/2022                     : Service Date
LATI               .         0                             : Latitude
LONG               .         0                             : Longitude
GDAT               .         WGS 84                        : Geodetic Datum
CNTY               .         COUNTY                        : Kazakhstan
COORDIN            .                                       : Grid System
COUNT              .         KAZAKHSTAN                    : Country
COUNTRY            .         Kazakhstan                    : 
COUNTRY            .         Kazakhstan                    : 
EREF               .m        140                           : 
GRP                .                                       : Group name
ISS                .                                       : Well surveys
KB                 .         139.7                         : KB Elevation
ORIGINALWELLNAME   .         WELL                          : 
PROV               .                                       : Province
RWS                .         -999                          : Def_Rw
TIME               .                                       : LOG TIME
UWI                .         1_308                         : Unique Well Identifier (UWI)
WST                .         -999                          : Def_Rwt
X                  .km       466307.31                     : 
XCOORD             .                                       : X or East-West Coordinate
Y                  .km       5308229.38                    : 
YCOORD             .                                       : Y or North-South Coordinate
~Parameter Information Block
#_______________________________________________________________________________
#
#PARAMETER_NAME    .UNIT     VALUE                         : DESCRIPTION
#_______________________________________________________________________________
SET                .         Las                           : 
BS                 .MM       215.9                         : Bit Size
TLFamily_DEPT      .         Measured Depth                : 
TLFamily_PHI_FINAL .         Porosity                      : 
TLFamily_SW_AR     .         Water Saturation              : 
TLFamily_VSH_FINAL .         Shale Volume                  : 
~Curve Information
#_______________________________________________________________________________
#
#LOGNAME           .UNIT     LOG_ID                        : DESCRIPTION
#_______________________________________________________________________________
DEPT               .M                                      : Depth Curve {F}
PHI_FINAL          .m3/m3                                  : Porosity {F}
SW_AR              .m3/m3                                  :  {F}
VSH_FINAL          .unitless                               : Vshale {F}
~Ascii
# ...
379.8      0.3390868  0.8485236  0.2631375 
379.9      0.3290278  0.8750849  0.2631018 
380        0.3314159  0.8731963  0.2630662 
380.1      0.3266367  0.8904733  0.2607231 
380.2      0.3332105  0.8779396  0.2427769 
380.3      0.3403013  0.8737726  0.2019426 
380.4      0.3409622  0.8978939  0.1852797 
380.5      0.3493542  0.8980585  0.1816923 
380.6      0.3480102  0.9076133  0.2135405 
380.7      0.3284343  0.962055   0.2195224 
380.8      0.3591126  0.8779996  0.2627814 
380.9      0.3033561  1          0.348097  
381        0.2168253  1          0.5232226 
381.1      0.1078857  1          0.7637396 
381.2      0.01229453 1          1         
381.3      0.01894951 1          1         
381.4      0.04038606 1          0.9039946 
381.5      0.08782911 1          0.7688478 
381.6      0.05576495 1          0.8585154 
381.7      0.01870493 1          0.9437909 
381.8      0.01471915 1          1         
381.9      0.01463704 1          0.903082  
382        0.04030606 1          0.8330447 
382.1      0.08731309 1          0.7511047 
382.2      0.06712238 1          0.826631  
382.3      0.09881391 1          0.7127088 
382.4      0.1515247  1          0.5301659 
382.5      0.1844258  1          0.4221047 
382.6      0.1950083  1          0.4322599 
382.7      0.1724516  1          0.4941298 
382.8      0.1745266  1          0.475101  
382.9      0.1764393  1          0.4901292 
383        0.1349394  1          0.5986829 
383.1      0.04999111 1          0.8313051 
383.2      0.002833326 1          1         
383.3      0.005156561 1          1         
383.4      0.002883851 1          1         
383.5      0.03626554 1          0.8616792 
383.6      0.03792716 1          0.7946597 
383.7      0.07052617 1          0.7056455 
383.8      0.05928899 1          0.7161115 
383.9      0.06366257 1          0.7001472 
384        0.07211692 1          0.6692947 
384.1      0.08436883 1          0.6159537 
384.2      0.09304631 1          0.5577954 
384.3      0.1165261  1          0.5083956 
384.4      0.1446124  1          0.459218  
384.5      0.1613116  1          0.4309765 
384.6      0.1664006  1          0.470026  
384.7      0.1831906  0.9511583  0.4736504 
384.8      0.1802934  0.9667742  0.5239732 
384.9      0.1746587  1          0.5320336 
385        0.08424755 1          0.7809821 
385.1      0.0140657  1          1         
385.2      0.01167786 1          1         
385.3      0.0084461  1          1         
385.4      0.01076398 1          1         
385.5      0.01082075 1          1         
385.6      0.003245944 1          1         
385.7      0.0121783  1          1         
385.8      0.005395461 1          1         
385.9      0.01674392 1          0.9092302 
386        0.04709676 1          0.7347623 
386.1      0.08360936 1          0.6000303 
386.2      0.09813019 1          0.5516754 
386.3      0.1087399  1          0.5643907 
386.4      0.1114948  1          0.5951881 
386.5      0.1300893  1          0.5950859 
386.6      0.1449024  1          0.5513047 
386.7      0.1474945  1          0.5064178 
386.8      0.1494993  1          0.5303763 
386.9      0.108034   1          0.5946772 
387        0.1332652  1          0.5425496 
387.1      0.1590924  1          0.4792654 
387.2      0.1899565  1          0.3867076 
387.3      0.2140278  1          0.3505962 
387.4      0.2170247  1          0.3476687 
387.5      0.2461692  1          0.359235  
387.6      0.2426478  1          0.3802672 
387.7      0.2476526  1          0.353284  
387.8      0.2337938  1          0.3770814 
387.9      0.2569043  1          0.3502878 
388        0.2446496  1          0.3739186 
388.1      0.198932   1          0.4354147 
388.2      0.1697813  1          0.5456312 
388.3      0.1218873  1          0.6445826 
388.4      0.107961   1          0.6396474 
388.5      0.1029373  1          0.6739658 
388.6      0.1191487  1          0.6490953 
388.7      0.115196   1          0.6110607 
388.8      0.1535497  1          0.5620126 
388.9      0.1368644  1          0.544993  
389        0.1183603  1          0.5575504 
389.1      0.1174689  1          0.5660282 
389.2      0.07937222 1          0.5923362 
389.3      0.06134774 1          0.5967378 
389.4      0.06699993 1          0.6530579 
389.5      0.07278773 1          0.6384162 
389.6      0.1213952  1          0.6240671 
389.7      0.1486198  1          0.5918294 
389.8      0.1435057  1          0.5917282 
389.9      0.1222538  1          0.6476131 
390        0.1103784  1          0.6572695 
390.1      0.1020485  1          0.6620866 
390.2      0.1216999  1          0.6234168 
390.3      0.1199437  1          0.6233085 
390.4      0.101927   1          0.7234899 
390.5      0.05475344 1          0.8197585 
390.6      0.04699513 1          0.8880015 
390.7      0.07773582 1          0.7614751 
390.8      0.05973505 1          0.7392065 
390.9      0.06980973 1          0.666108  
391        0.03322082 1          0.6659901 
391.1      0.0541713  1          0.5948993 
391.2      0.07240447 1          0.5683348 
391.3      0.1079286  1          0.5386749 
391.4      0.07611901 1          0.6458856 
391.5      0.04801625 1          0.7659699 
391.6      0.02224047 1          0.9256642 
391.7      0.07043209 1          0.8060351 
391.8      0.1257413  1          0.6600766 
391.9      0.1553582  1          0.5548416 
392        0.145599   1          0.5421823 
392.1      0.1356625  1          0.5588995 
392.2      0.1285506  1          0.6450045 
392.3      0.1235761  1          0.6644602 
392.4      0.1587601  1          0.5936002 
392.5      0.2083803  0.7100409  0.4569264 
392.6      0.2443151  0.6190966  0.3774292 
392.7      0.2445333  0.7176434  0.3992434 
392.8      0.2140783  0.9638672  0.4861269 
392.9      0.149225   1          0.6066284 
393        0.1089248  1          0.7095391 
393.1      0.1059619  1          0.7146814 
393.2      0.1151658  1          0.6438761 
393.3      0.1330479  1          0.5837687 
393.4      0.1111902  1          0.638827  
393.5      0.04090168 1          0.8392785 
393.6      0.001924256 1          1         
393.7      0.009469697 1          1         
393.8      0.005706982 1          0.9976686 
393.9      0.006318186 1          1         
394        0.002843444 1          1         
394.1      0.0003686837 1          1         
394.2      0.00362165 1          1         
394.3      0.005212334 1          1         
394.4      0.006370306 1          1         
394.5      0.00791869 1          1         
394.6      0.007855186 1          1         
394.7      0.01558041 1          0.9887689 
394.8      0.0599714  1          0.8556801 
394.9      0.08456399 1          0.7954001 
395        0.06800264 1          0.8128671 
395.1      0.05054048 1          0.8614233 
395.2      0.005025331 1          1         
395.3      0.001589769 1          1         
395.4      0.0002211771 1          1         
395.5      0.002126261 1          1         
395.6      0.001046418 1          1         
395.7      0.05317825 1          0.8059034 
395.8      0.1205185  1          0.5990877 
395.9      0.1670262  1          0.4912387 
396        0.1823731  1          0.4544091 
396.1      0.1717419  1          0.4687437 
396.2      0.135886   1          0.5343174 
396.3      0.1013369  1          0.5764287 
396.4      0.09488869 1          0.56769   
396.5      0.09612552 1          0.5061423 
396.6      0.1089445  1          0.5339645 
396.7      0.04063227 1          0.7153245 
396.8      0.01312583 1          0.7868292 
396.9      0.02887551 1          0.644547  
397        0.07357458 1          0.4431566 
397.1      0.08354495 1          0.4361787 
397.2      0.06855892 1          0.5133982 
397.3      0.06341558 1          0.6158074 
397.4      0.08226094 1          0.6157014 
397.5      0.1121194  1          0.648667  
397.6      0.0915316  1          0.7037022 
397.7      0.08056092 1          0.7299939 
397.8      0.05805502 1          0.7796574 
397.9      0.0432164  1          0.8568248 
