~Version
 VERS              .         3.0                           : CWLS LOG ASCII STANDARD - VERSION 3.0
 WRAP              .         NO                            : ONE LINE PER DEPTH STEP
 DLM               .         SPACE                         : DELIMITING CHARACTER(SPACE TAB OR COMMA)
~Well Information
#_______________________________________________________________________________
#
#PARAMETER_NAME    .UNIT     VALUE                         : DESCRIPTION
#_______________________________________________________________________________
STRT               .M        0                             : First reference value
STOP               .M        840                           : Last reference value
STEP               .M        0.1                           : Step increment
NULL               .         -9999                         : Missing value
COMP               .         ICPetroleum                   : Company
WELL               .         308                           : Well name
FLD                .         Karatobe                      : Field
LOC                .                                       : Location
SRVC               .         SERVICE COMPANY               : Service Company
CTRY               .         KZ                            : Country
DATE               .         10/2/2022                     : Service Date
LATI               .         0                             : Latitude
LONG               .         0                             : Longitude
GDAT               .         WGS 84                        : Geodetic Datum
CNTY               .         COUNTY                        : Kazakhstan
COORDIN            .                                       : Grid System
COUNT              .         KAZAKHSTAN                    : Country
COUNTRY            .         Kazakhstan                    : 
COUNTRY            .         Kazakhstan                    : 
EREF               .m        140                           : 
GRP                .                                       : Group name
ISS                .                                       : Well surveys
KB                 .         139.7                         : KB Elevation
ORIGINALWELLNAME   .         WELL                          : 
PROV               .                                       : Province
RWS                .         -999                          : Def_Rw
TIME               .                                       : LOG TIME
UWI                .         1_308                         : Unique Well Identifier (UWI)
WST                .         -999                          : Def_Rwt
X                  .km       466307.31                     : 
XCOORD             .                                       : X or East-West Coordinate
Y                  .km       5308229.38                    : 
YCOORD             .                                       : Y or North-South Coordinate
~Parameter Information Block
#_______________________________________________________________________________
#
#PARAMETER_NAME    .UNIT     VALUE                         : DESCRIPTION
#_______________________________________________________________________________
SET                .         Las                           : 
BS                 .MM       215.9                         : Bit Size
TLFamily_DEPT      .         Measured Depth                : 
TLFamily_PHI_FINAL .         Porosity                      : 
TLFamily_SW_AR     .         Water Saturation              : 
TLFamily_VSH_FINAL .         Shale Volume                  : 
~Curve Information
#_______________________________________________________________________________
#
#LOGNAME           .UNIT     LOG_ID                        : DESCRIPTION
#_______________________________________________________________________________
DEPT               .M                                      : Depth Curve {F}
PHI_FINAL          .m3/m3                                  : Porosity {F}
SW_AR              .m3/m3                                  :  {F}
VSH_FINAL          .unitless                               : Vshale {F}
~Ascii
# ...
816.4      0.1216263  0.308292   0.006786169
816.5      0.1181772  0.3172896  0.006786169
816.6      0.1124602  0.3334194  0.01332818
816.7      0.1107415  0.338594   0.01664669
816.8      0.1145661  0.3272908  0.01498345
816.9      0.1218745  0.3076641  0.01004145
817        0.126631   0.2961076  0.008409891
817.1      0.1274645  0.2941714  0.009224684
817.2      0.1252828  0.2992941  0.007597056
817.3      0.1221168  0.3070536  0.005170241
817.4      0.1178978  0.3180417  0.006786169
817.5      0.1162704  0.3224933  0.006786169
817.6      0.1150383  0.3259473  0.007597056
817.7      0.118168   0.3173145  0.005977233
817.8      0.1204993  0.3111754  0.008409891
817.9      0.122461   0.3061906  0.01250353
818        0.1204837  0.3112156  0.01748132
818.1      0.117749   0.3184436  0.0191566 
818.2      0.1140678  0.3287203  0.01999727
818.3      0.1159428  0.3234044  0.01168086
818.4      0.1185962  0.3161688  0.004361161
818.5      0.1184868  0.3164606  0.00516621
818.6      0.115046   0.3259253  0.01168497
818.7      0.1098736  0.3412686  0.02083997
818.8      0.1086084  0.3452441  0.02083997
818.9      0.1081244  0.3467897  0.01748132
819        0.1048369  0.3576641  0.01498345
819.1      0.09918081 0.3780612  0.01250353
819.2      0.09427425 0.3977376  0.01250353
819.3      0.09660894 0.3881257  0.01004145
819.4      0.1038148  0.3611857  0.008409891
819.5      0.1059626  0.3538646  0.01086017
819.6      0.1027976  0.3647597  0.01086017
819.7      0.09514762 0.3940867  0.01415482
819.8      0.09327111 0.4020153  0.01498345
819.9      0.09676689 0.3874922  0.01415482
820        0.1005676  0.372848   0.01250353
820.1      0.103802   0.3612303  0.008409891
820.2      0.1027795  0.364824   0.01086017
820.3      0.1022258  0.3668     0.01168086
820.4      0.0981835  0.3819014  0.0191566 
820.5      0.09813175 0.3821028  0.01831795
820.6      0.09966773 0.3762142  0.01498345
820.7      0.1040564  0.3603472  0.006786169
820.8      0.1049573  0.3572541  0.008409891
820.9      0.1058344  0.3542931  0.009224684
821        0.1040297  0.3604397  0.01086017
821.1      0.100987   0.3712992  0.01004145
821.2      0.1006702  0.3724679  0.00436518
821.3      0.09953131 0.3767298  0.00436518
821.4      0.1008806  0.3716911  0.001164247
821.5      0.09845748 0.3808387  0.006786169
821.6      0.09802548 0.382517   0.007597056
821.7      0.09687775 0.3870488  0.01086017
821.8      0.09716877 0.3858895  0.01004145
821.9      0.09778165 0.3834709  0.008409891
822        0.09883664 0.3793777  0.006786169
822.1      0.09752035 0.3844984  0.01250353
822.2      0.098464   0.3808134  0.01250353
822.3      0.09938455 0.3772862  0.01086427
822.4      0.1011261  0.3707885  0.006786169
822.5      0.1015002  0.3694221  0.003562056
822.6      0.100338   0.373701   0.00436518
822.7      0.1001184  0.3745208  0.002760864
822.8      0.1002364  0.3740797  0.00436518
822.9      0.1007541  0.3721577  0.005170241
823        0.1004672  0.3732203  0.006786169
823.1      0.09737793 0.3850607  0.01086017
823.2      0.09534677 0.3932636  0.01332818
823.3      0.09359434 0.4006269  0.01498345
823.4      0.09185729 0.4082029  0.01999727
823.5      0.09148288 0.4098736  0.02253145
823.6      0.09204241 0.4073819  0.01999727
823.7      0.09292257 0.4035232  0.01581407
823.8      0.09390814 0.3992882  0.01004145
823.9      0.09303924 0.4030172  0.01332818
824        0.09484051 0.3953628  0.01250353
824.1      0.09692362 0.3868656  0.01415482
824.2      0.1005487  0.372918   0.01415482
824.3      0.1012204  0.3704433  0.01999727
824.4      0.1022236  0.3668076  0.02083997
824.5      0.1048875  0.3574917  0.01415896
824.6      0.1083586  0.3460401  0.005170241
824.7      0.1099066  0.3411663  0.001961597
824.8      0.1103458  0.3398084  0.00436518
824.9      0.1088435  0.3444984  0.01004145
825        0.1094753  0.3425103  0.01332818
825.1      0.1089672  0.3441073  0.01664669
825.2      0.1119654  0.3348928  0.01332818
825.3      0.1094271  0.3426612  0.01498345
825.4      0.1080008  0.3471864  0.01415482
825.5      0.1054458  0.3555988  0.01415482
825.6      0.1049209  0.357378   0.01581407
825.7      0.1048103  0.3577551  0.01748132
825.8      0.10642    0.3523436  0.01498345
825.9      0.10941    0.3427147  0.008409891
826        0.1098422  0.3413662  0.006786169
826.1      0.1069138  0.3507162  0.01332818
826.2      0.1051747  0.3565157  0.01748132
826.3      0.1041264  0.3601048  0.0191566 
826.4      0.1031662  0.3634562  0.0191566 
826.5      0.1022364  0.3667617  0.01664669
826.6      0.1029189  0.3643299  0.01250353
826.7      0.1033515  0.3628047  0.01086017
826.8      0.1040725  0.3602913  0.01168086
826.9      0.1050611  0.356901   0.01004145
827        0.1066855  0.351467   0.006786169
827.1      0.1046882  0.3581724  0.006786169
827.2      0.1022934  0.3665575  0.009224684
827.3      0.1002453  0.3740464  0.005977233
827.4      0.09820459 0.3818194  0.006786169
827.5      0.09215125 0.4069007  0.01003736
827.6      0.09069828 0.4134192  0.01332818
827.7      0.09331692 0.4018179  0.01250353
827.8      0.1013537  0.3699561  0.01086017
827.9      0.1067244  0.3513387  0.01086017
828        0.106861   0.3508897  0.01086017
828.1      0.1034582  0.3624306  0.01168086
828.2      0.09848642 0.3807267  0.01332818
828.3      0.09756391 0.3843267  0.01332818
828.4      0.09677481 0.3874605  0.01332818
828.5      0.09729408 0.3853925  0.01250353
828.6      0.09827701 0.381538   0.01250353
828.7      0.1014675  0.3695412  0.01004145
828.8      0.1039304  0.3607839  0.006786169
828.9      0.1034709  0.3623861  0.006786169
829        0.1005051  0.3730798  0.00436518
829.1      0.09471367 0.3958923  0.005170241
829.2      0.0845704  0.4433751  0.009224684
829.3      0.07916871 0.4736267  0.01498345
829.4      0.08163714 0.4593059  0.01581407
829.5      0.09226446 0.4064015  0.01004145
829.6      0.09893462 0.3790019  0.007597056
829.7      0.1001142  0.3745363  0.009224684
829.8      0.09922764 0.3778827  0.01332818
829.9      0.1018243  0.3682463  0.009224684
830        0.1050134  0.3570631  0.002764867
830.1      0.1046522  0.3582956  0.001164247
830.2      0.1022945  0.3665535  0.005170241
830.3      0.1003921  0.3734998  0.01004145
830.4      0.1008467  0.371816   0.009224684
830.5      0.09891609 0.3790729  0.01332818
830.6      0.09726495 0.385508   0.01581407
830.7      0.09707427 0.3862652  0.01498345
830.8      0.09884247 0.3793553  0.007597056
830.9      0.1021364  0.3671211  0.006786169
831        0.103549   0.3621127  0.01086017
831.1      0.105185   0.3564805  0.01415482
831.2      0.1023393  0.3663932  0.01415482
831.3      0.1028952  0.3644138  0.008409891
831.4      0.1049969  0.3571191  0.005170241
831.5      0.1068232  0.3510138  0.008409891
831.6      0.1047122  0.3580903  0.01498345
831.7      0.0997824  0.3757818  0.02168469
831.8      0.09886947 0.3792517  0.01664669
831.9      0.1009332  0.3714975  0.009220611
832        0.1037378  0.3614537  0.00436518
832.1      0.1035896  0.3619707  0.009224684
832.2      0.1022232  0.3668092  0.01498345
832.3      0.1030025  0.3640339  0.01498345
832.4      0.1073018  0.3494481  0.006782118
832.5      0.1092842  0.3431092  0.003562056
832.6      0.1123881  0.3336335  0.003562056
832.7      0.1146695  0.3269956  0.005170241
832.8      0.1219601  0.3074481  0.002760864
832.9      0.124129   0.3020762  0.00436518
833        0.1241749  0.3019646  0.005977233
833.1      0.1174307  0.3193068  0.006786169
833.2      0.1110677  0.3375997  0.005977233
833.3      0.1084316  0.3458072  0.005977233
833.4      0.109111   0.3436538  0.009224684
833.5      0.1118464  0.3352493  0.009224684
833.6      0.1134313  0.3305649  0.009224684
833.7      0.1191921  0.3145882  0.008409891
833.8      0.125392   0.2990336  0.006786169
833.9      0.1254231  0.2989593  0.005977233
834        0.117001   0.3204795  0.005977233
834.1      0.1028146  0.3646995  0.009224684
834.2      0.09420012 0.3980506  0.009224684
834.3      0.09015157 0.4159263  0.005977233
834.4      0.08818257 0.4252135  0.002760864
