~Version information
  VERS.                           2.00 : CWLS log ASCII Standard -Version 2.00
  WRAP.                             NO : One line per depth step
~Well information
#MNEM.UNIT              Data Type        Information
#----------------------------------------------------------------------
  STRT.M                         0.000 : çÄóÄãé áÄèàëà
  STOP.M                       840.000 : äéçÖñ áÄèàëà
  STEP.M                         0.100 : òÄÉ
  NULL.                      -999.2500 : äéÑ éíëìíëíÇàü àçîéêåÄñàà
  WELL.                            308 : Well Name
  FLD .                       KARATUBE : Field Name
  CTRY.                     KAZAKHSTAN : Country
  SRVC.        JSC "KAZPROMGEOPHYSICA" : Service company
  DATE.                       08.06.04 : Log date
~Curve information
#MNEM.UNIT                               Curve Description
#----------------------------------------------------------------------
  DEPT.M                               : Depth Curve
  LL3 .OHMM                            : Appar.resist.laterolog,3 electrodes
  RHOB.G/C3                            : Bulk density by gamma-gamma log
  GZ3 .OHMM                            : App.resistivity by lateral A2.0M0.5N
  GZ3B.OHMM                            : App.resistivity by lateral N0.5å2.0Ä
  GR  .UR/H                            : Gamma-ray log
  NGLD.UE                              : Neutron-gamma log
  SP  .MV                              : Spontaneous potential
  CILR.MMHO                            : Conduct. by sonde 7I1.6,react.signal
  CILA.MMHO                            : Conduct. by sonde 7I1.6,active signal
  CALI.MM                              : Caliper
  C1  .MM                              : Diameter from profile1
  C2  .MM                              : Diameter from profile2
  DTP .US/M                            : Interval travel time (P-wave)
  T1  .US                              : Travel time1
  T2  .US                              : Travel time2
~Parameter information
#MNEM.UNIT              Value            Description
#----------------------------------------------------------------------
  BS  .MM                        215.9 : Bit Size
~Ascii Log Data
# ...
  502.300 2.0324 2.2740 3.0580 3.8610 9.6000 1.2773 66.2394 161.3800 254.6280 217.0390 215.4360 218.6420 431.9060 1032.8800 860.1150
  502.400 1.9724 2.2201 3.1350 3.8500 9.4200 1.3307 68.8046 161.0820 260.7890 217.6770 216.1070 219.2470 433.7790 1033.4500 859.9440
  502.500 1.9815 2.1917 3.1470 3.8610 9.3800 1.4373 68.7160 161.3800 257.7530 218.3160 219.4630 217.1680 433.9510 1033.8199 860.2410
  502.600 1.9907 2.1765 3.1470 3.8610 9.4400 1.4640 69.6007 165.9600 260.5250 217.0390 216.1070 217.9710 433.7250 1033.9100 860.4210
  502.700 1.9815 2.2155 3.1910 3.8830 9.8800 1.4507 68.8930 158.8580 265.3660 217.0390 215.4360 218.6420 434.8670 1034.0699 860.1270
  502.800 1.9588 2.2339 3.1580 3.8830 9.9200 1.4027 69.3355 164.3670 262.7690 217.6770 214.7650 220.5900 436.5680 1034.2300 859.6060
  502.900 1.9320 2.2041 3.2020 3.8930 10.0800 1.4000 70.3969 165.5290 268.8860 217.6770 214.0940 221.2610 438.4210 1034.4200 859.0549
  503.000 1.9143 2.2253 3.1690 3.9150 10.0000 1.3893 71.5470 164.5660 267.4780 218.9540 214.7650 223.1430 438.8010 1034.3800 858.8600
  503.100 1.9143 2.2198 3.1580 3.9360 10.2400 1.3840 68.5393 163.9690 265.9380 219.5920 214.7650 224.4200 437.7660 1034.0601 858.9559
  503.200 1.9634 2.2511 3.1350 3.8930 10.0800 1.3547 68.9817 164.2010 268.1380 217.0390 216.7790 217.3000 435.1620 1033.6400 859.5709
  503.300 2.0137 2.2103 3.1240 3.9260 10.0600 1.3920 69.2476 164.8320 269.3700 219.5920 214.7650 224.4200 432.8550 1033.5300 860.3879
  503.400 2.0184 2.2060 3.1020 3.9360 9.5200 1.3947 71.6358 161.9110 265.9820 220.2310 218.7920 221.6700 430.7760 1033.7900 861.4819
  503.500 1.9907 2.1518 3.1020 3.8930 9.5400 1.4160 69.1587 161.8120 268.1380 217.0390 217.4500 216.6280 429.3720 1034.2800 862.5310
  503.600 1.9770 2.2255 3.0250 3.8500 9.6400 1.3680 66.7703 161.5460 261.8010 215.7620 217.4500 214.0750 427.9770 1034.6400 863.4440
  503.700 1.9724 2.2195 3.0360 3.8500 10.0600 1.3600 66.0623 157.4980 265.5420 219.5920 216.1070 223.0770 427.1900 1034.9200 864.0449
  503.800 2.0045 2.2054 3.0250 3.8610 10.1200 1.3653 68.8050 159.3560 262.5050 217.0390 217.4500 216.6280 427.0330 1035.1400 864.3280
  503.900 2.0417 2.2183 3.0250 3.8830 9.8600 1.3840 70.5738 162.8070 269.5900 218.9540 215.4360 222.4720 427.5940 1035.3700 864.3280
  504.000 2.0184 2.2128 3.0360 3.9040 9.8800 1.4320 72.1667 158.1280 264.0900 217.6770 214.7650 220.5900 428.3810 1035.3101 863.9609
  504.100 1.9861 2.1734 3.0360 3.9580 9.5000 1.4587 71.5473 160.9160 263.1210 219.5920 217.4500 221.7350 429.3360 1034.8900 863.1560
  504.200 1.9679 2.1679 3.0690 3.9900 9.5400 1.4613 71.2817 156.9010 263.6930 217.6770 218.1210 217.2340 430.3110 1034.0300 861.9039
  504.300 1.9953 2.2368 3.0910 3.9790 9.1800 1.4000 69.7775 157.6310 264.4420 218.9540 216.7790 221.1300 431.3240 1032.5300 860.0010
  504.400 1.9907 2.2235 3.0580 4.0220 9.5800 1.3440 68.6278 159.9200 262.0650 218.3160 216.7790 219.8530 432.1530 1030.1700 857.3040
  504.500 1.9907 2.2148 3.1470 4.0870 9.7200 1.3387 67.4777 157.6640 267.1260 217.6770 218.7920 216.5630 432.6420 1026.8199 853.7600
  504.600 2.0045 2.2300 3.1020 4.0760 9.9800 1.3467 68.1853 155.9380 261.5370 218.9540 218.7920 219.1160 432.9800 1023.3900 850.1980
  504.700 2.0230 2.2093 3.1240 4.0970 9.8400 1.3600 69.6893 156.6020 261.8890 217.0390 218.7920 215.2860 433.3120 1020.8000 847.4790
  504.800 2.0324 2.1960 3.1240 4.1080 9.6000 1.3493 72.0783 152.6860 264.3540 217.0390 216.1070 217.9710 433.8380 1019.8100 846.2780
  504.900 2.0606 2.1857 3.1800 4.1400 9.3000 1.3307 71.9898 155.5070 264.0010 215.1240 215.4360 214.8120 434.8280 1020.1500 846.2209
  505.000 2.1038 2.1652 3.1800 4.1720 9.3800 1.3307 72.0780 151.3590 263.0770 218.9540 217.4500 220.4590 436.2950 1021.5400 847.0260
  505.100 2.1330 2.2126 3.1690 4.2050 9.5000 1.3227 71.5473 154.8430 259.1610 217.0390 218.7920 215.2860 437.7280 1023.9100 848.8220
  505.200 2.1184 2.1637 3.1470 4.1830 9.3200 1.3893 72.4320 145.4190 261.3610 219.5920 216.7790 222.4060 437.9790 1027.5300 852.3369
  505.300 2.0797 2.1602 3.1690 4.2690 9.3800 1.3867 70.9278 151.4910 256.9170 217.0390 217.4500 216.6280 436.3610 1032.5400 857.9969
  505.400 2.0701 2.2481 3.2020 4.3120 9.3799 1.3813 70.2200 151.3590 259.5130 218.9540 218.7920 219.1160 434.3800 1038.7300 864.9810
  505.500 2.0797 2.2263 3.2350 4.3550 10.1200 1.3200 70.5737 148.5710 257.4450 217.6770 215.4360 219.9190 432.9110 1045.5300 872.3629
  505.600 2.0749 2.1906 3.2910 4.3550 10.4800 1.3787 72.3430 147.6420 257.1370 217.6770 215.4360 219.9190 432.7560 1052.1600 879.0520
  505.700 2.0512 2.2869 3.3680 4.3870 10.9400 1.4453 72.3430 147.6090 256.9170 215.1240 216.7790 213.4690 431.5980 1057.7800 885.1410
  505.800 2.0749 2.3660 3.3350 4.4300 10.7400 1.5067 72.1659 148.4720 258.6770 217.6770 213.4230 221.9320 428.4070 1061.5400 890.1790
  505.900 2.1330 2.2689 3.2680 4.4840 10.0001 1.4240 71.9006 145.6180 256.0360 216.4010 216.1070 216.6940 423.3060 1063.4399 894.1210
  506.000 2.1429 2.2395 3.2800 4.5370 9.1800 1.3307 70.4853 145.6840 254.7600 218.3160 215.4360 221.1950 417.0010 1063.8300 897.0310
  506.100 2.1281 2.1929 3.2350 4.5910 9.2000 1.2667 69.8663 145.1200 252.5160 218.3160 218.1210 218.5110 410.6970 1063.6700 899.3929
  506.200 2.2284 2.2524 3.2570 4.6440 9.6400 1.3067 68.8933 140.6730 253.2200 216.4010 216.7790 216.0230 403.3450 1062.8000 901.4590
  506.300 2.3933 2.2876 3.2350 4.8380 9.7199 1.3600 70.6628 144.1580 248.4670 218.9540 218.7920 219.1160 395.1020 1060.9000 902.8640
  506.400 2.4946 2.4232 3.2350 4.9560 9.2801 1.3680 70.5740 140.8060 257.1810 220.8690 219.4630 222.2750 389.3450 1059.1200 903.3860
  506.500 2.2961 2.4638 3.3680 5.1600 9.0600 1.3680 70.9277 139.3130 249.3920 217.6770 218.1210 217.2340 386.3690 1057.0601 902.5110
  506.600 2.1429 2.4087 3.4900 5.4170 9.4400 1.3387 71.5470 140.5070 247.5430 218.9540 219.4630 218.4450 389.3290 1055.3800 899.6489
  506.700 2.0941 2.2800 3.5340 5.5460 9.6400 1.3307 69.7777 136.5580 253.5720 220.8690 216.7790 224.9600 391.2440 1051.6300 895.1310
  506.800 2.0654 2.2261 3.6560 5.5780 10.0800 1.2827 69.1584 141.3370 256.6530 220.2310 218.7920 221.6700 396.4360 1048.3900 889.8130
  506.900 2.0277 2.2590 3.7010 5.5780 10.1400 1.2240 65.9740 137.1890 257.6650 220.8690 218.7920 222.9460 403.9850 1043.9600 882.3710
  507.000 2.0230 2.2770 3.6670 5.5350 10.4200 1.1493 66.7703 137.3550 255.7720 220.2310 218.1210 222.3410 423.9860 1037.8400 868.2450
  507.100 1.9409 2.1734 3.5790 5.4490 10.3000 1.0853 68.3627 134.7330 254.7600 220.8690 217.4500 224.2890 455.9840 1025.7700 843.3760
  507.200 1.8880 2.0016 3.4680 5.3200 10.2200 1.0827 69.3357 134.6000 249.6120 216.4010 219.4630 213.3380 492.2700 1008.9100 812.0070
  507.300 2.0701 1.8412 3.4680 5.3100 9.7799 1.0933 70.1315 129.6560 246.3110 217.6770 218.1210 217.2340 514.0129 988.3770 782.7720
  507.400 2.3442 1.6708 3.4790 5.2240 8.7401 1.1360 69.5121 128.9920 244.4630 220.8690 220.8050 220.9330 510.3820 968.4149 764.2620
  507.500 2.3121 1.5589 3.4790 5.1700 7.8800 1.1867 71.1930 123.3840 243.4510 221.5070 221.4770 221.5380 488.5600 951.8250 756.4010
  507.600 2.2182 1.6470 3.4900 5.1270 7.4400 1.2453 70.6623 123.0850 235.9260 222.7840 218.7920 226.7760 465.0860 942.0819 756.0480
  507.700 2.1928 1.9043 3.5460 5.0740 8.0600 1.2587 65.0007 118.3730 241.4700 225.3380 221.4770 229.1990 449.1930 938.2069 758.5300
  507.800 2.1429 2.2066 3.4900 4.9660 8.9001 1.2747 65.8857 121.6910 241.2060 221.5070 221.4770 221.5380 441.4490 938.2410 761.6610
  507.900 2.0230 2.2465 3.5120 4.8810 10.0999 1.2693 68.8036 123.0190 245.8270 219.5920 219.4630 219.7220 438.6710 939.4810 764.0129
  508.000 1.9588 2.2679 3.4900 4.8380 10.5000 1.3067 75.0857 123.2840 248.5550 220.8690 218.1210 223.6170 438.6630 940.4290 764.9640
  508.100 1.9679 2.2850 3.4790 4.8160 10.1000 1.3413 74.2897 126.3700 254.4520 218.3160 217.4500 219.1820 439.2470 940.6500 764.9509
  508.200 2.0091 2.1926 3.4460 4.8160 9.2200 1.4160 73.3167 129.5230 252.9120 218.3160 218.1210 218.5110 435.8330 939.6119 765.2780
  508.300 2.0137 2.1247 3.4240 4.9230 8.5600 1.4693 73.4934 126.1050 254.7600 220.2310 219.4630 220.9980 428.3150 939.4170 768.0909
