~Version information
  VERS.                           2.00 : CWLS log ASCII Standard -Version 2.00
  WRAP.                             NO : One line per depth step
~Well information
#MNEM.UNIT              Data Type        Information
#----------------------------------------------------------------------
  STRT.M                         0.000 : çÄóÄãé áÄèàëà
  STOP.M                       840.000 : äéçÖñ áÄèàëà
  STEP.M                         0.100 : òÄÉ
  NULL.                      -999.2500 : äéÑ éíëìíëíÇàü àçîéêåÄñàà
  WELL.                            308 : Well Name
  FLD .                       KARATUBE : Field Name
  CTRY.                     KAZAKHSTAN : Country
  SRVC.        JSC "KAZPROMGEOPHYSICA" : Service company
  DATE.                       08.06.04 : Log date
~Curve information
#MNEM.UNIT                               Curve Description
#----------------------------------------------------------------------
  DEPT.M                               : Depth Curve
  LL3 .OHMM                            : Appar.resist.laterolog,3 electrodes
  RHOB.G/C3                            : Bulk density by gamma-gamma log
  GZ3 .OHMM                            : App.resistivity by lateral A2.0M0.5N
  GZ3B.OHMM                            : App.resistivity by lateral N0.5å2.0Ä
  GR  .UR/H                            : Gamma-ray log
  NGLD.UE                              : Neutron-gamma log
  SP  .MV                              : Spontaneous potential
  CILR.MMHO                            : Conduct. by sonde 7I1.6,react.signal
  CILA.MMHO                            : Conduct. by sonde 7I1.6,active signal
  CALI.MM                              : Caliper
  C1  .MM                              : Diameter from profile1
  C2  .MM                              : Diameter from profile2
  DTP .US/M                            : Interval travel time (P-wave)
  T1  .US                              : Travel time1
  T2  .US                              : Travel time2
~Parameter information
#MNEM.UNIT              Value            Description
#----------------------------------------------------------------------
  BS  .MM                        215.9 : Bit Size
~Ascii Log Data
# ...
  739.600 1.4388 2.3554 2.1270 2.7240 8.5599 1.3626 79.7740 188.9240 282.3080 222.1460 222.8190 221.4730 387.9990 915.8330 760.6329
  739.700 1.4689 2.4024 2.0940 2.7130 8.2000 1.3733 81.1010 195.1290 281.1200 217.0390 221.4770 212.6020 388.5460 912.3459 756.9280
  739.800 1.4555 2.4567 2.0720 2.7020 8.3200 1.3520 79.8618 187.5970 282.3080 219.5920 220.8050 218.3800 384.4380 909.6530 755.8779
  739.900 1.4355 2.4082 2.1050 2.7020 8.3200 1.4373 79.6856 190.2510 282.1760 215.7620 222.1480 209.3770 378.3900 906.7169 755.3619
  740.000 1.4521 2.4454 2.0720 2.6920 8.1401 1.4293 79.8631 187.5970 289.0410 221.5070 222.8190 220.1960 374.4770 903.3030 753.5120
  740.100 1.4093 2.3625 2.0830 2.6810 7.9200 1.4853 81.1897 192.2760 287.5450 229.8060 224.1610 235.4510 372.8470 898.9170 749.7789
  740.200 1.3428 2.2861 2.1160 2.7130 7.8200 1.4827 80.5705 187.7960 283.7600 232.9980 227.5170 238.4790 373.4850 894.7280 745.3340
  740.300 1.3996 2.2702 2.1490 2.6160 8.0000 1.4560 79.5971 198.4150 275.0470 228.5290 226.8460 230.2130 377.0880 891.2800 740.4449
  740.400 1.5136 2.3037 2.1160 2.6060 7.6999 1.4347 78.9784 199.5100 286.4010 235.5510 232.2150 238.8880 384.4310 889.7729 736.0010
  740.500 1.5668 2.3916 2.0380 2.5630 7.6800 1.4320 77.9164 194.3330 284.3320 250.8720 239.5970 262.1460 389.4540 889.1899 733.4080
  740.600 1.6368 2.3985 2.0490 2.5950 7.8601 1.4587 78.1820 193.2380 280.6800 251.5100 244.2950 258.7250 387.6220 888.2350 733.1859
  740.700 1.6672 2.4230 2.0600 2.6380 8.1000 1.4693 77.7395 191.3460 273.6830 231.7210 230.8720 232.5700 382.2540 886.3099 733.4080
  740.800 1.7258 2.5194 2.1050 2.6700 8.1600 1.4613 78.9784 195.8930 264.1340 223.4230 224.1610 222.6840 376.5230 883.7040 733.0950
  740.900 1.7865 2.3745 2.1820 2.7020 8.2001 1.4320 78.0938 193.8680 253.9240 217.6770 220.8050 214.5490 374.3420 881.3330 731.5969
  741.000 1.8155 2.4057 2.2820 2.6920 8.4599 1.4533 77.6510 197.6180 255.8160 222.7840 225.5030 220.0650 369.0270 879.7090 732.0980
  741.100 1.8155 2.4018 2.3150 2.7130 8.7400 1.4667 78.0050 192.5080 260.8330 238.1050 230.8720 245.3370 364.1800 879.0470 733.3740
  741.200 1.7620 2.4233 2.3600 2.6590 8.6400 1.4773 77.8280 196.2910 263.0770 238.7430 230.2010 247.2850 356.6590 879.0179 736.3540
  741.300 1.7100 2.4114 2.4150 2.6590 8.7000 1.4667 79.2433 202.0650 261.8450 227.2530 226.1740 228.3310 348.4550 878.0000 738.6179
  741.400 1.6444 2.4173 2.4710 2.5950 8.6400 1.4480 78.5354 203.3930 267.5660 220.2310 220.1340 220.3270 340.4420 876.8190 740.6429
  741.500 1.5849 2.3847 2.5260 2.5520 8.4401 1.4960 78.7123 206.2460 263.2970 219.5920 216.7790 222.4060 334.6670 875.8669 742.0010
  741.600 1.5382 2.3664 2.5370 2.4880 8.3200 1.4827 77.4740 213.4810 267.6100 220.2310 224.1610 216.3010 335.4280 877.2949 743.1240
  741.700 1.4757 2.3989 2.5260 2.4340 8.2600 1.4987 77.2085 214.3100 274.5190 224.0610 226.8460 221.2760 334.1310 878.9370 745.2849
  741.800 1.4322 2.4614 2.5260 2.4020 8.5400 1.4560 77.4741 220.0510 277.8630 223.4230 224.8320 222.0130 330.8150 881.0089 748.6830
  741.900 1.3868 2.4063 2.5040 2.3800 8.6000 1.4213 78.4471 221.8100 281.4280 224.6990 223.4900 225.9090 324.2950 882.7670 753.0490
  742.000 1.3740 2.4083 2.5040 2.3800 8.5600 1.3867 78.6244 230.4050 277.9510 231.0830 227.5170 234.6490 322.7500 885.7130 756.6140
  742.100 1.3521 2.4124 2.5260 2.3480 8.5000 1.4160 78.0937 224.0670 283.3200 222.1460 222.1480 222.1440 327.0080 889.3340 758.5300
  742.200 1.3397 2.3835 2.4930 2.3480 8.3000 1.5120 76.5017 235.2500 282.1320 219.5920 222.1480 217.0370 333.7460 892.2230 758.7240
  742.300 1.3459 2.3664 2.4150 2.3590 8.4200 1.5040 76.5900 236.8100 290.0970 221.5070 220.1340 222.8810 339.4260 893.1119 757.3409
  742.400 1.3583 2.4285 2.4150 2.4130 8.6801 1.4640 77.5623 236.0130 288.0290 224.0610 222.8190 225.3030 345.1440 892.0300 753.9719
  742.500 1.3772 2.4260 2.3930 2.4560 8.7800 1.3547 78.4472 235.4820 287.3690 226.6140 222.1480 231.0810 350.3630 888.8149 748.6689
  742.600 1.4028 2.4016 2.3260 2.5200 8.8200 1.3627 77.8280 235.8140 289.6130 227.8910 224.1610 231.6210 355.7690 884.4039 742.0959
  742.700 1.3932 2.3937 2.3490 2.5410 8.5800 1.3680 73.6715 236.3120 295.9940 225.3380 222.8190 227.8560 354.9760 877.4310 735.4409
  742.800 1.3646 2.3558 2.3380 2.5840 8.4601 1.4667 72.6968 233.2590 291.8130 222.7840 224.1610 221.4070 353.6880 870.2920 728.8170
  742.900 1.3366 2.4353 2.2820 2.6380 8.2400 1.4613 72.5193 234.1880 294.4100 220.8690 218.7920 222.9460 351.0730 862.4700 722.0410
  743.000 1.3092 2.3717 2.3040 2.6920 8.0800 1.4534 75.8822 231.4010 299.5580 220.2310 218.1210 222.3410 351.1430 854.7639 714.3070
  743.100 1.3002 2.2496 2.2930 2.7670 8.1600 1.4160 76.1473 231.2680 304.0910 223.4230 218.7920 228.0530 349.0200 845.8180 706.2100
  743.200 1.2764 2.3456 2.2930 2.8100 8.2800 1.4747 74.9977 228.6130 308.2710 224.0610 220.8050 227.3160 345.9470 836.2500 697.8719
  743.300 1.2503 2.3322 2.2820 2.8420 8.4400 1.4933 74.4662 228.4470 313.5960 224.0610 219.4630 228.6590 341.1480 826.6379 690.1790
  743.400 1.2388 2.3627 2.2600 2.8950 8.5000 1.4907 75.2622 221.4120 313.9040 224.0610 222.1480 225.9740 335.8590 816.9790 682.6350
  743.500 1.2503 2.3845 2.2160 2.9490 8.7199 1.4827 76.7666 219.9190 314.4760 220.2310 220.8050 219.6560 328.6320 806.9520 675.4990
  743.600 1.2445 2.3873 2.1820 2.9600 8.6600 1.4987 77.4740 216.5670 314.8720 223.4230 222.1480 224.6970 324.6480 797.5110 667.6520
  743.700 1.2274 2.3675 2.1490 2.9380 8.8600 1.5173 76.9434 211.8880 320.5490 221.5070 221.4770 221.5380 321.8530 789.4320 660.6909
  743.800 1.2134 2.4389 2.1270 2.9920 8.8799 1.5520 77.2088 206.8110 313.1120 225.3380 220.1340 230.5410 323.2310 783.1810 653.8879
  743.900 1.2134 2.4700 2.0720 2.9920 9.4001 1.5733 76.9434 205.6490 314.6520 228.5290 223.4900 233.5690 321.8250 777.1699 648.4399
  744.000 1.2218 2.3729 2.0490 3.0130 9.7999 1.5334 77.0315 196.2250 316.6330 224.0610 220.8050 227.3160 323.1560 770.8560 641.5930
  744.100 1.2560 2.3465 2.0490 3.0890 9.9800 1.4426 76.3240 195.2290 311.2640 224.6990 223.4900 225.9090 322.9130 764.0229 634.8579
  744.200 1.3646 2.3446 1.9830 3.1960 10.3000 1.4560 76.1471 189.7540 310.2960 232.3590 226.1740 238.5440 326.0330 757.9430 627.5300
  744.300 1.4825 2.4118 1.9500 3.2710 10.9798 1.5174 74.5542 187.8950 296.9620 228.5290 225.5030 231.5550 326.7840 751.5819 620.8679
  744.400 1.5996 2.4463 1.9050 3.3350 11.2800 1.6133 74.8199 176.8780 293.7930 225.3380 221.4770 229.1990 327.1920 745.7030 614.8259
  744.500 1.6482 2.4198 1.9160 3.3570 11.3401 1.6720 76.2365 178.3380 282.1320 227.8910 226.1740 229.6070 321.0730 740.4349 612.0060
  744.600 1.6943 2.4188 1.8830 3.3780 10.5199 1.7227 77.8280 174.6210 285.3880 232.9980 228.8590 237.1370 313.8450 740.1439 614.6060
  744.700 1.6711 2.4525 1.9270 3.4430 10.0800 1.7413 76.9439 171.5680 275.0910 229.1680 226.1740 232.1610 306.8630 745.6970 622.9509
  744.800 1.7258 2.4823 1.9390 3.4640 9.4801 1.7573 74.4659 170.6390 269.1940 234.2740 228.1880 240.3610 304.1250 756.7329 635.0830
  744.900 2.0512 2.4368 1.9940 3.5820 9.1799 1.7733 73.7586 168.7480 265.9820 225.9760 228.8590 223.0930 296.0680 768.5709 650.1439
  745.000 2.5410 2.5077 1.9940 3.7220 8.7601 1.8160 74.6438 171.0700 266.4220 229.8060 227.5170 232.0950 279.7440 777.6660 665.7689
  745.100 2.8907 2.5872 2.0490 3.8500 8.4599 1.8293 76.1470 164.6330 250.9760 230.4440 227.5170 233.3720 253.7910 782.6100 681.0940
  745.200 3.0903 2.5231 2.1160 3.9900 8.5800 1.8427 77.1199 164.0020 238.3020 229.8060 226.8460 232.7660 239.9840 787.3860 691.3929
  745.300 3.4356 2.5123 2.2270 4.0760 8.4800 1.8373 77.3857 158.9250 231.7890 227.8910 222.8190 232.9630 246.6580 796.6279 697.9650
  745.400 3.5563 2.5986 2.3380 4.1290 8.5799 1.8080 77.1205 158.0290 227.0810 224.0610 221.4770 226.6450 278.1980 811.9659 700.6859
  745.500 2.8973 2.6116 2.4710 4.1620 8.1600 1.8027 76.5895 160.3520 229.5890 227.2530 224.8320 229.6730 308.1870 826.8049 703.5300
  745.600 2.1827 2.5554 2.6370 4.0650 8.5801 1.7760 76.2357 161.9780 234.1220 228.5290 223.4900 233.5690 322.9140 834.6470 705.4810
