~Version information
  VERS.                           2.00 : CWLS log ASCII Standard -Version 2.00
  WRAP.                             NO : One line per depth step
~Well information
#MNEM.UNIT              Data Type        Information
#----------------------------------------------------------------------
  STRT.M                         0.000 : çÄóÄãé áÄèàëà
  STOP.M                       840.000 : äéçÖñ áÄèàëà
  STEP.M                         0.100 : òÄÉ
  NULL.                      -999.2500 : äéÑ éíëìíëíÇàü àçîéêåÄñàà
  WELL.                            308 : Well Name
  FLD .                       KARATUBE : Field Name
  CTRY.                     KAZAKHSTAN : Country
  SRVC.        JSC "KAZPROMGEOPHYSICA" : Service company
  DATE.                       08.06.04 : Log date
~Curve information
#MNEM.UNIT                               Curve Description
#----------------------------------------------------------------------
  DEPT.M                               : Depth Curve
  LL3 .OHMM                            : Appar.resist.laterolog,3 electrodes
  RHOB.G/C3                            : Bulk density by gamma-gamma log
  GZ3 .OHMM                            : App.resistivity by lateral A2.0M0.5N
  GZ3B.OHMM                            : App.resistivity by lateral N0.5å2.0Ä
  GR  .UR/H                            : Gamma-ray log
  NGLD.UE                              : Neutron-gamma log
  SP  .MV                              : Spontaneous potential
  CILR.MMHO                            : Conduct. by sonde 7I1.6,react.signal
  CILA.MMHO                            : Conduct. by sonde 7I1.6,active signal
  CALI.MM                              : Caliper
  C1  .MM                              : Diameter from profile1
  C2  .MM                              : Diameter from profile2
  DTP .US/M                            : Interval travel time (P-wave)
  T1  .US                              : Travel time1
  T2  .US                              : Travel time2
~Parameter information
#MNEM.UNIT              Value            Description
#----------------------------------------------------------------------
  BS  .MM                        215.9 : Bit Size
~Ascii Log Data
# ...
  266.100 3.1769 2.1975 6.5930 5.9750 8.6400 1.3733 61.7273 103.5060 219.4240 227.8910 226.1740 229.6070 523.2710 1221.6400 1012.3300
  266.200 3.1550 2.1454 6.4710 5.9210 8.4600 1.3520 61.2850 104.2690 220.7000 228.5290 224.8320 232.2260 525.4380 1223.6400 1013.4700
  266.300 3.1623 2.1249 6.3380 5.8250 8.6400 1.3360 61.9044 103.3070 221.9760 227.2530 225.5030 229.0020 525.4110 1225.3300 1015.1700
  266.400 3.1550 2.1243 6.3600 5.8030 8.8600 1.2960 61.3737 105.2980 220.9640 233.6360 230.8720 236.4000 523.7100 1226.8300 1017.3500
  266.500 3.1117 2.1620 6.3050 5.7820 8.9400 1.2747 61.1083 103.3730 222.1960 234.2740 227.5170 241.0320 521.1429 1228.2900 1019.8300
  266.600 3.1261 2.1729 6.3270 5.8250 8.8600 1.2720 59.6043 107.3890 217.0030 229.8060 228.1880 231.4240 519.4509 1229.8199 1022.0400
  266.700 3.1261 2.1096 6.2830 5.8460 8.7400 1.2880 59.0733 100.4200 223.0760 227.8910 225.5030 230.2790 518.6730 1231.2200 1023.7600
  266.800 3.0549 2.1214 6.2610 5.8140 8.6000 1.3067 58.7196 106.1610 221.1840 227.2530 224.1610 230.3440 519.9070 1232.6600 1024.7000
  266.900 3.0061 2.1311 6.2270 5.8250 8.5200 1.3120 59.6930 107.9530 224.1760 224.0610 222.1480 225.9740 522.3870 1234.5200 1025.5601
  267.000 2.9854 2.1247 6.1720 5.8570 8.7400 1.2853 59.7817 106.3930 226.0240 226.6140 224.8320 228.3960 524.4800 1236.4399 1026.6500
  267.100 2.9992 2.1235 6.1390 5.8350 8.8600 1.3093 59.6047 107.8200 221.9760 229.8060 223.4900 236.1220 523.3500 1237.7000 1028.3600
  267.200 3.0061 2.1460 6.1060 5.8570 8.8400 1.2933 59.5160 108.4840 224.2640 227.2530 224.8320 229.6730 520.8130 1238.1500 1029.8199
  267.300 3.0200 2.1247 6.1060 5.8890 8.7200 1.2427 59.4273 105.3980 226.5960 226.6140 224.1610 229.0680 518.5540 1237.9301 1030.5000
  267.400 3.0269 2.1052 6.0610 5.9860 8.6400 1.1280 58.0120 108.0860 225.0560 225.9760 225.5030 226.4490 517.1219 1236.5900 1029.7400
  267.500 3.0200 2.1153 6.0280 6.0390 8.5400 1.0907 58.1007 106.5260 227.5210 227.2530 223.4900 231.0150 518.1460 1234.5900 1027.3300
  267.600 2.9992 2.1235 6.0170 6.0610 8.4200 1.1680 56.8623 108.1850 221.3160 225.3380 223.4900 227.1850 522.6899 1232.1500 1023.0700
  267.700 3.0200 2.1359 6.0170 6.0820 8.5200 1.2507 56.9504 100.8850 225.0560 222.1460 224.1610 220.1310 526.0410 1226.9800 1016.5700
  267.800 3.0690 2.1486 5.9840 6.0930 8.5600 1.2987 56.7735 106.7580 219.5120 221.5070 223.4900 219.5250 526.3220 1220.6600 1010.1300
  267.900 3.0549 2.1245 6.0170 6.0820 8.4200 1.2667 56.9507 106.7580 223.9120 222.1460 224.8320 219.4590 520.7180 1213.0200 1004.7300
  268.000 2.9580 2.1642 5.9060 6.1040 8.2400 1.2640 57.4813 103.5060 222.1960 222.1460 222.1480 222.1440 512.3829 1207.0900 1002.1400
  268.100 2.8249 2.1646 5.9730 6.0820 8.4200 1.2533 56.4197 105.1320 220.1280 222.1460 225.5030 218.7880 504.3550 1199.4200 997.6740
  268.200 2.7925 2.1656 5.8510 6.1140 8.5000 1.2453 57.5699 103.3070 224.0000 224.6990 225.5030 223.8950 501.2800 1193.4800 992.9709
  268.300 2.7861 2.1810 5.8510 6.1790 8.7000 1.2533 59.4274 103.0080 225.3200 224.6990 226.1740 223.2240 499.0450 1187.5500 987.9320
  268.400 2.7797 2.1286 5.8170 6.2650 8.6000 1.2480 61.5510 102.9090 226.4640 221.5070 222.1480 220.8670 499.0320 1185.2200 985.6069
  268.500 2.7669 2.1278 5.7400 6.3400 8.7600 1.2640 62.5240 104.0040 229.0610 220.2310 223.4900 216.9720 497.4570 1183.0100 984.0250
  268.600 2.7040 2.1315 5.7400 6.4470 8.7800 1.3040 63.2317 103.4070 225.1000 218.9540 220.1340 217.7740 500.5330 1182.6600 982.4430
  268.700 2.6792 2.1295 5.7070 6.5870 8.6400 1.3013 62.1698 101.6480 227.3890 221.5070 223.4900 219.5250 503.6090 1182.3000 980.8610
  268.800 2.7040 2.1733 5.6290 6.6830 8.5800 1.2587 60.5779 102.0460 224.4840 222.7840 224.8320 220.7360 506.6860 1181.9500 979.2789
  268.900 2.7353 2.1429 5.5960 6.8010 8.4400 1.2693 59.6930 106.0610 230.0730 220.8690 220.8050 220.9330 506.5600 1181.6000 978.9769
  269.000 2.8576 2.1340 5.5510 6.9300 8.7000 1.2933 59.5160 99.9220 223.0320 220.8690 221.4770 220.2620 503.2330 1181.2500 979.9569
  269.100 3.0269 2.1459 5.5630 7.0270 8.7000 1.3120 60.4890 101.6810 217.7510 220.2310 220.1340 220.3270 488.7670 1180.9000 985.3920
  269.200 3.3189 2.1348 5.4960 7.0690 8.8600 1.2693 60.4891 99.0930 215.0670 220.2310 224.1610 216.3010 473.6840 1180.5500 991.0730
  269.300 3.4041 2.1260 5.4410 7.1340 8.8200 1.2613 60.8431 97.3340 211.2380 221.5070 223.4900 219.5250 465.5230 1182.2100 996.0010
  269.400 3.3884 2.0809 5.4740 7.2090 9.0600 1.3147 60.7547 99.3250 204.3740 222.1460 222.8190 221.4730 471.3890 1185.8900 997.3350
  269.500 3.3266 2.1494 5.3520 7.2730 8.9200 1.2987 60.4007 97.3010 208.5540 222.7840 220.8050 224.7630 490.0600 1193.6899 997.6680
  269.600 3.2285 2.1349 5.3520 7.2520 9.0800 1.2400 61.1967 96.5370 202.9650 220.8690 220.8050 220.9330 505.9590 1200.4000 998.0120
  269.700 3.1333 2.1059 5.3520 7.2950 8.9000 1.1627 62.2585 97.0680 204.1090 222.1460 218.1210 226.1710 515.7540 1204.5300 998.2319
  269.800 3.0832 2.1190 5.3960 7.3160 8.8199 1.1760 64.0275 94.1480 208.4220 221.5070 220.1340 222.8810 510.4350 1203.0200 998.8440
  269.900 3.0903 2.1622 5.4740 7.2630 8.5200 1.2347 62.4353 98.8600 209.8300 220.8690 221.4770 220.2620 497.6570 1198.7300 999.6680
  270.000 3.1046 2.1070 5.4300 7.2950 8.5600 1.2773 62.5237 94.9440 214.0110 220.2310 222.1480 218.3140 482.2920 1192.8199 999.9010
  270.100 3.2063 2.1186 5.4300 7.2630 8.8600 1.2933 61.7277 98.0640 212.8230 220.8690 221.4770 220.2620 475.2430 1188.7900 998.6980
  270.200 3.3037 2.1576 5.3850 7.2090 9.0200 1.2827 61.6390 94.2480 213.5710 218.9540 220.8050 217.1030 477.6850 1186.9100 995.8380
  270.300 3.3037 2.1345 5.3190 7.1450 9.1600 1.3093 59.7819 95.9730 211.3260 221.5070 224.1610 218.8540 494.3210 1189.8000 992.0740
  270.400 3.2285 2.0988 5.3300 7.0690 9.2400 1.2907 58.6317 96.3050 211.1060 224.0610 221.4770 226.6450 514.1959 1196.2000 990.5200
  270.500 3.1696 2.0790 5.2520 7.0370 9.0000 1.2720 59.4277 95.5420 214.0550 230.4440 222.8190 238.0700 536.4139 1208.7200 994.1570
  270.600 3.1189 2.0976 5.1750 6.9730 8.6800 1.2107 59.3390 94.6460 208.4220 229.1680 224.8320 233.5030 544.5919 1223.0699 1005.2300
  270.700 3.0269 2.1648 5.1750 6.9190 8.1800 1.1947 58.4542 96.2050 208.6420 231.0830 227.5170 234.6490 541.0439 1235.7300 1019.3100
  270.800 2.9512 2.1182 5.1410 6.8980 8.2600 1.2347 58.3659 90.1990 212.5150 234.2740 228.1880 240.3610 525.2140 1241.7300 1031.6400
  270.900 2.8774 2.1308 5.1640 6.9410 8.4799 1.2880 59.6930 93.7500 212.3830 232.3590 229.5300 235.1890 512.9530 1242.8900 1037.7100
  271.000 2.8379 2.1716 5.2410 7.0160 8.6200 1.3227 60.5777 93.8820 216.8710 232.3590 223.4900 241.2290 504.7980 1241.3400 1039.4200
  271.100 2.8314 2.1787 5.3410 7.1870 8.5800 1.2960 61.7277 92.7870 214.9350 226.6140 223.4900 229.7390 502.0620 1239.6000 1038.7700
  271.200 2.9242 2.1543 5.4070 7.2840 8.5000 1.2907 60.0469 91.5600 214.2750 225.3380 224.1610 226.5140 500.1080 1237.8500 1037.8000
  271.300 3.0061 2.1632 5.4850 7.4660 8.7200 1.2560 61.6393 92.5220 211.7230 221.5070 220.1340 222.8810 499.1350 1236.2500 1036.6000
  271.400 2.9717 2.1514 5.5630 7.5090 9.2599 1.3013 61.3740 90.7300 211.6780 222.7840 220.8050 224.7630 498.2710 1234.7800 1035.4800
  271.500 3.0061 2.1431 5.5850 7.5090 9.4000 1.2933 62.3470 90.9620 212.0310 227.8910 224.8320 230.9500 497.2030 1233.5699 1034.6899
  271.600 3.1333 2.1659 5.5510 7.5520 9.3800 1.3093 62.6123 87.8100 209.8300 230.4440 226.8460 234.0430 500.8610 1232.8400 1032.5000
  271.700 3.4356 2.1596 5.5510 7.5740 8.7000 1.3360 63.6743 90.9290 202.3930 228.5290 224.8320 232.2260 513.3140 1232.6899 1027.3700
  271.800 3.7497 2.2137 5.5630 7.5420 8.4800 1.3120 65.1780 81.2060 204.3740 226.6140 224.8320 228.3960 539.3109 1233.4000 1017.6700
  271.900 3.8994 2.3966 5.5630 7.5740 8.5399 1.2853 65.0893 86.8470 195.3080 230.4440 224.8320 236.0570 566.2090 1233.8900 1007.4000
  272.000 4.1495 2.3412 5.6290 7.6380 8.6400 1.2000 65.1777 92.5550 188.0470 229.8060 227.5170 232.0950 570.1520 1227.4700 999.4060
  272.100 4.1210 2.3639 5.7510 7.6380 9.0600 1.2747 63.9390 92.2230 186.7270 225.3380 223.4900 227.1850 554.0840 1218.1700 996.5349
