~Version information
  VERS.                           2.00 : CWLS log ASCII Standard -Version 2.00
  WRAP.                             NO : One line per depth step
~Well information
#MNEM.UNIT              Data Type        Information
#----------------------------------------------------------------------
  STRT.M                         0.000 : çÄóÄãé áÄèàëà
  STOP.M                       840.000 : äéçÖñ áÄèàëà
  STEP.M                         0.100 : òÄÉ
  NULL.                      -999.2500 : äéÑ éíëìíëíÇàü àçîéêåÄñàà
  WELL.                            308 : Well Name
  FLD .                       KARATUBE : Field Name
  CTRY.                     KAZAKHSTAN : Country
  SRVC.        JSC "KAZPROMGEOPHYSICA" : Service company
  DATE.                       08.06.04 : Log date
~Curve information
#MNEM.UNIT                               Curve Description
#----------------------------------------------------------------------
  DEPT.M                               : Depth Curve
  LL3 .OHMM                            : Appar.resist.laterolog,3 electrodes
  RHOB.G/C3                            : Bulk density by gamma-gamma log
  GZ3 .OHMM                            : App.resistivity by lateral A2.0M0.5N
  GZ3B.OHMM                            : App.resistivity by lateral N0.5å2.0Ä
  GR  .UR/H                            : Gamma-ray log
  NGLD.UE                              : Neutron-gamma log
  SP  .MV                              : Spontaneous potential
  CILR.MMHO                            : Conduct. by sonde 7I1.6,react.signal
  CILA.MMHO                            : Conduct. by sonde 7I1.6,active signal
  CALI.MM                              : Caliper
  C1  .MM                              : Diameter from profile1
  C2  .MM                              : Diameter from profile2
  DTP .US/M                            : Interval travel time (P-wave)
  T1  .US                              : Travel time1
  T2  .US                              : Travel time2
~Parameter information
#MNEM.UNIT              Value            Description
#----------------------------------------------------------------------
  BS  .MM                        215.9 : Bit Size
~Ascii Log Data
# ...
  788.400 1.9055 2.5348 3.4680 3.3460 7.5201 1.6240 79.8632 196.3240 276.4550 234.2740 235.5700 232.9790 293.4340 781.6100 664.2369
  788.500 1.8365 2.4670 3.4790 3.3890 7.3800 1.5894 79.7746 190.9480 284.2000 228.5290 232.8860 224.1730 291.5380 782.2490 665.6339
  788.600 1.7742 2.3163 3.6340 3.4000 7.4999 1.5573 80.2167 194.6980 284.5080 227.2530 231.5440 222.9620 291.1720 784.4099 667.9409
  788.700 1.7022 2.3332 3.6120 3.4430 7.3400 1.5600 81.1015 195.7600 296.7860 231.7210 231.5440 231.8990 296.8320 788.7230 669.9900
  788.800 1.6069 2.4212 3.5680 3.4110 7.7999 1.6347 79.3315 193.2710 298.0180 234.9130 233.5570 236.2690 306.3230 795.2700 672.7400
  788.900 1.5382 2.3969 3.5010 3.4000 8.0601 1.6347 80.6585 195.0630 301.4950 228.5290 232.2150 224.8440 320.3050 803.5590 675.4380
  789.000 1.5066 2.4092 3.4460 3.4430 8.1800 1.6267 77.8278 193.1050 307.2150 226.6140 230.8720 222.3560 333.5180 812.4189 679.0110
  789.100 1.5311 2.3969 3.3900 3.4750 8.1600 1.6160 78.8900 191.2470 310.0760 227.2530 230.8720 223.6330 345.6190 820.6100 682.3619
  789.200 1.5704 2.4237 3.2350 3.6040 8.0200 1.6427 77.0312 190.8150 311.9240 227.2530 235.5700 218.9350 352.6040 826.6489 685.6079
  789.300 1.6444 2.3769 3.1470 3.7650 7.7201 1.6933 80.6593 186.1030 318.4810 225.3380 234.8990 215.7760 358.5650 832.2870 688.8619
  789.400 1.6904 2.3886 3.0580 4.0110 7.1599 1.6960 81.8969 179.4330 314.3000 224.0610 226.8460 221.2760 368.7190 837.2419 689.7550
  789.500 1.7378 2.4326 2.9910 4.3010 6.5401 1.7360 82.6936 176.3140 311.2200 224.6990 232.2150 217.1840 387.4560 841.6699 686.6880
  789.600 1.7783 2.3772 2.9250 4.6020 6.3200 1.7360 82.9590 168.6150 306.2910 224.6990 228.1880 221.2110 405.1010 839.3979 677.3569
  789.700 1.8323 2.3454 2.8810 4.9560 6.2800 1.7200 80.3943 164.0680 303.3430 227.8910 225.5030 230.2790 413.1230 830.9370 665.6880
  789.800 1.9055 2.4566 2.7590 5.2990 6.3800 1.7040 80.7473 151.8230 287.7210 224.0610 224.1610 223.9610 405.7860 815.6270 653.3130
  789.900 1.9861 2.3784 2.6920 5.7710 6.4200 1.7147 80.9235 147.3100 274.4750 224.6990 221.4770 227.9220 389.9980 798.2040 642.2050
  790.000 2.0749 2.4561 2.5590 6.3720 6.4600 1.7173 83.5784 127.9300 263.0770 227.2530 226.1740 228.3310 361.4210 778.1730 633.6050
  790.100 2.1677 2.4059 2.5480 7.1120 6.3799 1.6853 84.0207 123.6490 245.9150 224.6990 224.1610 225.2370 324.1320 757.7899 628.1370
  790.200 2.2542 2.3701 2.4820 7.8850 6.2800 1.6800 84.2859 113.0630 232.0530 227.2530 224.1610 230.3440 283.4900 738.7000 625.3040
  790.300 2.3550 2.3666 2.4820 8.7760 6.0200 1.6800 85.3476 102.4440 210.1380 224.6990 221.4770 227.9220 255.4010 723.4199 621.2589
  790.400 2.4322 2.4142 2.4480 9.7630 5.9199 1.6987 86.4973 92.4560 194.4720 226.6140 224.1610 229.0680 246.2560 711.8400 613.3369
  790.500 2.3335 2.4920 2.3600 10.8040 5.8800 1.6640 87.9132 85.9850 179.5100 227.8910 220.8050 234.9770 246.9930 702.0549 603.2579
  790.600 2.0701 2.4392 2.3490 11.9190 6.2201 1.5973 88.5323 83.8940 174.5380 227.2530 222.1480 232.3580 251.8260 691.7970 591.0670
  790.700 1.7783 2.2201 2.3150 12.8210 6.9400 1.5253 89.5935 77.0580 172.8210 227.2530 222.8190 231.6860 251.9490 681.7980 581.0179
  790.800 1.5885 2.2725 2.3490 13.9150 7.6199 1.4587 90.3016 74.5690 168.9050 226.6140 224.8320 228.3960 258.5410 674.5089 571.0919
  790.900 1.4859 2.3205 2.3040 15.0310 8.1801 1.4827 89.6824 70.2880 166.2640 231.0830 228.8590 233.3060 262.2440 666.7750 561.8770
  791.000 1.4555 2.2621 2.2490 16.3720 8.4200 1.4960 88.7087 65.8410 165.3840 234.2740 244.2950 224.2540 263.1860 655.0129 549.7390
  791.100 1.4588 2.2911 2.1930 17.8640 8.5400 1.5760 88.2667 65.3770 159.1790 231.7210 242.9530 220.4890 247.5480 634.1200 535.1010
  791.200 1.5596 2.2967 2.0490 19.7420 8.5000 1.6347 89.1512 61.9590 145.6260 255.9780 245.6380 266.3190 242.4370 616.2700 519.2949
  791.300 1.6711 2.2954 1.9160 22.4030 8.2801 1.7067 89.2395 57.5450 134.5800 267.4690 251.0070 283.9310 249.2630 603.4760 503.7700
  791.400 1.7824 2.4282 1.8060 26.0400 8.4201 1.7147 87.9131 53.8950 120.1900 270.0220 250.3360 289.7090 277.1050 597.1439 486.3020
  791.500 1.9588 2.3620 1.7500 31.1160 8.8198 1.7653 86.7625 53.8620 94.4470 245.1260 244.2950 245.9580 298.7580 585.0570 465.5540
  791.600 2.2029 2.4051 1.6950 37.2320 9.4601 1.8560 86.4090 50.9410 79.4850 225.3380 243.6240 207.0510 314.4970 568.2080 442.4100
  791.700 2.5704 2.4830 1.6840 45.5370 9.9600 2.0080 88.0895 49.5480 58.7140 227.8910 230.2010 225.5810 324.6860 552.9089 423.0340
  791.800 2.8973 2.4799 1.7060 54.0990 10.2000 2.2881 89.2402 49.3150 36.0070 232.3590 234.2280 230.4910 332.7500 542.9230 409.8230
  791.900 3.2810 2.5369 1.7060 63.8310 10.0399 2.7227 90.6553 47.6230 15.6320 225.3380 229.5300 221.1450 339.6390 537.6930 401.8380
  792.000 4.0458 2.6107 1.6840 73.6600 9.1003 3.2559 90.8325 50.0120 5.8190 229.1680 228.1880 230.1470 337.1000 530.3490 395.5100
  792.100 5.8345 2.7889 1.6500 85.0130 7.3996 3.8001 90.7440 47.6230 4.9390 230.4440 226.8460 234.0430 329.4170 521.7830 390.0160
  792.200 11.2720 2.9002 1.5840 98.1460 5.5400 4.3039 90.3901 47.0250 1.2420 236.8280 230.2010 243.4540 311.8790 510.9450 386.1930
  792.300 28.5102 2.8989 1.5290 111.0650 3.9802 4.6614 90.2131 42.7110 9.5590 234.9130 230.8720 238.9530 286.1850 499.5250 385.0510
  792.400 93.7562 2.9540 1.4730 121.6990 2.9198 4.9040 90.6553 40.4550 15.1040 232.9980 228.8590 237.1370 250.5780 485.8110 385.5790
  792.500 186.6379 2.9317 1.4070 130.6580 2.1801 4.9706 90.8324 39.5920 22.5850 233.6360 224.1610 243.1110 214.6310 472.7950 386.9430
  792.600 751.6227 2.9231 1.4070 137.9650 1.5799 5.0827 90.8323 36.8380 28.4820 234.2740 226.8460 241.7030 186.9730 462.8930 388.1040
  792.700 792.5012 3.0354 1.3730 141.8600 1.3000 5.0293 91.0093 36.5390 26.1940 234.2740 224.1610 244.3880 172.2940 458.6470 389.7290
  792.800 512.8615 3.0035 1.3730 143.0510 1.1000 5.0106 90.9210 33.0880 29.9340 231.0830 222.8190 239.3470 168.4920 458.7520 391.3550
  792.900 359.7493 3.0301 1.4730 142.8800 1.1600 5.0507 90.6558 34.1170 26.5460 231.0830 224.1610 238.0040 166.7560 460.1420 393.4390
  793.000 984.0112 2.9902 1.5950 142.1290 1.2200 5.1866 90.0362 32.1590 27.4260 229.1680 226.1740 232.1610 167.3400 461.5320 394.5960
  793.100 9840.1104 2.9096 1.7830 140.5190 1.3600 5.2827 89.1517 31.8930 22.3650 227.8910 225.5030 230.2790 161.6830 461.2510 396.5780
  793.200 1321.3000 3.0415 1.9270 139.2740 1.3400 5.2507 87.2059 31.7600 20.2530 230.4440 225.5030 235.3850 159.1660 461.2070 397.5410
  793.300 11967.4102 3.1193 2.0830 137.4930 1.3200 5.2027 85.7897 29.5370 19.3730 227.2530 226.8460 227.6600 155.4880 461.1630 398.9670
  793.400 548.2770 3.0960 2.2490 135.9050 1.3200 5.0800 86.6740 31.7940 14.7080 228.5290 227.5170 229.5420 158.0270 461.9540 398.7430
  793.500 304.7895 3.0173 2.3930 134.5430 1.2600 5.0187 88.0903 29.5370 16.8640 227.2530 227.5170 226.9890 161.5730 463.8830 399.2540
  793.600 583.4451 3.0191 2.5810 132.9760 1.3600 5.0107 87.8243 29.9350 12.2440 229.8060 227.5170 232.0950 166.4750 466.3550 399.7650
  793.700 1006.9300 3.0787 2.8470 131.6990 1.3200 5.0613 85.6131 27.2470 13.3440 231.0830 228.1880 233.9780 169.6100 468.8270 400.9830
  793.800 1076.4700 2.9963 3.1910 130.3690 1.3600 5.0960 84.3744 27.5130 11.2760 234.9130 226.1740 243.6510 170.7210 469.9440 401.6560
  793.900 946.2373 3.0415 3.4790 129.0490 1.3800 5.0800 83.7555 28.5080 10.5720 235.5510 227.5170 243.5860 171.5020 470.5520 401.9510
  794.000 20464.4395 3.0105 3.9220 127.6860 1.6199 5.0667 80.9234 26.0530 10.4840 235.5510 229.5300 241.5720 173.8110 471.4990 401.9740
  794.100 27227.0098 2.9502 4.4320 126.3980 1.7600 5.0480 80.0397 28.1430 9.6910 234.9130 225.5030 244.3220 175.2800 472.2870 402.1750
  794.200 4720.6299 3.0218 5.0640 125.2400 1.6000 5.0000 80.9234 24.5930 8.9430 236.1900 227.5170 244.8620 176.2750 472.9560 402.4460
  794.300 3819.4399 3.1186 5.8170 124.1770 1.2801 5.0160 83.8439 26.4840 7.9310 235.5510 228.8590 242.2430 175.9200 473.2080 402.8400
  794.400 2197.8601 3.0320 6.7150 123.1470 1.0600 4.9867 84.7284 25.7540 10.3080 234.2740 228.1880 240.3610 176.1290 473.3930 402.9410
