~Version information
  VERS.                           2.00 : CWLS log ASCII Standard -Version 2.00
  WRAP.                             NO : One line per depth step
~Well information
#MNEM.UNIT              Data Type        Information
#----------------------------------------------------------------------
  STRT.M                         0.000 : çÄóÄãé áÄèàëà
  STOP.M                       840.000 : äéçÖñ áÄèàëà
  STEP.M                         0.100 : òÄÉ
  NULL.                      -999.2500 : äéÑ éíëìíëíÇàü àçîéêåÄñàà
  WELL.                            308 : Well Name
  FLD .                       KARATUBE : Field Name
  CTRY.                     KAZAKHSTAN : Country
  SRVC.        JSC "KAZPROMGEOPHYSICA" : Service company
  DATE.                       08.06.04 : Log date
~Curve information
#MNEM.UNIT                               Curve Description
#----------------------------------------------------------------------
  DEPT.M                               : Depth Curve
  LL3 .OHMM                            : Appar.resist.laterolog,3 electrodes
  RHOB.G/C3                            : Bulk density by gamma-gamma log
  GZ3 .OHMM                            : App.resistivity by lateral A2.0M0.5N
  GZ3B.OHMM                            : App.resistivity by lateral N0.5å2.0Ä
  GR  .UR/H                            : Gamma-ray log
  NGLD.UE                              : Neutron-gamma log
  SP  .MV                              : Spontaneous potential
  CILR.MMHO                            : Conduct. by sonde 7I1.6,react.signal
  CILA.MMHO                            : Conduct. by sonde 7I1.6,active signal
  CALI.MM                              : Caliper
  C1  .MM                              : Diameter from profile1
  C2  .MM                              : Diameter from profile2
  DTP .US/M                            : Interval travel time (P-wave)
  T1  .US                              : Travel time1
  T2  .US                              : Travel time2
~Parameter information
#MNEM.UNIT              Value            Description
#----------------------------------------------------------------------
  BS  .MM                        215.9 : Bit Size
~Ascii Log Data
# ...
  599.500 0.8318 2.0825 0.9300 1.3180 3.8200 1.4587 73.8474 392.3470 226.0680 220.8690 218.7920 222.9460 450.0580 1144.3400 964.3159
  599.600 0.8531 2.0741 0.9300 1.3400 3.7800 1.4693 74.7317 393.0770 223.0760 223.4230 220.1340 226.7110 460.5320 1150.9500 966.7390
  599.700 0.8299 2.0297 0.9080 1.3500 3.7200 1.4853 72.9631 395.1350 230.8650 224.0610 218.7920 229.3300 471.5380 1155.3199 966.7050
  599.800 0.8318 1.9914 0.9080 1.3830 3.9599 1.4933 72.4316 390.5550 234.0330 220.8690 220.1340 221.6040 475.7050 1155.8800 965.5930
  599.900 0.8260 1.9914 0.9190 1.3930 4.1400 1.4987 72.4310 392.0820 232.2290 224.0610 223.4900 224.6320 467.5260 1150.5200 963.5120
  600.000 0.8054 2.0619 0.8860 1.4790 4.2800 1.5013 74.6434 388.3980 231.9650 222.1460 220.8050 223.4860 454.2500 1141.8600 960.1599
  600.100 0.8222 2.0606 0.8520 1.4900 4.1200 1.5147 75.2627 389.5600 237.7740 223.4230 221.4770 225.3690 444.5790 1132.4900 954.6580
  600.200 0.8933 2.0715 0.8410 1.5540 4.0000 1.4693 74.7322 372.4690 244.6390 221.5070 222.1480 220.8670 442.9150 1124.5900 947.4280
  600.300 0.8974 2.0836 0.8300 1.5970 3.9600 1.5013 74.0240 373.8630 250.8880 223.4230 220.1340 226.7110 447.7920 1118.2400 939.1279
  600.400 0.8710 2.0422 0.8300 1.5650 4.0000 1.5307 73.4932 362.0820 268.7980 222.7840 218.7920 226.7760 457.2270 1113.2700 930.3829
  600.500 0.8511 2.0777 0.8640 1.6290 3.8801 1.5733 74.2012 354.3840 272.6710 221.5070 222.1480 220.8670 467.4600 1109.0000 922.0139
  600.600 0.8531 2.0741 0.8520 1.6290 3.8600 1.5600 74.9087 350.3350 284.5960 224.0610 222.1480 225.9740 475.2970 1104.6200 914.5000
  600.700 0.8551 2.0943 0.8520 1.6400 3.7600 1.4933 75.0857 346.2860 297.0940 219.5920 221.4770 217.7080 477.7460 1099.6100 908.5079
  600.800 0.8810 2.0486 0.8520 1.6830 3.7600 1.4613 74.2895 340.8110 314.2120 219.5920 220.8050 218.3800 474.6190 1094.0100 904.1630
  600.900 0.8851 2.0683 0.8410 1.6620 3.9201 1.3680 72.0786 331.5520 316.9410 224.0610 220.1340 227.9880 468.0810 1088.3199 901.0869
  601.000 0.8913 2.0140 0.8190 1.7370 3.9400 1.3733 71.5474 324.5500 326.9300 222.7840 222.1480 223.4210 463.1320 1082.8900 897.6379
  601.100 0.8872 2.0587 0.8640 1.8120 4.0599 1.4320 72.5203 314.3290 332.8270 222.7840 224.1610 221.4070 463.8870 1078.1200 892.5630
  601.200 0.8630 2.1014 0.8190 1.8010 4.0000 1.5227 73.2283 305.7010 340.4840 220.8690 222.1480 219.5910 470.6980 1074.3800 886.1000
  601.300 0.8222 2.0584 0.8080 1.8870 3.9200 1.5253 74.2010 303.7430 340.1760 222.7840 219.4630 226.1050 479.3090 1072.3199 880.5930
  601.400 0.7870 2.0355 0.8190 1.8980 4.0400 1.4827 73.1391 293.5230 353.5530 220.8690 221.4770 220.2620 482.4450 1071.5400 878.5580
  601.500 0.7889 2.0445 0.8520 1.9510 4.4398 1.4213 74.2008 282.2400 340.8800 224.0610 222.1480 225.9740 475.8810 1071.3199 880.9680
  601.600 0.8851 2.0974 0.8410 1.9830 5.5003 1.4080 72.5203 270.7580 333.6630 223.4230 223.4900 223.3550 460.1530 1070.9600 886.9010
  601.700 1.1220 2.1983 0.7860 2.1120 7.0600 1.3787 73.4048 254.2650 324.1580 224.6990 221.4770 227.9220 441.6540 1071.1100 894.4500
  601.800 1.2589 2.2605 0.8080 2.2840 8.8596 1.3813 73.2282 240.6920 316.8530 225.9760 220.8050 231.1470 426.5660 1072.1100 901.4800
  601.900 1.2972 2.2596 0.8750 2.4880 10.6403 1.3947 73.1398 218.9560 291.1090 224.6990 222.8190 226.5800 418.4530 1073.0400 905.6539
  602.000 1.3521 2.2991 0.8750 2.6490 11.8198 1.4507 72.6971 211.3570 277.7750 222.1460 226.8460 217.4460 416.1370 1072.1801 905.7290
  602.100 1.4028 2.2318 0.9300 2.8100 12.4801 1.4853 73.2277 198.9130 271.4390 218.9540 231.5440 206.3650 416.1110 1068.8700 902.4270
  602.200 1.4757 2.2242 1.0300 2.8950 12.1600 1.4613 74.2893 197.6180 268.6220 220.8690 230.2010 211.5370 414.2790 1064.3800 898.6660
  602.300 1.5101 2.2014 1.0850 2.9170 11.6002 1.3813 73.3160 198.6470 265.8500 222.7840 227.5170 218.0520 408.7880 1060.5601 897.0460
  602.400 1.5205 2.2095 1.1180 2.9380 11.2001 1.3680 72.6974 196.2910 272.8030 220.8690 226.1740 215.5640 400.8970 1058.8700 898.5139
  602.500 1.4928 2.2597 1.1740 2.9280 11.4799 1.4026 72.6093 197.2200 266.9940 219.5920 223.4900 215.6950 393.9250 1059.6300 902.0590
  602.600 1.4488 2.2864 1.2290 2.9490 11.7400 1.4240 72.6973 201.9320 270.2060 219.5920 224.1610 215.0240 392.1710 1062.5100 905.6439
  602.700 1.4488 2.2239 1.2630 2.9170 11.4200 1.3334 72.1666 200.7050 274.0790 220.2310 226.1740 214.2870 397.9880 1066.5699 907.3800
  602.800 1.4125 2.2513 1.2510 2.9060 11.1800 1.2400 71.2816 208.4370 273.1990 222.7840 226.1740 219.3940 410.8980 1070.6300 906.2689
  602.900 1.4555 2.2568 1.3070 2.8740 10.7800 1.1867 71.4586 209.8970 276.6310 221.5070 227.5170 215.4980 426.9510 1073.6500 902.8669
  603.000 1.5668 2.1048 1.3180 2.8420 10.3202 1.1813 72.0782 211.4900 271.3060 224.0610 230.2010 217.9200 440.4570 1075.1200 898.9330
  603.100 1.7783 1.9131 1.3730 2.8630 9.3398 1.2160 73.1393 207.4740 275.7510 224.0610 229.5300 218.5920 449.4650 1075.3700 895.5840
  603.200 1.8239 1.6251 1.3960 2.8740 8.1000 1.2373 73.9352 208.6690 273.0230 225.9760 230.8720 221.0790 453.8820 1075.0000 893.4470
  603.300 1.6520 1.5114 1.4070 2.8630 7.0802 1.2747 73.3157 210.8920 276.9830 221.5070 224.8320 218.1830 457.4490 1074.5500 891.5670
  603.400 1.3868 1.6271 1.4510 2.8530 6.9201 1.2587 71.9011 209.6980 266.3780 224.0610 222.1480 225.9740 460.5400 1073.7600 889.5460
  603.500 1.2972 1.8855 1.5170 2.8420 7.6997 1.2747 70.0427 215.1400 266.1580 221.5070 224.8320 218.1830 463.0780 1072.0300 886.7970
  603.600 1.2942 2.1438 1.5730 2.8310 8.7202 1.2613 70.2200 215.0070 268.8860 224.0610 220.8050 227.3160 462.6160 1068.2800 883.2310
  603.700 1.3213 2.1758 1.6280 2.7670 9.3600 1.2693 70.5738 218.5580 275.5310 222.1460 219.4630 224.8290 458.2870 1062.4200 879.1010
  603.800 1.3397 2.2149 1.6950 2.6590 9.8599 1.3440 71.9898 226.2570 277.6870 222.7840 219.4630 226.1050 450.2990 1055.2800 875.1599
  603.900 1.3459 2.1936 1.6730 2.6060 9.9200 1.4080 71.1935 227.6510 290.3170 217.0390 216.7790 217.3000 439.6360 1048.8800 873.0300
  604.000 1.3335 2.1956 1.6170 2.5200 9.8601 1.4560 70.1311 231.5330 284.9040 220.2310 219.4630 220.9980 431.4660 1044.8101 872.2280
  604.100 1.3274 2.1726 1.5510 2.4230 9.5600 1.4693 68.1853 236.5110 289.0410 220.2310 220.1340 220.3270 429.4060 1042.9800 871.2180
  604.200 1.3305 2.1672 1.5510 2.2300 9.7600 1.4693 66.7703 232.7940 295.8180 222.1460 225.5030 218.7880 435.9730 1042.4000 868.0050
  604.300 1.2972 2.1307 1.6060 2.1010 10.0999 1.4560 67.4780 238.6680 292.6050 225.9760 223.4900 228.4620 443.4250 1041.3500 863.9829
  604.400 1.2942 2.1757 1.6500 2.0260 10.9002 1.3787 67.3888 232.8610 285.5200 222.7840 224.1610 221.4070 444.5410 1039.3000 861.4850
  604.500 1.3335 2.1899 1.6730 1.9830 11.3999 1.3867 68.4505 231.6330 280.5480 224.6990 224.1610 225.2370 437.8310 1037.0000 861.8719
  604.600 1.3614 2.2148 1.6730 1.9620 11.5999 1.3893 68.5393 228.4140 284.0240 225.3380 223.4900 227.1850 429.5090 1035.5000 863.6970
  604.700 1.3552 2.2019 1.7280 2.0050 11.7200 1.4347 69.7778 230.6040 284.2440 227.2530 223.4900 231.0150 427.1280 1035.5000 864.6479
  604.800 1.3490 2.1849 1.8170 2.0160 11.7999 1.4187 69.0699 226.4560 284.2440 224.0610 224.1610 223.9610 428.4850 1034.9100 863.5170
  604.900 1.3677 2.1446 1.8830 2.0590 11.8399 1.4267 69.1587 228.5800 280.0640 224.0610 224.1610 223.9610 430.1530 1032.7300 860.6730
  605.000 1.3583 2.0815 1.8720 2.0910 11.3401 1.4187 68.8937 227.5180 280.7680 224.0610 223.4900 224.6320 427.6120 1028.7800 857.7340
  605.100 1.3183 1.9470 1.9500 2.1550 10.9399 1.4613 69.6010 231.0690 276.1030 222.7840 223.4900 222.0780 426.4840 1026.1600 855.5630
  605.200 1.3032 2.0481 2.0380 2.1770 11.0200 1.4587 68.8048 224.4320 283.3200 225.9760 226.1740 225.7770 426.8390 1024.8199 854.0859
  605.300 1.2853 2.1983 2.0600 2.2410 11.7797 1.4507 68.8048 232.0310 282.9240 225.9760 224.8320 227.1200 429.4200 1024.4700 852.6980
  605.400 1.2078 2.2354 2.0600 2.3050 12.7402 1.4027 67.3011 234.0890 286.3570 221.5070 222.1480 220.8670 427.4900 1022.4400 851.4480
