~Version information
  VERS.                           2.00 : CWLS log ASCII Standard -Version 2.00
  WRAP.                             NO : One line per depth step
~Well information
#MNEM.UNIT              Data Type        Information
#----------------------------------------------------------------------
  STRT.M                         0.000 : çÄóÄãé áÄèàëà
  STOP.M                       840.000 : äéçÖñ áÄèàëà
  STEP.M                         0.100 : òÄÉ
  NULL.                      -999.2500 : äéÑ éíëìíëíÇàü àçîéêåÄñàà
  WELL.                            308 : Well Name
  FLD .                       KARATUBE : Field Name
  CTRY.                     KAZAKHSTAN : Country
  SRVC.        JSC "KAZPROMGEOPHYSICA" : Service company
  DATE.                       08.06.04 : Log date
~Curve information
#MNEM.UNIT                               Curve Description
#----------------------------------------------------------------------
  DEPT.M                               : Depth Curve
  LL3 .OHMM                            : Appar.resist.laterolog,3 electrodes
  RHOB.G/C3                            : Bulk density by gamma-gamma log
  GZ3 .OHMM                            : App.resistivity by lateral A2.0M0.5N
  GZ3B.OHMM                            : App.resistivity by lateral N0.5å2.0Ä
  GR  .UR/H                            : Gamma-ray log
  NGLD.UE                              : Neutron-gamma log
  SP  .MV                              : Spontaneous potential
  CILR.MMHO                            : Conduct. by sonde 7I1.6,react.signal
  CILA.MMHO                            : Conduct. by sonde 7I1.6,active signal
  CALI.MM                              : Caliper
  C1  .MM                              : Diameter from profile1
  C2  .MM                              : Diameter from profile2
  DTP .US/M                            : Interval travel time (P-wave)
  T1  .US                              : Travel time1
  T2  .US                              : Travel time2
~Parameter information
#MNEM.UNIT              Value            Description
#----------------------------------------------------------------------
  BS  .MM                        215.9 : Bit Size
~Ascii Log Data
# ...
  357.100 2.3933 2.0973 5.9730 4.5050 7.5000 1.4613 69.4240 124.0810 233.9450 222.7840 221.4770 224.0920 426.8000 1066.3700 895.6500
  357.200 2.4155 2.0567 5.8060 4.4410 7.5600 1.4800 69.4240 123.0520 236.9820 224.0610 221.4770 226.6450 421.8680 1066.6300 897.8820
  357.300 2.4322 2.0871 5.7840 4.3870 7.4000 1.4613 70.8391 128.4610 240.5460 221.5070 222.1480 220.8670 420.1830 1067.5500 899.4819
  357.400 2.3988 2.0975 5.6730 4.4190 7.2200 1.4613 70.8393 124.0140 239.5780 222.1460 221.4770 222.8150 422.2290 1069.1300 900.2379
  357.500 2.3605 2.0897 5.5070 4.3980 6.9600 1.4827 71.4587 128.7930 237.6420 223.4230 219.4630 227.3820 428.1220 1071.5900 900.3440
  357.600 2.3496 2.0849 5.3520 4.3760 7.0400 1.4773 73.0510 124.4790 238.3460 221.5070 221.4770 221.5380 432.3610 1073.2800 900.3330
  357.700 2.4099 2.1181 5.2970 4.3650 7.1400 1.5200 73.1393 127.2000 238.4340 220.2310 219.4630 220.9980 434.1510 1074.1100 900.4509
  357.800 2.4378 2.1112 5.1410 4.3550 7.4400 1.5467 72.7853 130.1870 237.3780 223.4230 218.7920 228.0530 433.6360 1074.2000 900.7490
  357.900 2.4491 2.0563 5.0310 4.3550 7.6200 1.5573 71.6355 127.8640 242.0870 222.1460 220.8050 223.4860 434.3970 1074.5500 900.7960
  358.000 2.3496 2.0910 4.9420 4.3650 7.8800 1.5227 71.4583 128.0300 237.2460 224.6990 222.1480 227.2510 438.2920 1075.3800 900.0590
  358.100 2.3067 2.1366 4.8640 4.3760 7.7400 1.4560 70.7507 128.6930 238.2580 221.5070 221.4770 221.5380 445.1790 1076.5100 898.4399
  358.200 2.3121 2.1151 4.8090 4.3650 7.4400 1.4320 71.1930 125.9390 240.0620 224.6990 221.4770 227.9220 452.3570 1077.5699 896.6300
  358.300 2.3174 2.1052 4.7200 4.3870 7.3400 1.3840 71.3701 128.9260 238.8300 225.3380 220.8050 229.8700 456.2780 1078.1400 895.6300
  358.400 2.3067 2.1456 4.6870 4.4080 7.5599 1.4053 72.5199 127.4320 241.1180 224.6990 220.1340 229.2640 456.1050 1078.5400 896.0940
  358.500 2.3227 2.0911 4.6320 4.4300 8.0000 1.4000 73.0510 131.6800 235.5740 224.0610 220.8050 227.3160 457.1980 1079.4399 896.5580
  358.600 2.3121 2.0388 4.6090 4.4410 7.9200 1.4187 73.1397 122.3880 241.3820 222.7840 219.4630 226.1050 462.1920 1081.4500 896.5780
  358.700 2.3067 2.0479 4.5210 4.3980 7.5400 1.3920 72.4320 129.4570 239.2260 220.2310 221.4770 218.9850 471.2800 1083.8900 895.3729
  358.800 2.2856 2.0429 4.4430 4.3870 7.3400 1.3733 71.7239 129.7220 242.0870 225.3380 219.4630 231.2120 478.3610 1086.3300 894.9829
  358.900 2.3174 2.0797 4.3990 4.4300 7.2200 1.3280 71.1047 127.3330 242.5270 224.6990 218.7920 230.6070 479.7970 1087.7000 895.7789
  359.000 2.3442 2.0884 4.3880 4.3980 7.6200 1.3360 69.1587 127.2000 239.3580 224.6990 220.1340 229.2640 475.0830 1088.6300 898.5930
  359.100 2.3496 2.0820 4.3660 4.4080 7.9200 1.3467 69.1587 128.1290 240.8540 224.0610 220.8050 227.3160 465.9910 1089.2400 902.8400
  359.200 2.3550 2.0308 4.3210 4.4510 8.3800 1.4027 70.0433 126.5360 241.9550 223.4230 220.1340 226.7110 454.7630 1091.5100 909.6069
  359.300 2.3714 2.0903 4.2990 4.4620 8.4200 1.4400 72.6971 127.6310 240.7220 219.5920 218.7920 220.3930 434.8670 1095.2100 921.2679
  359.400 2.3605 2.0985 4.2880 4.4840 8.2600 1.4453 73.5817 126.4370 242.4830 217.0390 218.7920 215.2860 404.8650 1100.5300 938.5869
  359.500 2.3550 2.0573 4.2550 4.5050 7.7000 1.4427 72.5200 130.6510 236.2780 220.2310 219.4630 220.9980 374.5540 1107.6300 957.8080
  359.600 2.3496 2.1111 4.1880 4.5260 7.3600 1.4240 72.5200 122.1230 241.5140 224.6990 220.1340 229.2640 364.4390 1116.3700 970.5950
  359.700 2.3714 2.0705 4.1880 4.5480 7.3400 1.4373 71.7240 128.5270 237.9060 222.7840 219.4630 226.1050 379.7480 1126.2700 974.3669
  359.800 2.3442 2.1412 4.1220 4.5690 7.5000 1.4560 71.3698 129.2240 242.7910 224.0610 222.1480 225.9740 404.7920 1133.7300 971.8090
  359.900 2.3550 2.1276 4.0770 4.5800 7.6000 1.4587 68.1857 127.1340 241.0740 226.6140 224.8320 228.3960 425.8580 1140.4800 970.1420
  360.000 2.3878 2.1203 4.1440 4.5690 7.7200 1.5013 66.2390 127.8640 236.3220 225.9760 222.1480 229.8040 444.8240 1148.3199 970.3910
  360.100 2.4044 2.1514 4.0660 4.6230 7.8800 1.4987 65.6200 127.2330 237.9500 225.9760 223.4900 228.4620 475.1950 1161.8900 971.8130
  360.200 2.4044 2.1450 4.0550 4.6870 7.9200 1.5067 67.4777 125.6070 239.2260 222.1460 222.1480 222.1440 515.4359 1177.3500 971.1810
  360.300 2.3659 2.1252 4.0660 4.7410 8.1600 1.4453 68.3623 126.3370 237.9500 224.0610 220.8050 227.3160 554.4430 1191.7100 969.9340
  360.400 2.3227 2.1981 4.1000 4.7410 8.2400 1.4240 67.7432 125.4080 240.1500 226.6140 221.4770 231.7520 575.7990 1198.3101 967.9910
  360.500 2.3442 2.1250 4.0890 4.8270 8.3600 1.4053 66.6817 127.6980 236.1020 224.0610 220.8050 227.3160 578.8950 1198.6100 967.0480
  360.600 2.3442 2.1769 4.1110 4.8480 8.2200 1.4080 67.2123 122.1230 241.0740 224.6990 223.4900 225.9090 584.4659 1198.4000 964.6079
  360.700 2.3442 2.1638 4.1440 4.8480 8.2600 1.3893 69.6010 126.8350 237.0700 224.6990 220.8050 228.5930 599.4650 1201.4900 961.7050
  360.800 2.3442 2.1962 4.1110 4.9130 8.1200 1.3813 71.2818 127.5650 242.9670 224.0610 220.8050 227.3160 625.2500 1207.2300 957.1339
  360.900 2.3933 2.1575 4.0890 4.9560 8.1800 1.4133 72.4320 125.0100 238.5660 223.4230 220.8050 226.0400 631.0420 1204.6200 952.2009
  361.000 2.3988 2.0935 4.0330 4.9990 8.1200 1.4213 70.9280 126.5360 235.0460 223.4230 220.1340 226.7110 656.6140 1208.8500 946.2100
  361.100 2.3550 2.0995 4.1110 5.0200 7.8400 1.4480 71.7243 124.6120 237.9500 217.6770 220.8050 214.5490 661.4349 1206.1400 941.5680
  361.200 2.3227 2.0401 4.0770 5.0520 7.6600 1.4827 71.9010 122.1890 237.4220 215.7620 218.1210 213.4040 676.8440 1209.6100 938.8700
  361.300 2.3388 2.0485 4.0660 5.1060 7.4000 1.5360 73.3163 125.7730 237.5540 214.4860 219.4630 209.5080 665.6539 1203.2300 936.9650
  361.400 2.3174 2.0307 4.0440 5.0950 7.4401 1.5493 73.5816 124.9100 242.5270 217.6770 219.4630 215.8920 669.5270 1202.2800 934.4730
  361.500 2.3335 2.0496 3.9890 5.0840 6.9000 1.4827 74.5550 124.3460 237.8620 222.7840 224.1610 221.4070 666.0339 1197.4301 931.0170
  361.600 2.3388 2.0363 3.9000 5.0630 6.7400 1.4453 74.7320 123.7820 241.6470 226.6140 223.4900 229.7390 653.4430 1189.0601 927.6840
  361.700 2.3227 2.0803 3.8340 5.0520 6.9600 1.3867 72.3433 123.3840 240.7660 236.8280 228.8590 244.7970 634.0310 1176.3600 922.7490
  361.800 2.3227 2.1198 3.8120 4.9770 7.4400 1.3707 72.1665 126.0390 244.7710 234.9130 224.8320 244.9930 618.8879 1162.2800 914.7290
  361.900 2.3067 2.1264 3.7780 4.9230 7.5000 1.3733 72.9619 120.7620 237.9940 224.6990 221.4770 227.9220 605.6169 1148.0601 905.8190
  362.000 2.2856 2.1025 3.7560 4.9560 7.5600 1.4053 75.5280 122.3550 236.1020 225.9760 222.1480 229.8040 583.5260 1133.7500 900.3380
  362.100 2.3227 2.0792 3.7560 4.9880 7.6400 1.4160 74.8203 119.7330 235.7060 229.1680 223.4900 234.8450 544.3839 1120.3300 902.5740
  362.200 2.3714 2.1173 3.7670 5.0410 8.0400 1.4133 72.5203 117.0790 236.0580 226.6140 221.4770 231.7520 500.2240 1109.0800 908.9890
  362.300 2.4099 2.1733 3.7560 5.0630 8.0200 1.3813 71.1045 119.6010 231.0410 227.2530 221.4770 233.0290 467.3080 1101.6300 914.7059
  362.400 2.5061 2.1264 3.7450 5.0950 7.7800 1.3760 69.8659 116.7800 236.9820 226.6140 220.1340 233.0940 454.1530 1096.9600 915.3010
  362.500 2.4604 2.1281 3.8230 5.2020 7.3600 1.3627 69.7777 114.6890 229.7210 228.5290 220.8050 236.2530 451.9600 1092.0300 911.2469
  362.600 2.4210 2.1629 3.8340 5.2350 7.2000 1.3707 71.1933 113.8600 227.2570 224.6990 222.8190 226.5800 449.7810 1084.7700 904.8619
  362.700 2.3550 2.1168 3.9000 5.2130 7.3000 1.4000 72.5203 111.0720 229.5450 225.3380 224.1610 226.5140 445.1390 1073.9800 895.9220
  362.800 2.2751 2.0432 3.8890 5.1490 7.6801 1.3973 74.2009 114.5230 231.2170 227.8910 222.1480 233.6340 438.7340 1060.8101 885.3180
  362.900 2.2542 2.0804 3.8890 5.0200 8.0200 1.3867 74.2893 109.5460 229.3250 224.6990 221.4770 227.9220 437.2380 1048.8000 873.9060
  363.000 2.2439 2.0590 3.9220 4.9660 8.1000 1.4107 74.9970 112.9970 226.9050 222.1460 222.1480 222.1440 436.6870 1040.5900 865.9130
  363.100 2.2284 2.2143 3.8890 4.8700 8.2400 1.4587 73.4047 106.5260 230.3370 220.8690 222.1480 219.5910 435.0980 1036.8700 862.8340
