~Version information
  VERS.                           2.00 : CWLS log ASCII Standard -Version 2.00
  WRAP.                             NO : One line per depth step
~Well information
#MNEM.UNIT              Data Type        Information
#----------------------------------------------------------------------
  STRT.M                         0.000 : çÄóÄãé áÄèàëà
  STOP.M                       840.000 : äéçÖñ áÄèàëà
  STEP.M                         0.100 : òÄÉ
  NULL.                      -999.2500 : äéÑ éíëìíëíÇàü àçîéêåÄñàà
  WELL.                            308 : Well Name
  FLD .                       KARATUBE : Field Name
  CTRY.                     KAZAKHSTAN : Country
  SRVC.        JSC "KAZPROMGEOPHYSICA" : Service company
  DATE.                       08.06.04 : Log date
~Curve information
#MNEM.UNIT                               Curve Description
#----------------------------------------------------------------------
  DEPT.M                               : Depth Curve
  LL3 .OHMM                            : Appar.resist.laterolog,3 electrodes
  RHOB.G/C3                            : Bulk density by gamma-gamma log
  GZ3 .OHMM                            : App.resistivity by lateral A2.0M0.5N
  GZ3B.OHMM                            : App.resistivity by lateral N0.5å2.0Ä
  GR  .UR/H                            : Gamma-ray log
  NGLD.UE                              : Neutron-gamma log
  SP  .MV                              : Spontaneous potential
  CILR.MMHO                            : Conduct. by sonde 7I1.6,react.signal
  CILA.MMHO                            : Conduct. by sonde 7I1.6,active signal
  CALI.MM                              : Caliper
  C1  .MM                              : Diameter from profile1
  C2  .MM                              : Diameter from profile2
  DTP .US/M                            : Interval travel time (P-wave)
  T1  .US                              : Travel time1
  T2  .US                              : Travel time2
~Parameter information
#MNEM.UNIT              Value            Description
#----------------------------------------------------------------------
  BS  .MM                        215.9 : Bit Size
~Ascii Log Data
# ...
  169.200 2.2803 2.0480 3.7230 4.0970 5.9400 1.4187 74.0239 135.1310 245.8710 231.7210 244.9660 218.4760 530.8359 1227.9800 1015.6400
  169.300 2.2080 2.0682 3.8560 4.0760 5.8200 1.4053 75.8818 137.9520 246.7950 230.4440 242.2820 218.6070 532.1169 1229.3800 1016.5300
  169.400 2.1727 1.9450 3.8890 4.0870 5.5600 1.4400 77.9162 141.5360 244.5950 238.7430 235.5700 241.9150 532.5659 1231.0000 1017.9700
  169.500 2.1777 1.9979 3.8560 4.0330 5.4600 1.4587 78.8897 139.8770 251.5920 226.6140 230.2010 223.0270 527.7280 1230.8199 1019.7300
  169.600 2.2029 1.9708 3.8450 4.0010 5.5200 1.4533 79.4203 138.5160 242.0430 229.1680 236.2420 222.0940 526.2340 1231.5400 1021.0500
  169.700 2.1979 1.9878 3.8340 4.0220 5.4600 1.4000 78.4474 140.8720 240.1500 227.2530 238.2550 216.2500 525.8519 1231.6000 1021.2600
  169.800 2.0277 1.9716 3.8230 3.9900 5.1400 1.3333 78.0049 136.0600 244.6830 233.6360 232.8860 234.3860 529.6250 1232.7400 1020.8900
  169.900 1.8750 1.9872 3.8340 4.0110 4.9200 1.3307 78.3589 138.7480 243.0110 230.4440 230.8720 230.0160 533.5790 1233.4301 1020.0000
  170.000 1.9498 2.0525 3.8120 4.0440 4.9800 1.3413 79.9513 142.1660 242.6150 234.2740 230.8720 237.6760 536.9769 1234.3500 1019.5500
  170.100 2.0559 1.9815 3.8780 4.0870 5.1200 1.3440 80.6590 141.0380 248.1590 234.2740 230.2010 238.3480 541.7260 1235.5800 1018.8900
  170.200 2.0893 1.9432 3.8340 4.1190 5.4600 1.3467 80.5707 139.9100 244.5510 231.7210 230.8720 232.5700 544.6270 1235.7800 1017.9300
  170.300 2.0893 2.0090 3.8230 4.1080 5.6800 1.3387 80.3937 140.6730 245.4750 236.8280 235.5700 238.0850 547.6000 1235.5300 1016.4900
  170.400 2.0797 1.9930 3.7780 4.1190 5.8000 1.3973 80.6590 137.3550 248.2910 243.8500 237.5840 250.1160 549.1000 1234.8500 1015.2100
  170.500 2.1827 1.9716 3.8120 4.1720 5.8400 1.4453 80.5703 142.9960 246.7070 243.2110 236.2420 250.1810 552.0320 1235.0100 1014.2000
  170.600 2.3227 1.9174 3.7340 4.1940 5.8200 1.4267 80.1280 140.1420 251.1960 240.6580 234.2280 247.0880 554.5250 1235.3500 1013.5400
  170.700 2.4044 1.9296 3.7120 4.2260 5.9400 1.3893 78.8898 140.6070 252.0760 239.3810 233.5570 245.2060 555.5399 1235.6100 1013.3900
  170.800 2.3933 1.9630 3.7010 4.2370 5.9600 1.3200 77.5626 137.5540 249.7880 236.8280 236.2420 237.4140 556.7760 1235.8600 1013.1500
  170.900 2.1777 1.9312 3.6670 4.2900 5.7600 1.3573 75.6164 137.4870 247.2790 236.8280 232.8860 240.7700 556.1200 1236.0601 1013.6100
  171.000 2.0654 1.7670 3.7230 4.3650 5.6400 1.4080 74.2893 136.5250 244.5070 231.7210 226.1740 237.2680 555.7760 1235.8000 1013.4900
  171.100 2.1281 1.7018 3.7890 4.3650 5.5800 1.4293 74.8204 141.4360 250.2280 225.9760 226.1740 225.7770 553.8270 1235.2300 1013.7000
  171.200 2.1577 1.7679 3.8340 4.2690 5.6400 1.3973 76.1472 137.5210 249.1280 227.2530 233.5570 220.9480 555.0250 1234.6801 1012.6700
  171.300 2.1777 1.8127 3.8230 4.1510 5.7600 1.3387 77.6510 141.9010 248.0270 224.6990 248.9930 200.4050 556.8910 1234.5300 1011.7800
  171.400 2.2439 1.8435 3.7120 4.0540 5.9000 1.3413 78.4470 135.8280 251.0200 228.5290 263.7580 193.3000 558.1500 1234.1500 1010.8900
  171.500 2.1528 1.7178 3.6560 3.9900 5.9600 1.3573 79.4203 138.3830 250.4920 224.6990 267.7850 181.6130 557.0389 1233.2600 1010.4400
  171.600 1.9454 1.6767 3.5460 3.9680 5.8000 1.3840 80.1283 141.1710 249.3480 224.6990 257.7180 191.6800 554.6320 1232.3000 1010.4400
  171.700 1.8493 1.6746 3.5120 3.9900 5.7600 1.4160 80.4823 139.6110 255.5520 224.6990 246.9800 202.4190 551.1129 1230.7400 1010.3000
  171.800 1.9953 1.6919 3.5790 4.0010 5.8400 1.4267 80.3937 140.0090 251.3720 224.6990 239.5970 209.8010 547.3170 1229.2600 1010.3300
  171.900 2.1528 1.7721 3.6120 3.9790 6.2000 1.4293 80.6590 144.1240 253.7480 229.1680 228.1880 230.1470 544.7660 1228.1899 1010.2800
  172.000 2.2646 1.9591 3.5340 4.0010 6.2000 1.4080 80.8357 136.8240 257.5770 224.6990 235.5700 213.8280 545.4199 1229.1300 1010.9600
  172.100 2.3121 2.0558 3.5230 4.0650 6.1800 1.4053 81.2781 141.7680 251.8120 224.6990 244.9660 204.4320 549.4800 1232.0500 1012.2600
  172.200 2.3014 2.0328 3.5230 4.1290 6.0800 1.3787 80.5704 142.4650 251.2400 227.2530 232.8860 221.6190 552.5859 1234.9800 1013.9500
  172.300 2.3227 1.9877 3.4790 4.1830 6.2200 1.4267 79.2436 138.9810 251.6360 232.3590 225.5030 239.2160 554.0770 1237.1500 1015.5200
  172.400 2.3227 2.0253 3.5340 4.2370 6.3600 1.4293 78.5359 138.2840 245.7390 233.6360 228.1880 239.0840 553.0100 1238.2000 1017.0000
  172.500 2.3067 2.0222 3.6010 4.2900 6.6400 1.4587 78.0937 139.6110 246.6190 231.7210 222.8190 240.6230 552.3350 1238.4399 1017.5100
  172.600 2.2439 2.0533 3.6120 4.2690 6.6600 1.4107 78.8013 135.8610 248.8630 225.3380 222.8190 227.8560 550.4619 1238.1899 1018.0000
  172.700 2.1878 2.1025 3.6230 4.2470 6.6200 1.3947 78.3589 140.2750 247.7630 233.6360 227.5170 239.7560 547.0070 1237.3199 1018.5200
  172.800 2.1727 2.0162 3.6120 4.2470 6.0600 1.3653 79.5090 139.3460 252.6480 232.9980 230.8720 235.1230 542.0530 1237.6400 1020.8100
  172.900 2.2439 1.9412 3.6120 4.1940 5.7200 1.3707 78.8897 139.6780 250.6680 229.8060 226.8460 232.7660 538.0029 1238.3900 1023.1800
  173.000 2.2751 1.9790 3.6010 4.1290 5.4800 1.3867 79.9513 139.2460 252.0320 226.6140 232.8860 220.3430 536.3729 1239.6600 1025.1100
  173.100 2.3121 1.9910 3.5680 4.1290 5.7600 1.4133 80.5704 141.3040 251.5480 225.9760 234.2280 217.7240 537.8550 1240.4000 1025.2600
  173.200 2.2856 1.9733 3.5790 4.1510 5.8200 1.3627 81.3667 140.6730 251.1960 226.6140 232.2150 221.0140 539.7990 1240.8400 1024.9301
  173.300 2.2336 1.9441 3.6010 4.1620 6.0200 1.3493 81.7204 140.9720 248.8630 225.9760 228.1880 223.7640 539.9470 1241.0900 1025.1100
  173.400 2.1086 1.9437 3.6560 4.1720 6.2600 1.3413 82.6936 141.3370 251.7240 229.1680 228.1880 230.1470 535.8550 1241.3000 1026.9600
  173.500 2.0701 1.9369 3.6790 4.1620 6.5000 1.3307 83.8437 144.7220 246.8390 227.2530 233.5570 220.9480 531.1140 1242.1100 1029.6700
  173.600 2.1184 2.0313 3.7340 4.1940 6.6200 1.3467 84.0206 139.5780 253.0000 224.0610 229.5300 218.5920 527.1329 1243.3000 1032.4399
  173.700 2.1979 2.0756 3.7230 4.2150 6.3200 1.3573 83.3130 143.5930 250.6680 225.3380 224.8320 225.8430 524.9099 1244.7400 1034.7800
  173.800 2.2856 2.0430 3.6790 4.2580 5.9600 1.3787 82.2513 146.0490 254.7600 222.7840 223.4900 222.0780 521.6229 1245.6500 1037.0000
  173.900 2.3174 2.0542 3.6010 4.3120 5.5400 1.3573 81.0131 144.2240 252.1640 220.8690 222.1480 219.5910 517.6880 1246.4399 1039.3700
  174.000 2.3605 1.9883 3.5900 4.3650 5.3000 1.3440 80.7473 144.2240 250.8880 225.3380 224.8320 225.8430 513.0110 1246.7200 1041.5200
  174.100 2.3442 2.0016 3.5900 4.3550 5.1400 1.3813 81.5434 146.2150 244.5510 224.0610 223.4900 224.6320 508.8920 1246.6700 1043.1100
  174.200 2.2594 2.0067 3.6450 4.3550 5.2600 1.3947 82.8703 139.7440 247.2790 223.4230 225.5030 221.3420 504.1240 1245.8300 1044.1899
  174.300 2.2909 1.9150 3.6120 4.3120 5.5000 1.3733 83.7550 144.9870 243.6710 220.8690 226.1740 215.5640 500.7440 1245.1100 1044.8101
  174.400 2.2909 2.0497 3.6230 4.2150 5.9800 1.3307 83.3127 147.7080 252.1640 220.8690 225.5030 216.2350 497.1330 1244.7400 1045.8900
  174.500 2.2284 2.0892 3.5680 4.1830 6.1800 1.3147 82.0740 144.8540 248.8190 220.8690 227.5170 214.2210 493.7070 1245.1899 1047.7000
  174.600 2.1928 2.0137 3.6230 4.1400 6.1200 1.3227 78.9778 148.3720 250.0080 224.6990 226.8460 222.5530 487.4110 1245.4100 1050.4399
  174.700 2.2284 2.0352 3.5680 4.0540 5.7000 1.3067 77.8280 149.8990 250.7560 224.6990 229.5300 219.8680 480.2990 1245.5300 1053.4100
  174.800 2.1727 2.0529 3.5230 3.9900 5.3800 1.3120 77.4744 148.5050 256.3880 227.2530 230.8720 223.6330 472.6330 1245.1300 1056.0699
  174.900 2.2284 2.0252 3.5010 3.9680 5.2200 1.3413 77.8281 154.6440 250.6240 227.2530 232.2150 222.2910 468.3730 1245.3500 1058.0000
  175.000 2.2233 1.9841 3.4680 3.9680 5.4000 1.4400 77.7397 155.1090 260.4370 225.3380 227.5170 223.1580 472.5180 1247.7500 1058.7400
  175.100 2.1979 1.9733 3.4790 3.9790 5.5400 1.4693 76.7663 153.2170 255.7280 220.8690 224.1610 217.5770 481.7190 1252.2300 1059.5400
