~Version information
  VERS.                           2.00 : CWLS log ASCII Standard -Version 2.00
  WRAP.                             NO : One line per depth step
~Well information
#MNEM.UNIT              Data Type        Information
#----------------------------------------------------------------------
  STRT.M                         0.000 : çÄóÄãé áÄèàëà
  STOP.M                       840.000 : äéçÖñ áÄèàëà
  STEP.M                         0.100 : òÄÉ
  NULL.                      -999.2500 : äéÑ éíëìíëíÇàü àçîéêåÄñàà
  WELL.                            308 : Well Name
  FLD .                       KARATUBE : Field Name
  CTRY.                     KAZAKHSTAN : Country
  SRVC.        JSC "KAZPROMGEOPHYSICA" : Service company
  DATE.                       08.06.04 : Log date
~Curve information
#MNEM.UNIT                               Curve Description
#----------------------------------------------------------------------
  DEPT.M                               : Depth Curve
  LL3 .OHMM                            : Appar.resist.laterolog,3 electrodes
  RHOB.G/C3                            : Bulk density by gamma-gamma log
  GZ3 .OHMM                            : App.resistivity by lateral A2.0M0.5N
  GZ3B.OHMM                            : App.resistivity by lateral N0.5å2.0Ä
  GR  .UR/H                            : Gamma-ray log
  NGLD.UE                              : Neutron-gamma log
  SP  .MV                              : Spontaneous potential
  CILR.MMHO                            : Conduct. by sonde 7I1.6,react.signal
  CILA.MMHO                            : Conduct. by sonde 7I1.6,active signal
  CALI.MM                              : Caliper
  C1  .MM                              : Diameter from profile1
  C2  .MM                              : Diameter from profile2
  DTP .US/M                            : Interval travel time (P-wave)
  T1  .US                              : Travel time1
  T2  .US                              : Travel time2
~Parameter information
#MNEM.UNIT              Value            Description
#----------------------------------------------------------------------
  BS  .MM                        215.9 : Bit Size
~Ascii Log Data
# ...
  217.700 4.3053 2.0366 7.3250 9.4190 6.2000 1.2613 72.6970 76.5930 184.3070 225.3380 218.7920 231.8830 508.0150 1175.6000 972.3989
  217.800 3.5400 2.0002 7.6570 9.3440 7.0000 1.2693 71.9892 73.6730 181.0500 222.1460 219.4630 224.8290 496.5850 1170.6801 972.0439
  217.900 3.2584 2.0111 7.8460 9.1400 7.3600 1.2960 71.3703 74.7020 179.8620 224.6990 219.4630 229.9350 496.9660 1170.0699 971.2810
  218.000 3.1696 2.0726 7.9230 8.7970 7.6800 1.3280 72.4317 74.6020 187.9150 225.3380 220.1340 230.5410 500.3240 1169.7900 969.6620
  218.100 3.1405 2.1264 7.9120 8.4000 7.8200 1.3520 72.8740 80.3100 195.2640 224.6990 220.8050 228.5930 505.8870 1169.6400 967.2810
  218.200 3.2359 2.0808 7.6790 7.9600 8.0000 1.3493 72.6087 76.1620 198.6970 223.4230 217.4500 229.3950 510.5900 1169.2500 965.0110
  218.300 3.4754 2.1397 7.3140 7.5950 8.2200 1.3653 70.5739 80.4760 197.2010 222.1460 215.4360 228.8550 511.5790 1167.8800 963.2450
  218.400 3.6644 2.1962 6.8920 7.5310 8.2600 1.3093 70.1317 77.7550 196.3200 223.4230 216.1070 230.7380 508.0980 1165.5100 962.2670
  218.500 3.8194 2.1262 6.5820 7.5950 8.4400 1.2480 69.7777 78.0200 191.7000 220.8690 216.7790 224.9600 502.1660 1162.4800 961.6150
  218.600 4.0738 2.1089 6.4820 7.7240 8.2800 1.1653 68.8045 80.0110 184.5270 224.0610 218.7920 229.3300 496.0770 1160.2400 961.8080
  218.700 3.9174 2.1036 6.5050 7.9600 8.2400 1.1600 67.3894 77.9870 185.4950 224.0610 216.1070 232.0140 492.0260 1159.3800 962.5680
  218.800 3.6308 2.1324 6.5270 8.1320 8.0600 1.2000 66.1507 76.8590 178.5420 225.3380 218.1210 232.5540 489.8290 1160.2300 964.3010
  218.900 3.4754 2.1535 6.6710 8.2280 7.8800 1.2427 65.7971 79.7460 177.4860 222.7840 218.7920 226.7760 486.4630 1161.6200 967.0320
  219.000 3.5318 2.1220 6.7480 8.4110 7.9600 1.3253 65.6200 75.1660 181.7540 225.9760 219.4630 232.4890 484.4620 1162.8600 969.0759
  219.100 3.7931 2.1429 6.8590 8.5290 8.1600 1.3440 65.2664 79.9780 178.2340 224.6990 218.7920 230.6070 483.7200 1163.5400 970.0480
  219.200 4.7973 2.2158 7.0030 8.7540 8.1000 1.3307 67.1239 80.7410 178.1900 226.6140 218.7920 234.4370 486.8580 1164.1801 969.4399
  219.300 7.0307 2.3420 7.1690 9.0440 7.6800 1.2293 68.1857 77.6550 174.0090 228.5290 220.8050 236.2530 488.9090 1165.4600 969.8960
  219.400 7.3282 2.4289 7.3690 9.3440 7.2800 1.1307 68.0088 77.2900 167.8930 222.7840 219.4630 226.1050 488.8120 1166.7200 971.1980
  219.500 5.2000 2.3294 7.7350 9.6120 7.2200 1.1013 66.8587 76.4270 165.4720 225.3380 220.8050 229.8700 487.3950 1167.2700 972.3159
  219.600 4.2364 2.2099 8.2560 9.6880 7.8400 1.1333 64.9123 73.9050 164.5040 225.9760 219.4630 232.4890 487.8650 1167.3700 972.2209
  219.700 3.8107 2.1869 8.5880 9.5480 8.3600 1.2240 65.4430 79.0490 166.3080 223.4230 217.4500 229.3950 492.2790 1168.3500 971.4359
  219.800 3.6644 2.1440 8.9210 9.2690 8.7800 1.2800 65.2661 80.0440 178.8940 220.8690 219.4630 222.2750 499.7820 1171.0699 971.1620
  219.900 3.5237 2.1907 9.2200 8.9580 8.6000 1.2933 66.4160 80.6420 185.6710 222.1460 218.7920 225.5000 504.6240 1173.1200 971.2750
  220.000 3.5400 2.2268 9.1980 8.5500 8.6600 1.2587 65.8853 83.4620 188.9710 224.0610 216.7790 231.3430 505.7700 1173.6700 971.3619
  220.100 3.5975 2.1671 9.0420 8.1750 8.6600 1.2320 64.9122 84.4250 195.5720 223.4230 218.1210 228.7240 503.7420 1172.6300 971.1320
  220.200 3.5645 2.1132 8.8100 7.9390 8.3800 1.2400 63.8507 83.4620 199.0490 219.5920 216.1070 223.0770 502.7160 1171.6801 970.5909
  220.300 3.5156 2.0818 8.5550 7.7450 7.6200 1.2480 62.7890 87.5770 198.0370 220.2310 219.4630 220.9980 503.2360 1171.0400 969.7440
  220.400 3.5400 2.0737 8.3000 7.6270 7.1800 1.2853 63.1427 87.1130 201.2050 222.1460 218.1210 226.1710 504.1640 1170.2600 968.5940
  220.500 3.5318 2.0712 8.0340 7.5310 7.2000 1.2773 62.6120 85.6860 198.1690 222.1460 216.7790 227.5130 505.1920 1169.3400 967.2589
  220.600 3.3806 2.1378 7.7460 7.4130 7.9800 1.2640 61.8159 87.6440 196.6720 219.5920 215.4360 223.7490 505.1640 1168.2400 966.1710
  220.700 3.3343 2.1344 7.4690 7.3910 8.6200 1.2320 62.2582 85.6860 199.0490 220.8690 216.1070 225.6310 504.3190 1167.1700 965.4430
  220.800 3.5156 2.1654 7.3580 7.4130 9.1600 1.2320 63.9392 87.9760 197.9050 220.2310 217.4500 223.0120 502.9020 1166.1400 964.9829
  220.900 3.6728 2.1921 7.1810 7.4560 9.1400 1.2507 64.2928 86.0840 198.4330 218.9540 216.1070 221.8010 501.7410 1165.2600 964.5620
  221.000 3.6224 2.1893 7.0810 7.4660 9.0000 1.2907 62.7003 86.5490 199.8850 219.5920 218.7920 220.3930 501.3380 1164.6300 964.0980
  221.100 3.6224 2.1238 7.0810 7.3910 8.7600 1.3147 61.1967 85.7850 194.0760 221.5070 218.1210 224.8940 501.9080 1164.3800 963.6160
  221.200 3.6392 2.1009 6.9920 7.3590 8.6600 1.3227 62.6122 85.9510 194.6040 221.5070 216.7790 226.2360 503.4000 1164.5400 963.1790
  221.300 3.6224 2.0898 6.9040 7.3380 8.4200 1.2747 64.2047 84.1260 196.3640 222.7840 216.1070 229.4610 505.3130 1165.2400 963.1140
  221.400 3.4754 2.1057 6.9040 7.3160 8.3400 1.2480 65.2663 87.3120 194.6920 220.2310 217.4500 223.0120 506.6400 1166.2500 963.5980
  221.500 3.4834 2.1073 6.8810 7.3060 8.1400 1.2400 64.8240 87.0460 198.0370 221.5070 216.1070 226.9080 506.4730 1167.0900 964.5050
  221.600 3.4995 2.0496 6.9150 7.3590 8.0600 1.2773 65.0893 86.2170 198.9170 220.2310 218.7920 221.6700 504.6860 1167.1400 965.2610
  221.700 3.5975 2.0715 7.0480 7.3590 7.9800 1.2747 64.2930 85.9850 195.3520 218.3160 215.4360 221.1950 502.1550 1166.3000 965.4390
  221.800 3.7068 2.0484 7.0920 7.4130 8.0000 1.2560 64.6466 86.7480 195.7040 220.8690 216.7790 224.9600 499.8420 1164.9800 965.0460
  221.900 3.6058 2.0775 7.1140 7.4340 8.1600 1.1893 63.0544 84.4250 198.3010 221.5070 218.1210 224.8940 498.2840 1163.7300 964.4199
  222.000 3.4914 2.1266 7.1920 7.4340 8.2000 1.2027 62.5237 88.9710 195.0440 220.8690 219.4630 222.2750 497.2000 1162.8400 963.9600
  222.100 3.6058 2.1556 7.1920 7.4340 8.4600 1.2187 61.8160 84.8890 196.0120 222.7840 217.4500 228.1190 493.9730 1161.4500 963.8619
  222.200 3.6559 2.1626 7.1250 7.4450 8.4600 1.2320 63.0546 85.5200 193.5480 219.5920 217.4500 221.7350 488.2990 1159.5100 964.1909
  222.300 3.6983 2.1036 7.1140 7.5310 8.5200 1.2507 62.8776 84.4250 192.1840 218.3160 216.7790 219.8530 480.2910 1156.9900 964.8710
  222.400 3.6898 2.1307 7.1140 7.5950 8.3600 1.2773 63.7623 84.2920 191.9640 220.2310 215.4360 225.0250 477.0600 1156.5300 965.7090
  222.500 3.6813 2.0734 7.0920 7.6490 8.1800 1.3067 64.0277 83.5290 192.6240 220.2310 214.0940 226.3680 478.5360 1157.9200 966.5070
  222.600 3.6475 2.0410 7.1580 7.6810 8.0600 1.2853 65.4430 84.7900 192.8440 220.2310 216.1070 224.3540 484.4480 1160.9301 967.1460
  222.700 3.6644 2.2070 7.0480 7.6920 7.9400 1.2347 65.7970 83.1640 193.6360 220.8690 216.7790 224.9600 487.6210 1162.6100 967.5630
  222.800 3.6475 2.1824 7.0030 7.6920 8.1600 1.2080 65.3546 86.8470 187.7390 220.8690 216.1070 225.6310 488.8750 1163.1700 967.6169
  222.900 3.5975 2.1590 7.0250 7.6490 8.1800 1.1973 65.0894 80.7740 195.0000 217.0390 216.1070 217.9710 489.6940 1162.9000 967.0189
  223.000 3.4041 2.1677 6.9810 7.6490 8.7000 1.2320 62.8777 84.3250 192.8000 218.3160 216.1070 220.5240 493.3310 1163.1300 965.8020
  223.100 3.2434 2.1601 6.9370 7.6490 8.7000 1.2400 62.0813 86.7480 198.2130 218.3160 214.7650 221.8660 499.0510 1163.9399 964.3220
  223.200 3.1477 2.1563 6.9810 7.6700 8.6800 1.2133 62.3465 83.2630 196.4080 218.3160 215.4360 221.1950 504.4200 1164.9900 963.2209
  223.300 3.2509 2.1421 6.9370 7.7450 8.5400 1.1947 64.4698 86.2170 194.5160 217.6770 215.4360 219.9190 507.4760 1165.8700 962.8839
  223.400 3.3963 2.1069 6.9260 7.8420 8.5600 1.1733 66.2389 86.4820 194.4720 222.1460 216.1070 228.1840 507.3150 1166.4000 963.4760
  223.500 3.6813 2.1036 6.9590 7.9170 8.5400 1.1733 64.9120 84.2260 194.3840 220.2310 218.7920 221.6700 504.9760 1166.9200 964.9330
  223.600 3.9264 2.1831 6.9150 8.0350 8.2800 1.1840 65.7967 87.9090 187.7390 221.5070 216.7790 226.2360 501.6580 1167.6200 966.9580
  223.700 4.2855 2.1168 6.8150 8.0670 8.0000 1.1973 65.3542 86.1840 190.3800 218.9540 215.4360 222.4720 498.8310 1168.5601 969.0300
