~Version information
  VERS.                           2.00 : CWLS log ASCII Standard -Version 2.00
  WRAP.                             NO : One line per depth step
~Well information
#MNEM.UNIT              Data Type        Information
#----------------------------------------------------------------------
  STRT.M                         0.000 : çÄóÄãé áÄèàëà
  STOP.M                       840.000 : äéçÖñ áÄèàëà
  STEP.M                         0.100 : òÄÉ
  NULL.                      -999.2500 : äéÑ éíëìíëíÇàü àçîéêåÄñàà
  WELL.                            308 : Well Name
  FLD .                       KARATUBE : Field Name
  CTRY.                     KAZAKHSTAN : Country
  SRVC.        JSC "KAZPROMGEOPHYSICA" : Service company
  DATE.                       08.06.04 : Log date
~Curve information
#MNEM.UNIT                               Curve Description
#----------------------------------------------------------------------
  DEPT.M                               : Depth Curve
  LL3 .OHMM                            : Appar.resist.laterolog,3 electrodes
  RHOB.G/C3                            : Bulk density by gamma-gamma log
  GZ3 .OHMM                            : App.resistivity by lateral A2.0M0.5N
  GZ3B.OHMM                            : App.resistivity by lateral N0.5å2.0Ä
  GR  .UR/H                            : Gamma-ray log
  NGLD.UE                              : Neutron-gamma log
  SP  .MV                              : Spontaneous potential
  CILR.MMHO                            : Conduct. by sonde 7I1.6,react.signal
  CILA.MMHO                            : Conduct. by sonde 7I1.6,active signal
  CALI.MM                              : Caliper
  C1  .MM                              : Diameter from profile1
  C2  .MM                              : Diameter from profile2
  DTP .US/M                            : Interval travel time (P-wave)
  T1  .US                              : Travel time1
  T2  .US                              : Travel time2
~Parameter information
#MNEM.UNIT              Value            Description
#----------------------------------------------------------------------
  BS  .MM                        215.9 : Bit Size
~Ascii Log Data
# ...
  121.900 -999.2500 -999.2500 -0.0010 0.0840 4.9200 1.1147 -999.2500 -999.2500 -999.2500 231.0830 228.8590 233.3060 -999.2500 -999.2500 -999.2500
  122.000 -999.2500 -999.2500 0.0100 0.0730 5.0800 1.0800 -999.2500 -999.2500 -999.2500 229.8060 226.1740 233.4380 188.4440 528.4550 453.0770
  122.100 -999.2500 -999.2500 -0.0010 0.0630 5.4600 1.0320 -999.2500 -999.2500 -999.2500 230.4440 228.8590 232.0300 187.4350 528.4280 453.4540
  122.200 -999.2500 -999.2500 -0.0120 0.1060 5.6400 0.9840 -999.2500 -999.2500 -999.2500 230.4440 230.2010 230.6870 186.7380 528.4240 453.7290
  122.300 0.1081 -999.2500 -0.0230 0.1060 5.8000 1.0080 -999.2500 -999.2500 -999.2500 231.0830 227.5170 234.6490 186.4950 528.4149 453.8170
  122.400 0.1245 -999.2500 0.0100 0.0730 5.6800 1.0187 -999.2500 -999.2500 -999.2500 230.4440 228.8590 232.0300 186.6170 528.3979 453.7510
  122.500 0.1205 -999.2500 -0.0010 0.0630 5.5800 1.0373 -999.2500 -999.2500 -999.2500 233.6360 226.8460 240.4270 187.0460 528.4270 453.6090
  122.600 0.1242 -999.2500 -0.0120 0.0630 5.3800 1.0267 -999.2500 -999.2500 -999.2500 229.1680 226.8460 231.4900 187.6450 528.6420 453.5840
  122.700 0.1194 -999.2500 -0.0010 0.0840 5.6000 1.0400 -999.2500 -999.2500 -999.2500 231.0830 228.8590 233.3060 188.4160 529.0770 453.7110
  122.800 0.1225 -999.2500 -0.0120 0.0950 5.6000 1.0533 -999.2500 -999.2500 -999.2500 228.5290 229.5300 227.5280 189.1510 529.6040 453.9430
  122.900 0.1197 -999.2500 -0.0010 0.0410 5.6000 1.0507 -999.2500 -999.2500 -999.2500 230.4440 226.1740 234.7140 189.8480 530.0289 454.0900
  123.000 0.1156 -999.2500 -0.0120 0.0840 5.1400 1.0480 -999.2500 -999.2500 -999.2500 231.0830 226.8460 235.3200 190.4650 530.2360 454.0500
  123.100 0.1135 -999.2500 -0.0230 0.0840 4.9200 1.0320 -999.2500 -999.2500 -999.2500 234.2740 227.5170 241.0320 191.1400 530.2780 453.8220
  123.200 0.1194 -999.2500 -0.0120 0.0840 4.8600 1.0400 -999.2500 -999.2500 -999.2500 232.9980 228.8590 237.1370 191.8140 530.2030 453.4770
  123.300 0.1219 -999.2500 0.0210 0.0950 4.9200 1.0480 -999.2500 -999.2500 -999.2500 232.9980 226.8460 239.1500 192.3310 530.0590 453.1260
  123.400 0.1239 -999.2500 0.0210 0.0520 5.3400 1.0773 -999.2500 -999.2500 -999.2500 231.7210 226.1740 237.2680 192.4920 529.8130 452.8170
  123.500 0.1213 -999.2500 -0.0450 0.0630 5.8200 1.0747 -999.2500 -999.2500 -999.2500 233.6360 228.1880 239.0840 192.3480 529.4960 452.5570
  123.600 0.1104 -999.2500 0.0100 0.0840 6.0200 1.0427 -999.2500 -999.2500 -999.2500 234.2740 224.8320 243.7170 192.1480 529.1830 452.3240
  123.700 0.1245 -999.2500 -0.0120 0.0730 5.8400 1.0267 -999.2500 -999.2500 -999.2500 232.3590 228.8590 235.8600 192.1160 528.9969 452.1500
  123.800 0.1208 -999.2500 0.0210 0.0840 5.3400 1.0267 -999.2500 -999.2500 -999.2500 229.1680 226.1740 232.1610 192.2310 529.0239 452.1320
  123.900 0.1236 -999.2500 -0.0120 0.0840 5.0400 1.0667 -999.2500 -999.2500 -999.2500 231.7210 227.5170 235.9250 192.3150 529.2119 452.2860
  124.000 0.1094 -999.2500 -0.0120 0.0630 4.9400 1.0533 -999.2500 -999.2500 -999.2500 229.1680 227.5170 230.8190 192.2670 529.4349 452.5280
  124.100 0.1172 -999.2500 -0.0450 0.0730 5.0600 1.0267 -999.2500 -999.2500 -999.2500 230.4440 227.5170 233.3720 192.0610 529.5320 452.7080
  124.200 0.1062 -999.2500 0.0320 0.0840 5.2200 0.9973 -999.2500 -999.2500 -999.2500 230.4440 229.5300 231.3590 191.7490 529.4669 452.7670
  124.300 0.1245 -999.2500 -0.0450 0.0520 5.6600 1.0107 -999.2500 -999.2500 -999.2500 231.7210 230.2010 233.2410 191.2920 529.2949 452.7780
  124.400 0.1259 -999.2500 -0.0010 0.0950 5.9400 1.0507 -999.2500 -999.2500 -999.2500 232.3590 226.8460 237.8730 190.7900 529.1050 452.7890
  124.500 0.1245 -999.2500 -0.0230 0.1060 6.0800 1.0613 -999.2500 -999.2500 -999.2500 231.7210 227.5170 235.9250 190.3040 529.0100 452.8880
  124.600 0.1205 -999.2500 -0.0120 0.0730 5.7600 1.0613 -999.2500 -999.2500 -999.2500 230.4440 227.5170 233.3720 190.0130 529.0020 452.9970
  124.700 0.1081 -999.2500 -0.0010 0.0950 5.3000 1.0693 -999.2500 -999.2500 -999.2500 232.3590 228.1880 236.5310 189.8730 529.0389 453.0900
  124.800 0.1199 -999.2500 -0.0010 0.1060 5.1400 1.1040 -999.2500 -999.2500 -999.2500 233.6360 228.1880 239.0840 189.8830 529.2050 453.2520
  124.900 0.1183 -999.2500 0.0100 0.1060 5.3400 1.1413 -999.2500 -999.2500 -999.2500 232.3590 227.5170 237.2020 189.8740 529.7889 453.8390
  125.000 0.1122 -999.2500 0.0210 0.1060 5.4400 1.0880 -999.2500 -999.2500 -999.2500 234.2740 229.5300 239.0190 189.8420 531.0780 455.1410
  125.100 0.1213 -999.2500 0.0430 0.0520 5.5000 1.0507 -999.2500 -999.2500 -999.2500 230.4440 228.8590 232.0300 189.7400 532.5499 456.6530
  125.200 0.1227 -999.2500 -0.0010 0.0630 5.3800 1.0400 -999.2500 -999.2500 -999.2500 231.7210 226.1740 237.2680 189.6170 533.3850 457.5390
  125.300 0.1156 -999.2500 0.0430 0.0840 5.5800 1.1093 -999.2500 -999.2500 -999.2500 229.8060 225.5030 234.1090 189.4890 533.3910 457.5960
  125.400 0.1197 -999.2500 0.0210 0.0840 5.7200 1.1333 -999.2500 -999.2500 -999.2500 231.7210 227.5170 235.9250 189.3000 533.5250 457.8050
  125.500 0.1167 -999.2500 0.0430 0.1060 5.6800 1.1067 -999.2500 -999.2500 -999.2500 229.1680 225.5030 232.8320 189.0290 534.9420 459.3300
  125.600 0.1256 -999.2500 -0.0340 0.0730 5.7000 1.0720 -999.2500 -999.2500 -999.2500 231.7210 226.1740 237.2680 188.5540 537.2820 461.8600
  125.700 0.1159 -999.2500 0.0210 0.0840 5.6000 1.0853 -999.2500 -999.2500 -999.2500 229.1680 226.1740 232.1610 188.2940 539.9020 464.5840
  125.800 0.1247 -999.2500 -0.0340 0.0630 5.7000 1.1093 -999.2500 -999.2500 -999.2500 231.7210 228.1880 235.2540 188.3410 545.0160 469.6790
  125.900 0.1146 -999.2500 -0.0010 0.0840 5.4400 1.1893 -999.2500 -999.2500 -999.2500 228.5290 226.8460 230.2130 188.6100 554.5620 479.1180
  126.000 0.1250 -999.2500 -0.0010 0.0630 4.9400 1.2107 -999.2500 -999.2500 -999.2500 228.5290 225.5030 231.5550 190.3780 570.2440 494.0920
  126.100 0.1197 -999.2500 -0.0230 0.0630 4.4200 1.2160 -999.2500 -999.2500 -999.2500 232.3590 228.8590 235.8600 195.8510 585.2550 506.9140
  126.200 0.1455 -999.2500 -0.0120 0.0950 4.2200 1.1600 -999.2500 -999.2500 -999.2500 231.0830 228.8590 233.3060 207.9450 597.3800 514.2020
  126.300 0.1469 -999.2500 -0.0340 0.0730 4.5000 1.1227 -999.2500 -999.2500 -999.2500 229.1680 226.8460 231.4900 220.4270 601.8040 513.6329
  126.400 0.1312 -999.2500 -0.0230 0.0730 4.7000 1.1067 -999.2500 -999.2500 -999.2500 230.4440 227.5170 233.3720 225.9070 602.7260 512.3629
  126.500 0.1361 -999.2500 -0.0230 0.1060 4.6400 1.0507 -999.2500 -999.2500 -999.2500 232.3590 229.5300 235.1890 216.8990 597.7260 510.9660
  126.600 0.1247 -999.2500 -0.0010 0.0840 4.3600 1.0027 -999.2500 -999.2500 -999.2500 227.8910 226.8460 228.9360 203.9570 592.5800 510.9970
  126.700 0.1271 -999.2500 0.0210 0.0840 3.9000 0.9680 -999.2500 -999.2500 -999.2500 227.8910 223.4900 232.2920 194.0000 587.3359 509.7350
  126.800 0.1239 -999.2500 0.0660 0.0730 3.5800 0.9787 -999.2500 -999.2500 -999.2500 229.1680 226.8460 231.4900 198.0680 589.6890 510.4610
  126.900 0.1236 -999.2500 -0.0120 0.0840 3.3800 0.9920 -999.2500 -999.2500 -999.2500 231.7210 228.1880 235.2540 200.9790 592.9969 512.6060
  127.000 0.1069 -999.2500 -0.0010 0.1060 3.4800 1.0080 -999.2500 -999.2500 -999.2500 232.3590 226.8460 237.8730 206.3900 596.9260 514.3700
  127.100 0.1054 -999.2500 -0.0120 0.0950 3.7800 1.0053 -999.2500 -999.2500 -999.2500 232.3590 228.1880 236.5310 206.6460 593.5229 510.8650
  127.200 0.1114 -999.2500 0.0320 0.0840 4.1400 0.9947 -999.2500 -999.2500 -999.2500 233.6360 224.8320 242.4400 223.2680 591.5549 502.2480
  127.300 0.1081 -999.2500 -0.0230 0.0730 4.1400 0.9813 -999.2500 -999.2500 -999.2500 224.6990 222.1480 227.2510 247.4820 591.2960 492.3030
  127.400 0.1076 -999.2500 -0.0230 0.1060 3.8600 1.0320 -999.2500 -999.2500 -999.2500 224.6990 224.1610 225.2370 272.5700 594.1479 485.1200
  127.500 0.1194 -999.2500 -0.0010 0.0730 3.3600 1.1493 -999.2500 -999.2500 -999.2500 223.4230 224.1610 222.6840 277.9570 590.6670 479.4840
  127.600 0.1086 -999.2500 -0.0120 0.0950 3.0600 1.2133 -999.2500 -999.2500 -999.2500 224.6990 224.8320 224.5660 262.8530 579.1849 474.0440
