~Version information
  VERS.                           2.00 : CWLS log ASCII Standard -Version 2.00
  WRAP.                             NO : One line per depth step
~Well information
#MNEM.UNIT              Data Type        Information
#----------------------------------------------------------------------
  STRT.M                         0.000 : çÄóÄãé áÄèàëà
  STOP.M                       840.000 : äéçÖñ áÄèàëà
  STEP.M                         0.100 : òÄÉ
  NULL.                      -999.2500 : äéÑ éíëìíëíÇàü àçîéêåÄñàà
  WELL.                            308 : Well Name
  FLD .                       KARATUBE : Field Name
  CTRY.                     KAZAKHSTAN : Country
  SRVC.        JSC "KAZPROMGEOPHYSICA" : Service company
  DATE.                       08.06.04 : Log date
~Curve information
#MNEM.UNIT                               Curve Description
#----------------------------------------------------------------------
  DEPT.M                               : Depth Curve
  LL3 .OHMM                            : Appar.resist.laterolog,3 electrodes
  RHOB.G/C3                            : Bulk density by gamma-gamma log
  GZ3 .OHMM                            : App.resistivity by lateral A2.0M0.5N
  GZ3B.OHMM                            : App.resistivity by lateral N0.5å2.0Ä
  GR  .UR/H                            : Gamma-ray log
  NGLD.UE                              : Neutron-gamma log
  SP  .MV                              : Spontaneous potential
  CILR.MMHO                            : Conduct. by sonde 7I1.6,react.signal
  CILA.MMHO                            : Conduct. by sonde 7I1.6,active signal
  CALI.MM                              : Caliper
  C1  .MM                              : Diameter from profile1
  C2  .MM                              : Diameter from profile2
  DTP .US/M                            : Interval travel time (P-wave)
  T1  .US                              : Travel time1
  T2  .US                              : Travel time2
~Parameter information
#MNEM.UNIT              Value            Description
#----------------------------------------------------------------------
  BS  .MM                        215.9 : Bit Size
~Ascii Log Data
# ...
  550.700 2.3174 2.1806 2.7370 4.4410 10.2800 1.4320 64.8232 142.0010 250.8000 218.3160 215.4360 221.1950 428.9260 1022.3300 850.7639
  550.800 2.3496 2.1694 2.7700 4.4410 10.2202 1.4613 67.3895 141.2700 252.5160 218.9540 214.0940 223.8140 427.6810 1021.1300 850.0609
  550.900 2.2542 2.1618 2.7700 4.4410 9.9200 1.4880 67.6545 141.2040 245.2990 219.5920 214.7650 224.4200 425.9340 1020.0200 849.6429
  551.000 2.1380 2.1828 2.7810 4.4410 9.8600 1.4827 67.3006 140.4740 247.2350 218.3160 214.7650 221.8660 424.8420 1019.0000 849.0599
  551.100 2.1429 2.1912 2.8580 4.4510 9.9000 1.4907 66.1510 141.4030 246.9270 221.5070 215.4360 227.5790 424.3740 1018.0300 848.2820
  551.200 2.2080 2.1200 2.8920 4.4730 9.7600 1.4667 66.4160 146.4470 252.5600 218.9540 214.7650 223.1430 424.2760 1017.0100 847.2990
  551.300 2.2233 2.1961 2.9690 4.4620 9.5801 1.4267 67.9204 142.6310 250.1400 222.1460 215.4360 228.8550 423.8090 1015.8800 846.3560
  551.400 2.2131 2.1756 3.0470 4.5260 9.8801 1.3653 69.1583 146.8120 247.6310 219.5920 214.7650 224.4200 423.7800 1014.7400 845.2300
  551.500 2.2961 2.2308 3.0910 4.5910 10.1598 1.3653 67.5654 142.0670 246.4870 221.5070 215.4360 227.5790 424.5030 1013.7000 843.8950
  551.600 2.5527 2.1674 3.1580 4.6440 10.4399 1.4374 67.3007 144.2240 243.0110 221.5070 216.7790 226.2360 426.0910 1012.8100 842.3740
  551.700 2.7227 2.1116 3.2240 4.7200 10.0800 1.4907 66.7696 144.6890 237.7740 220.8690 214.7650 226.9730 427.7360 1012.0900 840.9960
  551.800 2.8184 2.1412 3.2240 4.7840 9.6401 1.5200 68.3623 140.2420 239.3140 220.2310 215.4360 225.0250 428.7860 1011.4900 839.9800
  551.900 2.6485 2.0817 3.2680 4.8480 9.6200 1.5200 67.6548 140.0760 234.6940 217.6770 214.7650 220.5900 428.9880 1011.0900 839.4969
  552.000 2.4155 2.0886 3.3570 4.8810 9.7000 1.5067 65.3535 143.3280 237.9500 220.2310 217.4500 223.0120 434.0430 1012.6400 839.0239
  552.100 2.1979 2.1002 3.4680 4.8910 9.6199 1.4320 63.4083 137.8860 244.2430 219.5920 214.7650 224.4200 444.2850 1016.6800 838.9619
  552.200 2.0512 2.1809 3.5680 4.8810 9.5600 1.3733 64.5574 144.8880 246.3990 221.5070 215.4360 227.5790 454.8200 1021.3000 839.3760
  552.300 1.9815 2.2125 3.6120 4.8160 9.7799 1.3600 66.4167 145.1860 254.7600 220.2310 216.1070 224.3540 447.9020 1020.5800 841.4180
  552.400 2.0045 2.2197 3.6790 4.8910 10.1801 1.4080 68.0972 144.1580 254.7600 217.0390 215.4360 218.6420 426.1260 1012.0100 841.5609
  552.500 2.0370 2.2996 3.7120 4.9130 10.4600 1.4347 66.9470 141.9010 257.2250 217.6770 214.7650 220.5900 404.2370 999.9730 838.2780
  552.600 2.0324 2.2052 3.7230 4.9560 10.4800 1.4133 65.2660 141.3040 257.2250 219.5920 215.4360 223.7490 407.5930 990.6570 827.6200
  552.700 2.0797 2.2034 3.6560 5.0520 10.6000 1.3600 63.3201 140.7730 258.5010 218.9540 216.7790 221.1300 433.4870 986.3679 812.9730
  552.800 2.1135 2.1574 3.6230 5.1380 10.6200 1.3493 61.9044 134.8330 255.1560 215.7620 214.0940 217.4310 468.0390 981.8510 794.6350
  552.900 2.1038 2.1072 3.6450 5.2780 10.3599 1.3973 62.1697 133.3060 257.6650 213.8470 214.0940 213.6010 490.7380 972.9240 776.6279
  553.000 2.0941 2.1707 3.5570 5.4490 10.0201 1.4187 63.4087 129.0920 256.1240 216.4010 216.1070 216.6940 499.6770 958.3839 758.5129
  553.100 2.0277 2.1777 3.5340 5.5350 9.7000 1.4160 63.5853 125.5410 257.1370 217.0390 216.1070 217.9710 499.3640 941.0000 741.2540
  553.200 1.9770 2.1435 3.4570 5.6750 10.0600 1.3787 62.9669 127.1340 251.0640 217.0390 216.1070 217.9710 499.9610 923.9800 723.9960
  553.300 1.9454 2.1349 3.4350 5.7280 10.5998 1.3200 63.4975 124.0140 258.5010 220.2310 216.1070 224.3540 505.1490 908.5499 706.4910
  553.400 1.9011 2.1668 3.4350 5.8140 10.8800 1.2960 64.2042 118.7050 250.1840 220.2310 215.4360 225.0250 510.4680 893.7329 689.5449
  553.500 1.8578 2.1527 3.4460 5.9320 10.7401 1.3173 65.7081 118.3400 246.1790 220.2310 217.4500 223.0120 508.5790 877.9490 674.5179
  553.600 1.8707 2.1584 3.3680 6.0290 10.6601 1.3653 63.9390 111.0720 246.2230 222.1460 215.4360 228.8550 490.2830 860.4919 664.3790
  553.700 1.9454 2.2479 3.3570 6.1900 10.8800 1.4133 63.1429 110.9060 235.8820 220.8690 214.7650 226.9730 464.3670 845.4010 659.6539
  553.800 2.0845 2.2131 3.3790 6.4690 10.6201 1.4507 62.8775 108.8490 231.1290 220.2310 215.4360 225.0250 434.8890 834.8359 660.8810
  553.900 2.2131 2.1036 3.4240 6.7690 9.8798 1.5200 64.5579 105.3640 222.2400 219.5920 214.0940 225.0910 411.7250 831.1310 666.4409
  554.000 2.3768 2.2918 3.3680 7.0370 9.0201 1.5307 65.6202 101.7470 206.5740 220.2310 214.7650 225.6960 384.9390 831.1859 677.2109
  554.100 2.9376 2.5501 3.4240 7.3810 8.1598 1.5360 66.4163 99.6900 192.3160 217.0390 213.4230 220.6550 355.4730 833.2600 691.0709
  554.200 3.4041 2.6986 3.4680 7.7240 7.4400 1.5280 63.5861 94.9110 183.0750 218.9540 211.4090 226.4990 323.1020 835.2310 705.9900
  554.300 3.6308 2.6874 3.5230 7.9820 6.5801 1.5573 61.5500 95.5420 183.2510 217.6770 215.4360 219.9190 296.0140 836.5139 718.1079
  554.400 3.4834 2.5960 3.6790 8.1100 6.6801 1.6213 60.1347 90.4640 186.2870 224.0610 218.1210 230.0010 277.7320 838.8820 727.7889
  554.500 2.9376 2.3749 3.7890 8.1750 7.2997 1.6507 63.1438 93.1520 182.8550 224.0610 218.7920 229.3300 266.9190 843.7960 737.0289
  554.600 2.7797 2.3086 3.9560 8.1000 8.1401 1.7173 66.0623 86.0180 184.1310 222.1460 217.4500 226.8420 260.6960 853.0869 748.8090
  554.700 3.0479 2.3086 4.1330 7.9600 8.4800 1.7786 67.6547 91.8910 175.0220 226.6140 218.7920 234.4370 252.9420 865.0560 763.8790
  554.800 3.9446 2.3797 4.2550 7.7990 8.5000 1.8507 67.4775 92.0240 170.7530 225.3380 218.7920 231.8830 243.4970 878.6870 781.2880
  554.900 6.1944 2.5538 4.2880 7.6380 8.3400 1.8587 66.9467 88.5400 162.5240 222.1460 218.1210 226.1710 234.4770 893.1689 799.3779
  555.000 8.2414 2.5217 4.2550 7.5310 8.1201 1.8560 66.5045 88.9050 151.0380 231.7210 222.1480 241.2950 231.4110 909.1129 816.5490
  555.100 8.0353 2.5998 4.3100 7.4130 7.8000 1.8667 64.8237 91.3270 154.7350 225.3380 220.8050 229.8700 237.7440 926.6019 831.5040
  555.200 6.2661 2.5148 4.3430 7.1870 7.6600 1.8214 65.4427 87.2120 160.2360 223.4230 217.4500 229.3950 255.8890 945.4330 843.0770
  555.300 4.4771 2.4549 4.5100 6.9090 7.7400 1.6906 66.6821 92.5880 164.7680 222.7840 218.7920 226.7760 286.2980 965.0540 850.5349
  555.400 3.4277 2.3689 4.7540 6.6510 7.7800 1.5867 68.6277 93.7500 177.0020 222.7840 218.7920 226.7760 325.0350 984.4730 854.4590
  555.500 3.0130 2.2637 5.0200 6.3290 8.0600 1.5360 66.8577 96.3380 177.3980 220.8690 216.7790 224.9600 364.7820 1002.1200 856.2030
  555.600 2.8708 2.1570 5.2630 5.9960 8.3001 1.5467 66.1507 100.7520 180.9180 219.5920 214.7650 224.4200 397.0570 1016.1700 857.3519
  555.700 2.8119 2.0970 5.4180 5.6850 8.8400 1.5600 67.3885 100.9840 189.2350 222.1460 216.7790 227.5130 418.1300 1025.6000 858.3490
  555.800 2.8184 2.1273 5.5510 5.5030 8.9000 1.5440 69.6900 108.1520 195.8800 220.8690 216.7790 224.9600 428.9960 1030.8101 859.2119
  555.900 2.8576 2.0923 5.4630 5.3630 8.6599 1.4907 71.0167 105.6960 203.9330 220.8690 218.1210 223.6170 433.8360 1033.3300 859.7999
  556.000 2.8708 2.0719 5.3410 5.2350 8.0801 1.4187 69.4237 109.5130 205.0340 220.2310 216.1070 224.3540 436.3630 1034.9700 860.4230
  556.100 2.8445 2.1398 5.2850 5.1170 7.8800 1.4107 69.9547 108.0520 207.7620 218.9540 218.1210 219.7870 437.9800 1036.5601 861.3690
  556.200 2.8708 2.1102 5.3190 5.1380 7.9800 1.4373 70.1312 110.5080 204.1530 219.5920 217.4500 221.7350 439.1320 1038.3300 862.6740
  556.300 2.8642 2.1205 5.3630 5.0630 8.4599 1.4533 71.1931 110.0100 204.3300 223.4230 212.7520 234.0930 439.3240 1040.0200 864.2860
  556.400 2.8184 2.0945 5.4520 5.0310 8.6600 1.4853 70.0437 111.9680 207.5860 222.1460 216.1070 228.1840 438.6920 1041.6200 866.1410
  556.500 2.6792 2.1035 5.6180 4.9230 8.8000 1.4853 68.6274 110.9730 210.4460 220.8690 214.0940 227.6440 436.3750 1043.0800 868.5330
  556.600 2.3823 2.1020 5.7400 4.8480 8.7200 1.4960 68.0970 116.1500 208.8620 221.5070 214.0940 228.9210 432.2970 1044.5400 871.6260
  556.700 2.1727 2.1287 5.8620 4.7840 8.8000 1.4613 68.3621 109.8110 219.2480 222.7840 215.4360 230.1320 426.3780 1046.2300 875.6840
