~Version information
  VERS.                           2.00 : CWLS log ASCII Standard -Version 2.00
  WRAP.                             NO : One line per depth step
~Well information
#MNEM.UNIT              Data Type        Information
#----------------------------------------------------------------------
  STRT.M                         0.000 : çÄóÄãé áÄèàëà
  STOP.M                       840.000 : äéçÖñ áÄèàëà
  STEP.M                         0.100 : òÄÉ
  NULL.                      -999.2500 : äéÑ éíëìíëíÇàü àçîéêåÄñàà
  WELL.                            308 : Well Name
  FLD .                       KARATUBE : Field Name
  CTRY.                     KAZAKHSTAN : Country
  SRVC.        JSC "KAZPROMGEOPHYSICA" : Service company
  DATE.                       08.06.04 : Log date
~Curve information
#MNEM.UNIT                               Curve Description
#----------------------------------------------------------------------
  DEPT.M                               : Depth Curve
  LL3 .OHMM                            : Appar.resist.laterolog,3 electrodes
  RHOB.G/C3                            : Bulk density by gamma-gamma log
  GZ3 .OHMM                            : App.resistivity by lateral A2.0M0.5N
  GZ3B.OHMM                            : App.resistivity by lateral N0.5å2.0Ä
  GR  .UR/H                            : Gamma-ray log
  NGLD.UE                              : Neutron-gamma log
  SP  .MV                              : Spontaneous potential
  CILR.MMHO                            : Conduct. by sonde 7I1.6,react.signal
  CILA.MMHO                            : Conduct. by sonde 7I1.6,active signal
  CALI.MM                              : Caliper
  C1  .MM                              : Diameter from profile1
  C2  .MM                              : Diameter from profile2
  DTP .US/M                            : Interval travel time (P-wave)
  T1  .US                              : Travel time1
  T2  .US                              : Travel time2
~Parameter information
#MNEM.UNIT              Value            Description
#----------------------------------------------------------------------
  BS  .MM                        215.9 : Bit Size
~Ascii Log Data
# ...
  690.800 1.1614 2.3806 1.4070 2.0690 8.4800 1.3067 77.1204 241.9530 285.6960 224.0610 219.4630 228.6590 374.1580 969.2190 819.5549
  690.900 1.1668 2.4327 1.3620 2.1120 8.2600 1.3733 76.5014 248.3580 280.7680 217.6770 216.7790 218.5760 373.7520 961.2899 811.7899
  691.000 1.1668 2.3816 1.3510 2.1340 8.2601 1.4720 75.3508 247.9270 282.8800 218.3160 217.4500 219.1820 376.3380 952.8270 802.2920
  691.100 1.1561 2.3543 1.4070 2.1230 8.3601 1.4080 74.4663 244.8070 282.8800 223.4230 216.1070 230.7380 380.3460 944.5179 792.3800
  691.200 1.1722 2.3697 1.3840 2.1440 8.5200 1.3334 74.2011 241.7210 277.5110 224.0610 216.1070 232.0140 384.2660 937.2319 783.5250
  691.300 1.1803 2.3197 1.4290 2.1010 9.0200 1.2720 72.5195 243.1480 280.7240 220.8690 217.4500 224.2890 387.1920 931.3960 776.5189
  691.400 1.2190 2.3003 1.4290 2.1230 9.1401 1.3120 72.6086 241.3230 286.0480 222.1460 219.4630 224.8290 388.2110 926.7450 771.4600
  691.500 1.2331 2.2767 1.4400 2.0590 9.4800 1.3493 73.8478 240.2940 282.8800 221.5070 216.1070 226.9080 386.7390 922.5859 767.8900
  691.600 1.2274 2.2684 1.4290 2.0590 9.4600 1.3760 74.6433 239.2650 281.1200 220.8690 218.1210 223.6170 382.5650 918.2899 765.2639
  691.700 1.2274 2.2919 1.4180 2.0480 9.8000 1.3867 75.0858 239.9290 280.7680 222.1460 218.1210 226.1710 375.0940 913.0310 762.9940
  691.800 1.2106 2.3473 1.4950 2.0370 10.1399 1.4667 74.0242 235.4160 281.1640 219.5920 215.4360 223.7490 369.2590 908.2050 760.5010
  691.900 1.1858 2.3162 1.4840 2.0690 10.9201 1.5280 73.6705 240.7250 278.5230 220.8690 216.7790 224.9600 365.5940 904.3679 758.1300
  692.000 1.1194 2.4066 1.4840 2.0160 11.8797 1.5600 72.3428 240.5930 287.9850 220.2310 218.7920 221.6700 366.8520 903.1849 756.4440
  692.100 1.0814 2.4365 1.5060 2.0160 14.2206 1.5280 71.2817 242.3850 283.0120 220.2310 214.7650 225.6960 364.9930 902.3070 756.3099
  692.200 1.0814 2.2957 1.5290 1.9400 17.9000 1.4800 71.8126 247.1300 286.1800 218.9540 216.7790 221.1300 360.3660 901.3629 757.2159
  692.300 1.0715 2.2607 1.5290 1.9400 20.2997 1.5093 71.9011 250.7140 284.4640 220.8690 216.1070 225.6310 352.7480 899.3850 758.2860
  692.400 1.0889 2.2619 1.5170 1.8870 19.7193 1.5813 72.4316 253.8000 297.1380 224.6990 221.4770 227.9220 348.1850 898.1840 758.9099
  692.500 1.1194 2.3141 1.4730 1.8870 16.1609 1.6640 72.5201 253.5680 287.7650 218.3160 223.4900 213.1420 350.5180 899.0410 758.8340
  692.600 1.1830 2.4015 1.4620 1.9080 12.7394 1.6506 72.5200 257.2180 287.4570 217.6770 220.1340 215.2210 358.3790 902.0280 758.6770
  692.700 1.2503 2.4054 1.5170 1.9510 10.6800 1.6080 72.0778 248.3580 283.2760 217.0390 216.1070 217.9710 364.3430 905.9600 760.2230
  692.800 1.3459 2.3794 1.4950 2.0370 9.7001 1.5893 71.1928 250.4150 275.1790 217.6770 220.1340 215.2210 361.3640 909.6580 765.1119
  692.900 1.4355 2.4137 1.5510 2.0370 9.0399 1.6053 70.5741 244.2430 273.6830 222.1460 224.8320 219.4590 350.0470 913.7529 773.7340
  693.000 1.4256 2.3917 1.5620 2.1010 8.4401 1.5414 70.7512 243.9110 268.3140 222.1460 223.4900 220.8020 340.4730 919.0640 782.8750
  693.100 1.3552 2.3835 1.5840 2.1440 8.1400 1.4960 71.4587 232.8610 272.2750 224.6990 224.8320 224.5660 336.7430 924.7130 790.0160
  693.200 1.2503 2.3533 1.6500 2.1440 8.3400 1.4533 72.4315 244.5420 271.9230 225.3380 222.1480 228.5280 338.2610 929.4390 794.1339
  693.300 1.1508 2.3304 1.7390 2.1340 9.1798 1.5013 72.5200 248.4240 281.5600 227.2530 222.1480 232.3580 336.9670 932.5730 797.7860
  693.400 1.0990 2.3543 1.7390 2.0910 9.6801 1.5093 71.6357 251.5110 285.5200 227.2530 219.4630 235.0420 332.8610 936.0410 802.8970
  693.500 1.0765 2.2741 1.7610 2.0690 10.0200 1.4960 69.5115 257.6500 289.3490 223.4230 221.4770 225.3690 326.4250 940.9580 810.3879
  693.600 1.0789 2.3680 1.7720 2.0480 9.6399 1.4587 68.0083 261.0680 297.1820 222.1460 224.1610 220.1310 325.4650 947.5430 817.3569
  693.700 1.1143 2.4630 1.7720 2.0480 9.6200 1.4587 66.5932 261.8310 299.3380 224.0610 220.1340 227.9880 324.5880 953.3590 823.5239
  693.800 1.1641 2.4192 1.7610 1.9940 9.2201 1.4720 66.6816 258.8110 292.1650 218.3160 220.8050 215.8260 322.8030 957.5470 828.4260
  693.900 1.2445 2.3966 1.7610 2.0260 8.8798 1.4827 68.5385 256.4880 297.3140 217.0390 218.7920 215.2860 312.9380 959.6219 834.4459
  694.000 1.1912 2.3915 1.7720 2.0590 8.5000 1.4933 70.3090 253.6680 290.0530 221.5070 220.8050 222.2100 304.0910 961.7219 840.0859
  694.100 1.0914 2.4164 1.7170 2.1120 8.4400 1.4693 70.4857 246.9310 287.7650 219.5920 222.1480 217.0370 303.0550 965.9690 844.7469
  694.200 1.0765 2.2994 1.7280 2.1550 8.6000 1.4187 69.9549 252.1080 280.1080 222.7840 223.4900 222.0780 308.6520 971.2710 847.8109
  694.300 1.0864 2.3092 1.7610 2.1230 8.6800 1.4000 71.0173 249.1210 292.2970 225.3380 226.1740 224.5010 312.6180 975.7009 850.6539
  694.400 1.1015 2.3510 1.6950 2.0800 8.8200 1.4213 72.8742 246.5330 283.2760 229.8060 226.8460 232.7660 312.6500 978.7990 853.7390
  694.500 1.1535 2.3301 1.7060 2.0800 8.7400 1.4267 73.4933 247.8600 284.1560 229.1680 226.1740 232.1610 318.4140 983.8459 856.4810
  694.600 1.1561 2.3388 1.6500 2.0690 8.4799 1.3813 73.5817 240.9580 287.1490 224.6990 220.1340 229.2640 334.3790 991.2269 857.4750
  694.700 1.1272 2.3297 1.6280 2.0160 8.4400 1.3680 74.4661 243.8450 283.7600 218.9540 220.8050 217.1030 349.1550 995.7429 856.0809
  694.800 1.1246 2.3458 1.6170 2.0370 8.5199 1.3307 75.2629 242.1520 283.1440 218.3160 218.7920 217.8400 358.0510 995.8359 852.6150
  694.900 1.1535 2.4043 1.5510 2.0590 8.8000 1.3440 75.2629 241.5220 284.2440 220.2310 220.1340 220.3270 359.9590 992.2250 848.2419
  695.000 1.1695 2.3924 1.5400 2.0590 8.8000 1.3173 75.1740 235.7810 284.4200 219.5920 223.4900 215.6950 362.6600 988.5950 843.5310
  695.100 1.1695 2.3662 1.5620 2.0690 8.8000 1.3787 74.6430 239.1660 283.8040 220.2310 223.4900 216.9720 364.5560 984.4480 838.6260
  695.200 1.1912 2.3568 1.6280 2.0690 8.9200 1.4080 73.2283 238.9670 283.8040 220.8690 222.1480 219.5910 366.3850 979.9690 833.4149
  695.300 1.1967 2.3442 1.6280 2.0690 8.6601 1.4533 71.2812 237.8720 285.6520 220.8690 221.4770 220.2620 368.0570 975.6639 828.4420
  695.400 1.1912 2.3823 1.6060 2.0800 8.3799 1.4640 71.3699 238.9670 277.8630 221.5070 224.1610 218.8540 370.0130 972.0909 824.0859
  695.500 1.2023 2.3499 1.6170 2.0590 7.9600 1.4213 73.1402 241.2230 280.1520 224.0610 223.4900 224.6320 371.9890 968.8510 820.0549
  695.600 1.2050 2.3693 1.6280 2.0370 8.2201 1.4107 73.7590 236.7430 280.9880 217.0390 224.1610 209.9170 374.4110 964.9940 815.2290
  695.700 1.1967 2.3199 1.6730 2.0370 8.5600 1.3813 74.0243 241.4220 277.9510 220.2310 221.4770 218.9850 377.7680 959.9590 808.8519
  695.800 1.1940 2.3312 1.6840 2.0370 8.8600 1.3707 74.2014 240.3600 286.0480 221.5070 221.4770 221.5380 381.6850 953.9960 801.3209
  695.900 1.1967 2.3073 1.6950 2.0260 8.7400 1.3733 75.8815 240.9910 279.5800 218.3160 223.4900 213.1420 385.9030 948.1560 793.7949
  696.000 1.2050 2.3350 1.6390 2.0160 8.8200 1.4186 76.3241 241.5880 281.8680 217.6770 223.4900 211.8650 389.8360 943.1479 787.2130
  696.100 1.2218 2.4130 1.6170 2.0260 8.8801 1.4400 75.9703 242.2190 280.3280 218.9540 223.4900 214.4180 393.1610 938.9380 781.6740
  696.200 1.2417 2.3912 1.6500 2.0050 8.9400 1.4213 74.9976 246.6990 284.4640 218.9540 219.4630 218.4450 394.6640 934.7460 776.8800
  696.300 1.2445 2.4274 1.6500 1.9830 8.3802 1.4080 72.9623 242.9820 278.4790 217.6770 221.4770 213.8780 393.3260 929.9580 772.6279
  696.400 1.2503 2.3605 1.6390 2.0260 7.7599 1.4267 70.5746 246.9640 276.8950 217.6770 219.4630 215.8920 388.4730 924.5339 769.1450
  696.500 1.2503 2.3074 1.6950 1.9830 7.1801 1.4507 69.1582 240.0290 275.8390 221.5070 222.8190 220.1960 380.7320 919.3710 767.0780
  696.600 1.2331 2.3497 1.7280 1.9830 7.3601 1.4320 68.0083 248.0590 272.6710 218.9540 222.8190 215.0890 372.0670 915.7739 766.9470
  696.700 1.2303 2.3491 1.7280 1.9510 7.7000 1.4347 69.0699 249.8840 274.2990 221.5070 224.8320 218.1830 364.2610 914.4559 768.7510
  696.800 1.2246 2.4631 1.7390 1.9190 8.0200 1.4347 69.1589 248.9880 277.0270 225.9760 224.8320 227.1200 359.0310 915.1520 771.5399
