~Version information
  VERS.                           2.00 : CWLS log ASCII Standard -Version 2.00
  WRAP.                             NO : One line per depth step
~Well information
#MNEM.UNIT              Data Type        Information
#----------------------------------------------------------------------
  STRT.M                         0.000 : çÄóÄãé áÄèàëà
  STOP.M                       840.000 : äéçÖñ áÄèàëà
  STEP.M                         0.100 : òÄÉ
  NULL.                      -999.2500 : äéÑ éíëìíëíÇàü àçîéêåÄñàà
  WELL.                            308 : Well Name
  FLD .                       KARATUBE : Field Name
  CTRY.                     KAZAKHSTAN : Country
  SRVC.        JSC "KAZPROMGEOPHYSICA" : Service company
  DATE.                       08.06.04 : Log date
~Curve information
#MNEM.UNIT                               Curve Description
#----------------------------------------------------------------------
  DEPT.M                               : Depth Curve
  LL3 .OHMM                            : Appar.resist.laterolog,3 electrodes
  RHOB.G/C3                            : Bulk density by gamma-gamma log
  GZ3 .OHMM                            : App.resistivity by lateral A2.0M0.5N
  GZ3B.OHMM                            : App.resistivity by lateral N0.5å2.0Ä
  GR  .UR/H                            : Gamma-ray log
  NGLD.UE                              : Neutron-gamma log
  SP  .MV                              : Spontaneous potential
  CILR.MMHO                            : Conduct. by sonde 7I1.6,react.signal
  CILA.MMHO                            : Conduct. by sonde 7I1.6,active signal
  CALI.MM                              : Caliper
  C1  .MM                              : Diameter from profile1
  C2  .MM                              : Diameter from profile2
  DTP .US/M                            : Interval travel time (P-wave)
  T1  .US                              : Travel time1
  T2  .US                              : Travel time2
~Parameter information
#MNEM.UNIT              Value            Description
#----------------------------------------------------------------------
  BS  .MM                        215.9 : Bit Size
~Ascii Log Data
# ...
  454.000 2.2961 2.2659 3.9890 4.5590 10.9000 1.2693 58.7200 134.1360 247.5870 236.8280 230.8720 242.7830 436.3860 1093.1801 918.6270
  454.100 2.4547 2.3520 3.9220 4.5910 11.0000 1.2773 61.6393 134.7000 248.7750 237.4660 230.2010 244.7310 433.1190 1094.0601 920.8149
  454.200 2.5468 2.3250 3.9220 4.6770 10.8400 1.2853 60.7547 133.2400 246.1790 232.3590 228.1880 236.5310 430.8520 1095.4000 923.0590
  454.300 2.4831 2.3005 4.0220 4.7090 10.2399 1.2960 62.9662 132.0450 243.1870 233.6360 226.8460 240.4270 430.5110 1097.8800 925.6790
  454.400 2.4434 2.2228 3.9670 4.6770 10.4999 1.3307 61.0200 133.9370 241.9110 234.9130 230.2010 239.6240 430.6490 1101.2400 928.9790
  454.500 2.4660 2.1975 3.9220 4.6020 10.8400 1.3520 61.3737 132.6760 244.7710 236.8280 228.8590 244.7970 431.4390 1104.9900 932.4160
  454.600 2.4604 2.2030 3.9330 4.5480 11.0400 1.3333 61.1967 134.0690 246.7070 233.6360 225.5030 241.7690 432.5070 1108.3900 935.3860
  454.700 2.3823 2.2784 3.9220 4.4190 10.7200 1.2747 61.1083 132.3110 247.4110 230.4440 226.1740 234.7140 434.8280 1111.1500 937.2230
  454.800 2.3550 2.2458 3.9110 4.4080 10.7200 1.2507 59.8697 137.7860 242.3070 226.6140 224.8320 228.3960 439.6360 1113.9900 938.1339
  454.900 2.3227 2.2518 3.9450 4.3650 10.9000 1.2560 59.1623 128.8590 245.3870 228.5290 224.8320 232.2260 444.7230 1116.3800 938.4900
  455.000 2.3227 2.2193 3.9780 4.3550 10.7800 1.3173 60.4890 135.7290 242.7470 223.4230 224.8320 222.0130 449.1740 1118.5000 938.8330
  455.100 2.3227 2.2669 3.9450 4.3550 10.5600 1.3520 59.4273 136.4590 248.2030 226.6140 222.8190 230.4100 448.4970 1118.5601 939.1589
  455.200 2.3174 2.2213 3.9890 4.3230 10.3800 1.3813 58.0120 135.1640 247.4550 223.4230 222.1480 224.6970 446.4170 1117.8400 939.2750
  455.300 2.3281 2.1783 3.9890 4.3230 10.6000 1.3520 56.9510 136.3260 245.4310 224.6990 222.8190 226.5800 444.8250 1116.9600 939.0330
  455.400 2.2699 2.1245 4.0000 4.3120 10.5800 1.3627 60.3120 136.2930 249.3040 224.6990 226.8460 222.5530 446.5910 1117.5601 938.9189
  455.500 2.2131 2.1654 3.9450 4.2690 10.8200 1.3173 62.9660 139.4120 253.1760 223.4230 222.1480 224.6970 448.7570 1119.0400 939.5339
  455.600 2.1528 2.2557 3.9890 4.3550 10.8000 1.3227 63.1427 135.3970 253.0000 236.1900 227.5170 244.8620 447.8070 1120.2200 941.0990
  455.700 2.1577 2.2309 4.0220 4.3550 10.6200 1.3973 62.4350 138.6160 253.0000 227.8910 224.1610 231.6210 442.5910 1120.0000 942.9640
  455.800 2.2542 2.2232 4.0550 4.4410 10.3600 1.4293 61.5504 135.9280 250.8440 232.9980 228.1880 237.8080 436.1330 1118.4200 943.9640
  455.900 2.3496 2.2566 4.0890 4.5480 10.3600 1.3973 62.5236 135.2640 250.5360 225.9760 220.8050 231.1470 431.5580 1115.7600 943.1360
  456.000 2.3878 2.2192 4.1220 4.5590 10.9200 1.2800 59.8697 137.0560 247.4990 229.1680 224.1610 234.1740 431.7770 1112.6100 939.9020
  456.100 2.3335 2.1470 4.0770 4.6020 11.3200 1.3067 59.8697 134.6670 253.4400 229.8060 228.1880 231.4240 435.3290 1108.9301 934.7970
  456.200 2.1979 2.2622 3.9890 4.6980 11.2800 1.3467 58.7197 133.2400 245.0790 229.8060 230.8720 228.7400 439.7560 1104.8101 928.9080
  456.300 2.1038 2.2689 3.9450 4.7620 10.8599 1.3840 61.5507 134.0360 244.3310 225.3380 224.1610 226.5140 441.1600 1100.3400 923.8770
  456.400 2.0797 2.1714 4.0110 4.7730 10.6400 1.3147 61.3739 129.3900 248.8630 224.0610 221.4770 226.6450 438.0630 1095.3199 920.0930
  456.500 2.1528 2.1890 4.0330 4.8380 10.8200 1.2960 62.4353 134.0360 248.7310 227.2530 223.4900 231.0150 435.9350 1091.1700 916.7970
  456.600 2.2029 2.1928 4.0770 4.9020 11.1600 1.2827 62.6123 131.0160 252.6920 232.3590 226.1740 238.5440 437.1840 1087.7100 912.8400
  456.700 2.2182 2.1959 4.0440 4.9340 10.9000 1.3520 61.9930 130.4520 250.6240 231.0830 221.4770 240.6890 443.6500 1085.5000 908.0380
  456.800 2.1727 2.2290 4.0330 4.9990 10.3399 1.4000 62.2587 127.2330 254.5840 233.6360 221.4770 245.7960 448.4240 1082.8300 903.4640
  456.900 2.1777 2.2161 4.0440 5.0410 9.9400 1.3707 63.1430 129.1910 249.3040 231.7210 223.4900 239.9520 451.0130 1080.4700 900.0620
  457.000 2.2131 2.2527 4.0440 5.1060 9.8600 1.3360 63.6740 128.0300 248.9070 236.8280 226.1740 247.4810 449.8190 1078.2500 898.3240
  457.100 2.2233 2.2309 3.9780 5.1170 10.0800 1.3093 63.4970 128.2950 250.0960 229.1680 222.8190 235.5170 447.8620 1076.9399 897.7920
  457.200 2.1777 2.2225 3.9670 5.2020 10.2200 1.3360 63.3200 125.9060 244.7270 226.6140 222.8190 230.4100 445.9680 1076.3101 897.9199
  457.300 2.1677 2.2122 3.9330 5.2350 10.5000 1.3307 64.2047 130.3530 243.8470 232.3590 221.4770 243.2420 446.1020 1076.6500 898.2050
  457.400 2.1827 2.2786 3.9220 5.2670 10.9200 1.2880 64.2931 121.6580 247.9830 232.3590 223.4900 241.2290 447.9980 1077.8400 898.6439
  457.500 2.2029 2.2676 3.8450 5.2350 11.1200 1.2800 63.5853 127.3660 244.8590 227.2530 222.8190 231.6860 450.0840 1079.4500 899.4180
  457.600 2.2336 2.2910 3.8340 5.1600 10.9400 1.2933 62.7893 128.1620 247.1910 227.8910 224.1610 231.6210 453.2350 1080.9100 899.6140
  457.700 2.3067 2.1596 3.8000 5.1270 10.5600 1.3200 61.9933 125.8060 244.0670 230.4440 225.5030 235.3850 458.3250 1082.0000 898.6699
  457.800 2.4155 2.1695 3.7010 5.0740 10.4000 1.3520 62.2588 126.0050 237.6420 234.9130 222.8190 247.0070 465.3880 1082.7100 896.5580
  457.900 2.6303 2.2330 3.6450 5.0740 10.3800 1.3867 62.2587 126.2380 236.8940 233.6360 222.8190 244.4530 470.9350 1083.4700 895.0969
  458.000 2.8576 2.1884 3.6230 5.0840 10.4200 1.4453 62.9663 126.1380 234.1220 227.2530 222.8190 231.6860 470.7000 1084.4500 896.1699
  458.100 3.0479 2.2028 3.5680 5.1270 9.9400 1.4720 63.1433 124.1140 228.4010 224.6990 222.8190 226.5800 465.0030 1086.1000 900.1030
  458.200 3.1117 2.2093 3.5680 5.1270 9.8800 1.5173 63.9393 124.1800 226.5520 225.9760 222.8190 229.1330 454.6570 1088.0900 906.2260
  458.300 3.1477 2.1696 3.6010 5.0740 9.6400 1.5013 63.4969 124.5120 218.4990 225.9760 223.4900 228.4620 445.8270 1090.5601 912.2300
  458.400 3.1477 2.1877 3.6230 5.0740 10.0600 1.4453 62.1702 120.6960 220.5680 224.6990 220.1340 229.2640 440.1980 1093.1801 917.1040
  458.500 3.0061 2.1440 3.6790 4.9880 10.4000 1.3627 61.6393 126.3040 218.1030 224.6990 221.4770 227.9220 436.0970 1095.2600 920.8230
  458.600 2.8973 2.1929 3.7230 4.8700 10.6000 1.3840 61.6393 126.2380 227.3890 225.3380 221.4770 229.1990 431.0720 1096.7600 924.3290
  458.700 2.7733 2.2440 3.7890 4.8160 10.5600 1.4427 62.9663 126.0390 226.5960 222.1460 220.8050 223.4860 422.7970 1097.4301 928.3099
  458.800 2.7227 2.2000 3.8670 4.7410 10.1800 1.4667 62.6123 128.5270 231.0410 223.4230 218.1210 228.7240 416.8420 1099.3400 932.6000
  458.900 2.6485 2.2023 3.9330 4.6440 10.0400 1.4587 63.4083 127.9300 237.5100 221.5070 218.7920 224.2230 413.9880 1102.3400 936.7450
  459.000 2.4717 2.2332 3.9450 4.5910 9.9600 1.4107 63.8507 132.9410 241.6910 222.1460 218.7920 225.5000 417.5320 1106.7300 939.7169
  459.100 2.3988 2.2211 4.0000 4.5260 10.4600 1.4240 64.8240 129.2240 243.9790 219.5920 220.1340 219.0510 424.8470 1110.3700 940.4349
  459.200 2.3550 2.2151 4.1000 4.4510 11.1200 1.3947 64.7357 134.8330 245.8270 222.1460 220.8050 223.4860 434.7510 1112.6899 938.7870
  459.300 2.2029 2.1953 4.0890 4.4940 11.4000 1.3440 64.1163 129.7220 251.9440 225.9760 224.1610 227.7910 443.6210 1113.4200 935.9750
  459.400 2.1184 2.2045 4.1110 4.5260 11.2201 1.3147 62.0820 133.8370 254.2760 232.9980 226.8460 239.1500 448.8670 1113.3300 933.7849
  459.500 2.0845 2.1733 4.1220 4.5590 10.7200 1.2907 61.0200 136.7240 258.4130 229.8060 224.8320 234.7800 449.5850 1112.7600 932.9280
  459.600 2.0797 2.1528 4.1330 4.6230 10.7000 1.3333 62.2583 134.7000 264.5740 225.9760 224.1610 227.7910 447.6470 1111.5699 932.5100
  459.700 2.0749 2.1892 4.2100 4.7410 10.7200 1.3280 62.2583 134.6670 259.4250 231.7210 221.4770 241.9660 445.8540 1111.1300 932.7930
  459.800 2.0941 2.2242 4.2330 4.8910 11.0200 1.3173 63.8506 134.5670 258.4570 229.1680 222.8190 235.5170 445.7310 1110.4100 932.1210
  459.900 2.1727 2.1876 4.2550 5.0310 10.9600 1.3333 62.7004 130.2200 258.4130 232.3590 222.1480 242.5710 446.5590 1111.0000 932.3820
