~Version information
  VERS.                           2.00 : CWLS log ASCII Standard -Version 2.00
  WRAP.                             NO : One line per depth step
~Well information
#MNEM.UNIT              Data Type        Information
#----------------------------------------------------------------------
  STRT.M                         0.000 : çÄóÄãé áÄèàëà
  STOP.M                       840.000 : äéçÖñ áÄèàëà
  STEP.M                         0.100 : òÄÉ
  NULL.                      -999.2500 : äéÑ éíëìíëíÇàü àçîéêåÄñàà
  WELL.                            308 : Well Name
  FLD .                       KARATUBE : Field Name
  CTRY.                     KAZAKHSTAN : Country
  SRVC.        JSC "KAZPROMGEOPHYSICA" : Service company
  DATE.                       08.06.04 : Log date
~Curve information
#MNEM.UNIT                               Curve Description
#----------------------------------------------------------------------
  DEPT.M                               : Depth Curve
  LL3 .OHMM                            : Appar.resist.laterolog,3 electrodes
  RHOB.G/C3                            : Bulk density by gamma-gamma log
  GZ3 .OHMM                            : App.resistivity by lateral A2.0M0.5N
  GZ3B.OHMM                            : App.resistivity by lateral N0.5å2.0Ä
  GR  .UR/H                            : Gamma-ray log
  NGLD.UE                              : Neutron-gamma log
  SP  .MV                              : Spontaneous potential
  CILR.MMHO                            : Conduct. by sonde 7I1.6,react.signal
  CILA.MMHO                            : Conduct. by sonde 7I1.6,active signal
  CALI.MM                              : Caliper
  C1  .MM                              : Diameter from profile1
  C2  .MM                              : Diameter from profile2
  DTP .US/M                            : Interval travel time (P-wave)
  T1  .US                              : Travel time1
  T2  .US                              : Travel time2
~Parameter information
#MNEM.UNIT              Value            Description
#----------------------------------------------------------------------
  BS  .MM                        215.9 : Bit Size
~Ascii Log Data
# ...
  836.300 94841.8906 2.1890 0.0770 -999.2500 1.3600 7.2720 193.9818 23.1660 -13.4560 250.2330 251.6780 248.7890 207.7130 590.1840 507.0980
  836.400 94841.8906 2.1473 0.0550 -999.2500 1.4200 6.9787 194.7777 21.3400 -15.8320 247.6800 248.3220 247.0380 205.0040 589.9919 507.9910
  836.500 94841.8906 2.1073 0.0550 -999.2500 1.4600 6.9120 195.3089 22.5680 -5.8870 252.7870 250.3360 255.2380 204.7780 590.4130 508.5020
  836.600 94841.8906 2.1911 0.0770 -999.2500 1.5000 6.9494 195.2203 21.5400 5.9510 252.7870 255.7050 249.8690 207.2850 591.3669 508.4540
  836.700 94841.8906 2.2040 0.0770 -999.2500 1.4600 7.0800 194.8669 20.0460 10.6600 263.0000 260.4030 265.5980 211.8160 592.6300 507.9030
  836.800 94841.8906 2.1428 0.0550 -999.2500 1.5600 6.8319 194.3358 23.3650 9.4270 261.0850 265.7720 256.3990 215.4620 593.8049 507.6200
  836.900 94841.8906 2.0738 0.0430 -999.2500 1.4400 6.5893 194.3357 21.2740 13.6520 266.8300 269.1280 264.5330 216.0680 594.4340 508.0060
  837.000 94841.8906 2.0944 0.0880 -999.2500 1.4400 6.4906 194.7780 20.7100 16.1160 274.4910 271.8120 277.1690 213.7820 594.1840 508.6710
  837.100 94841.8906 2.0595 0.0770 -999.2500 1.3000 6.7094 194.8667 23.5970 7.4470 277.0440 276.5100 277.5780 211.8270 593.3130 508.5830
  837.200 94841.8906 2.2041 0.0430 -999.2500 1.3800 6.8933 195.1321 20.9090 4.2790 268.1070 268.4560 267.7580 213.4880 592.5990 507.2040
  837.300 94841.8906 2.1078 0.0550 -999.2500 1.3800 7.0134 194.4238 21.8380 3.3110 260.4470 261.7450 259.1490 218.9370 592.7250 505.1500
  837.400 94841.8906 1.9961 0.0660 -999.2500 1.4200 7.0773 193.6279 23.9290 14.3120 262.3620 259.7320 264.9920 225.3030 593.4840 503.3630
  837.500 94841.8906 2.0005 0.0770 -999.2500 1.3800 7.0800 193.4508 23.5640 26.8540 268.7450 270.4700 267.0210 228.8090 594.0129 502.4890
  837.600 94841.8906 2.0899 0.0660 -999.2500 1.4000 7.2294 193.5393 21.4070 22.8930 281.5120 281.8790 281.1460 228.2100 593.4940 502.2100
  837.700 94841.8906 2.0905 0.0660 -999.2500 1.4400 7.3839 193.8934 23.1320 9.2510 278.9590 279.8660 278.0520 224.7900 592.0599 502.1450
  837.800 94841.8906 2.0963 0.0550 -999.2500 1.5200 7.5920 193.7164 20.0130 -0.2980 263.0000 264.4300 261.5710 221.0540 590.2970 501.8750
  837.900 94841.8906 2.1094 0.0430 -999.2500 1.4800 7.6987 193.4511 22.3360 -10.8590 252.1480 250.3360 253.9610 218.5090 588.8550 501.4510
  838.000 94841.8906 2.0780 0.0660 -999.2500 1.3801 7.7493 193.1853 21.4730 -11.5190 248.3180 246.3090 250.3280 217.5070 587.9270 500.9240
  838.100 94841.8906 2.1185 0.0770 -999.2500 1.3200 7.6159 193.0970 21.2410 -10.8590 247.6800 244.9660 250.3930 217.8920 587.6240 500.4670
  838.200 94841.8906 2.1230 0.0660 -999.2500 1.3600 7.4347 193.4506 22.1370 -4.4340 242.5730 246.9800 238.1660 219.4670 587.9080 500.1210
  838.300 94841.8906 2.1209 0.0880 -999.2500 1.3001 7.3600 193.3623 20.7760 1.4620 245.7650 245.6380 245.8920 221.8660 588.6400 499.8930
  838.400 94841.8906 2.1269 0.0550 -999.2500 1.3000 7.3707 192.8318 23.3320 4.1910 247.6800 248.3220 247.0380 224.3360 589.5050 499.7710
  838.500 94841.8906 2.1182 0.0550 -999.2500 1.1600 7.2907 192.2126 21.2740 9.0310 247.6800 248.3220 247.0380 226.0280 590.2200 499.8090
  838.600 94841.8906 2.1364 0.0550 -999.2500 1.2400 7.0346 191.4167 22.3690 5.8190 250.2330 251.0070 249.4600 226.7520 590.6439 499.9430
  838.700 94841.8906 2.0552 0.0770 -999.2500 1.1800 6.9067 192.0355 21.8710 5.9510 249.5950 252.3490 246.8410 226.8470 590.7689 500.0300
  838.800 94841.8906 2.1221 0.0880 -999.2500 1.4000 6.8987 192.5666 21.7720 8.4590 250.8720 252.3490 249.3940 226.9070 590.5990 499.8360
  838.900 94841.8906 2.1290 0.0210 -999.2500 1.4600 6.8587 193.2741 22.4360 4.4110 252.7870 250.3360 255.2380 226.7870 590.1740 499.4590
  839.000 94841.8906 2.1307 0.0880 -999.2500 1.4600 6.7894 193.1857 20.8760 2.5180 250.8720 251.6780 250.0650 226.1020 589.4869 499.0460
  839.100 94841.8906 2.1226 0.0550 -999.2500 1.4200 6.7094 192.9203 22.6010 3.4430 250.8720 249.6640 252.0790 224.6160 588.6000 498.7530
  839.200 94841.8906 2.0580 0.0550 -999.2500 1.3600 6.7920 193.0087 22.3030 1.9460 252.1480 249.6640 254.6320 222.6920 587.4979 498.4220
  839.300 94841.8906 2.0993 0.0660 -999.2500 1.4000 6.7947 192.7433 21.2740 5.2470 254.7020 253.0200 256.3830 220.9580 586.2949 497.9110
  839.400 94841.8906 2.0852 0.0880 -999.2500 1.3600 6.8373 192.9200 23.2980 5.4670 254.7020 253.0200 256.3830 219.8740 585.1940 497.2450
  839.500 94841.8906 2.1277 0.0550 -999.2500 1.5800 6.8800 192.9200 22.3030 4.4550 250.8720 253.0200 248.7230 220.5600 584.5220 496.2980
  839.600 94841.8906 2.1036 0.0660 -999.2500 1.5200 7.0320 -999.2500 21.2410 5.5110 252.7870 255.0340 250.5400 222.9990 584.1150 494.9150
  839.700 94841.8906 2.1125 0.0550 -999.2500 1.4400 7.0720 -999.2500 22.1700 6.5230 251.5100 257.0470 245.9730 233.3740 583.6400 490.2900
  839.800 94841.8906 2.0964 0.0660 -999.2500 1.2000 6.9066 -999.2500 21.9380 7.7990 254.0630 259.7320 248.3950 242.2790 582.2219 485.3110
  839.900 94841.8906 2.1501 0.0660 -999.2500 1.3201 6.6987 -999.2500 21.9050 4.0590 252.1480 255.7050 248.5920 248.3860 580.0490 480.6950
  840.000 94841.8906 2.1060 0.0880 -999.2500 1.4000 6.4907 -999.2500 21.7720 1.5940 253.4250 255.7050 251.1450 238.4850 577.2980 481.9040
