~Version information
  VERS.                           2.00 : CWLS log ASCII Standard -Version 2.00
  WRAP.                             NO : One line per depth step
~Well information
#MNEM.UNIT              Data Type        Information
#----------------------------------------------------------------------
  STRT.M                         0.000 : çÄóÄãé áÄèàëà
  STOP.M                       840.000 : äéçÖñ áÄèàëà
  STEP.M                         0.100 : òÄÉ
  NULL.                      -999.2500 : äéÑ éíëìíëíÇàü àçîéêåÄñàà
  WELL.                            308 : Well Name
  FLD .                       KARATUBE : Field Name
  CTRY.                     KAZAKHSTAN : Country
  SRVC.        JSC "KAZPROMGEOPHYSICA" : Service company
  DATE.                       08.06.04 : Log date
~Curve information
#MNEM.UNIT                               Curve Description
#----------------------------------------------------------------------
  DEPT.M                               : Depth Curve
  LL3 .OHMM                            : Appar.resist.laterolog,3 electrodes
  RHOB.G/C3                            : Bulk density by gamma-gamma log
  GZ3 .OHMM                            : App.resistivity by lateral A2.0M0.5N
  GZ3B.OHMM                            : App.resistivity by lateral N0.5å2.0Ä
  GR  .UR/H                            : Gamma-ray log
  NGLD.UE                              : Neutron-gamma log
  SP  .MV                              : Spontaneous potential
  CILR.MMHO                            : Conduct. by sonde 7I1.6,react.signal
  CILA.MMHO                            : Conduct. by sonde 7I1.6,active signal
  CALI.MM                              : Caliper
  C1  .MM                              : Diameter from profile1
  C2  .MM                              : Diameter from profile2
  DTP .US/M                            : Interval travel time (P-wave)
  T1  .US                              : Travel time1
  T2  .US                              : Travel time2
~Parameter information
#MNEM.UNIT              Value            Description
#----------------------------------------------------------------------
  BS  .MM                        215.9 : Bit Size
~Ascii Log Data
# ...
  405.700 3.2810 2.2638 7.8340 6.2000 9.0000 1.4027 57.3930 99.5570 207.2340 233.6360 226.8460 240.4270 486.7390 1074.3101 879.6179
  405.800 3.2509 2.2884 7.9900 5.9430 9.1400 1.3707 57.2159 100.9510 211.2820 234.2740 226.8460 241.7030 508.0800 1087.3000 884.0720
  405.900 3.1046 2.2597 8.0010 5.7710 9.1800 1.3653 56.6854 103.0750 215.0230 236.8280 226.8460 246.8100 520.2150 1096.8700 888.7880
  406.000 2.9444 2.2372 7.9560 5.5890 9.0800 1.3920 55.8007 103.9380 220.4800 239.3810 226.8460 251.9170 538.8180 1111.3300 895.8060
  406.100 2.8708 2.2086 7.8340 5.5030 9.5000 1.4240 56.1543 107.6540 222.2400 238.7430 227.5170 249.9690 517.7000 1114.3900 907.3090
  406.200 2.9992 2.2209 7.7680 5.5240 9.9200 1.4213 56.5080 106.1940 219.2040 239.3810 224.8320 253.9300 483.6530 1115.5800 922.1200
  406.300 3.1189 2.2734 7.6790 5.5570 10.1000 1.3893 56.0655 108.3510 220.2600 236.8280 223.4900 250.1660 428.0880 1108.6899 937.4530
  406.400 2.9376 2.3000 7.7010 5.5890 9.6801 1.3733 55.0045 108.1190 219.1150 235.5510 222.1480 248.9550 402.3980 1109.3199 948.3619
  406.500 2.6242 2.2750 7.6460 5.6530 9.5000 1.3253 54.9160 105.2320 222.2840 238.1050 224.1610 252.0480 416.4700 1116.8199 950.2369
  406.600 2.4831 2.1776 7.6680 5.6960 9.7600 1.2907 55.8890 109.8110 217.4870 234.2740 221.4770 247.0720 444.4820 1120.9200 943.1250
  406.700 2.4774 2.1542 7.5570 5.7820 10.2800 1.2827 56.2427 108.2520 227.5210 229.8060 219.4630 240.1490 481.4410 1122.9000 930.3230
  406.800 2.4547 2.1621 7.4470 5.8570 10.7601 1.2773 55.9773 106.9240 225.1440 222.1460 215.4360 228.8550 490.7950 1117.7500 921.4310
  406.900 2.4155 2.2163 7.4020 5.9540 11.0400 1.3040 55.9773 108.7160 225.8040 222.7840 212.7520 232.8170 495.2340 1114.5500 916.4550
  407.000 2.3878 2.1912 7.2250 6.0180 10.9000 1.3200 56.4197 105.2650 229.2370 221.5070 214.7650 228.2500 488.5510 1111.0100 915.5880
  407.100 2.4604 2.2357 6.9920 6.0930 10.6200 1.4027 55.6233 105.9950 226.9490 218.3160 214.7650 221.8660 479.8480 1106.3000 914.3650
  407.200 2.7227 2.2000 6.6490 6.2110 10.5200 1.4453 55.1810 104.4680 226.3760 223.4230 217.4500 229.3950 470.0440 1102.5699 914.5530
  407.300 2.9512 2.2344 6.4160 6.3080 10.7400 1.4507 54.7387 103.3400 226.1120 223.4230 217.4500 229.3950 471.9290 1101.9200 913.1520
  407.400 2.8907 2.2420 6.1610 6.3720 10.8400 1.4480 55.3580 100.4860 221.9760 223.4230 219.4630 227.3820 490.6090 1102.4600 906.2180
  407.500 2.7733 2.2621 5.9500 6.4690 10.8800 1.4213 55.6233 99.2250 222.0200 222.7840 218.1210 227.4480 504.2270 1094.9100 893.2219
  407.600 2.5942 2.2906 5.7730 6.5440 10.8800 1.4053 53.7657 97.7650 221.0080 228.5290 221.4770 235.5820 511.1490 1083.0900 878.6329
  407.700 2.3768 2.3253 5.6840 6.6510 10.8000 1.3707 51.9963 102.8760 226.1560 226.6140 219.4630 233.7650 498.8170 1067.8700 868.3450
  407.800 2.3659 2.2660 5.5960 6.8440 10.3599 1.3893 51.2889 97.0680 222.8120 225.3380 217.4500 233.2260 486.9040 1057.9500 863.1920
  407.900 2.4604 2.2626 5.5850 7.0480 10.0400 1.4000 53.5000 100.1880 218.9830 225.3380 216.7790 233.8970 472.0140 1050.1000 861.2949
  408.000 2.7353 2.2737 5.5290 7.2730 10.2800 1.3813 55.8890 94.7120 217.7070 226.6140 218.7920 234.4370 458.5420 1045.1000 861.6870
  408.100 3.2434 2.2789 5.4630 7.5740 10.8000 1.3733 55.5353 94.9110 208.9940 225.9760 218.1210 233.8310 450.0040 1042.4700 862.4659
  408.200 3.5727 2.2130 5.1970 7.8740 11.1200 1.4453 54.9160 94.3140 201.3810 222.7840 218.1210 227.4480 445.3180 1040.4700 862.3480
  408.300 3.6813 2.2351 5.1410 8.1000 10.6599 1.5147 53.7661 89.1040 197.1570 224.0610 216.7790 231.3430 446.0360 1038.1200 859.7050
  408.400 3.6475 2.1486 5.0080 8.2280 10.2001 1.5253 55.1812 85.8850 189.1910 222.7840 217.4500 228.1190 450.1050 1035.8199 855.7789
  408.500 3.5156 2.2186 4.9860 8.4110 9.9400 1.4427 55.4467 84.0600 185.9790 227.2530 219.4630 235.0420 449.2400 1033.3300 853.6300
  408.600 3.5075 2.2768 5.0080 8.5610 10.0200 1.4187 56.1543 81.1730 184.3070 229.1680 219.4630 238.8720 442.1190 1030.4800 853.6300
  408.700 3.7154 2.1860 4.9860 8.6040 9.9400 1.3947 56.0660 85.0550 185.0990 229.8060 222.1480 237.4640 433.4540 1027.0699 853.6880
  408.800 3.8637 2.1840 5.0420 8.7330 9.2399 1.4373 56.3313 79.2150 185.4070 228.5290 222.1480 234.9110 430.2910 1023.6000 851.4840
  408.900 3.9084 2.2037 5.0420 8.8510 9.0200 1.4587 56.5967 81.7040 183.2070 229.1680 221.4770 236.8590 429.7380 1020.6400 848.7469
  409.000 3.8019 2.1265 5.0970 8.9470 8.9600 1.4533 56.8620 77.7880 185.5830 228.5290 222.8190 234.2400 424.3790 1017.7800 848.0270
  409.100 3.4834 2.1647 5.0310 9.2150 9.4200 1.4400 57.4813 77.7210 188.4430 226.6140 223.4900 229.7390 413.5320 1015.0400 849.6240
  409.200 2.9854 2.2032 5.1860 9.4190 9.7000 1.4160 57.4813 81.4710 188.7510 224.6990 222.8190 226.5800 405.5920 1012.5200 850.2800
  409.300 2.8054 2.1741 5.2300 9.6230 9.8400 1.4000 56.0654 79.1820 195.5720 227.2530 220.8050 233.7000 403.8410 1011.1800 849.6460
  409.400 2.7416 2.2523 5.2740 9.8910 9.7601 1.3467 55.2697 79.2480 194.8680 228.5290 221.4770 235.5820 405.4180 1010.5900 848.4230
  409.500 2.7353 2.2469 5.2300 10.2350 9.8800 1.3387 55.7120 79.8780 195.7920 227.2530 221.4770 233.0290 406.3160 1010.7500 848.2260
  409.600 2.8054 2.2041 5.2190 10.6640 10.0000 1.3893 57.8353 75.7640 192.9320 227.8910 220.8050 234.9770 407.8300 1011.1100 847.9790
  409.700 3.2659 2.2621 5.1640 11.1360 10.3400 1.4107 56.4197 76.8920 181.7100 224.6990 222.8190 226.5800 413.9960 1012.1500 846.5490
  409.800 4.5290 2.1948 5.1190 11.7480 9.9800 1.3973 55.8889 70.6530 171.0610 225.3380 220.8050 229.8700 424.3600 1013.7600 844.0139
  409.900 5.7943 2.1136 5.0970 12.6380 9.8600 1.4027 53.7656 70.4870 153.2390 224.6990 218.7920 230.6070 435.6810 1015.8300 841.5570
  410.000 5.5847 2.0355 5.1640 13.3040 9.5800 1.4347 54.7390 59.7350 142.7650 225.9760 223.4900 228.4620 441.6690 1017.4200 840.7570
  410.100 4.4566 2.1526 5.2970 13.8290 9.4800 1.4640 53.5887 60.4650 131.2800 225.9760 221.4770 230.4750 438.4430 1017.5600 842.1880
  410.200 3.5975 2.1873 5.4630 14.0440 9.3600 1.4507 53.6773 60.7640 130.7960 225.3380 218.7920 231.8830 426.9960 1016.0800 845.2860
  410.300 3.1989 2.2597 5.6730 13.9370 9.7801 1.4667 52.5272 58.2420 135.4160 224.6990 218.1210 231.2780 413.6720 1014.2200 848.7490
  410.400 3.0974 2.2274 5.8950 13.5500 10.0400 1.4347 51.9084 59.9680 139.2890 224.0610 220.8050 227.3160 404.5290 1013.4800 851.6710
  410.500 3.0479 2.2482 5.9950 13.1210 10.2600 1.3947 52.7930 57.9430 150.4660 225.3380 218.7920 231.8830 401.7410 1014.3400 853.6450
  410.600 2.9992 2.2563 6.0060 12.7780 10.2600 1.3653 54.2083 58.8720 155.6590 225.9760 218.7920 233.1600 402.7550 1016.1300 855.0239
  410.700 2.9242 2.2180 5.9280 12.6060 10.3400 1.4000 56.4200 58.3080 158.3870 227.2530 217.4500 237.0560 403.7910 1017.9500 856.4359
  410.800 2.9512 2.3026 5.7620 12.6170 10.7200 1.4613 57.4819 57.7440 160.0160 227.2530 220.1340 234.3710 402.4890 1019.5300 858.5310
  410.900 3.1477 2.2078 5.6070 12.8420 11.1199 1.4987 57.4818 60.4990 152.2270 226.6140 220.1340 233.0940 399.1950 1020.8700 861.1909
  411.000 3.5156 2.2652 5.5630 13.1750 11.6800 1.5147 58.1007 53.8280 149.6740 224.6990 218.7920 230.6070 395.9870 1022.1300 863.7350
  411.100 4.5709 2.2825 5.5290 13.5930 11.7600 1.4693 58.2773 57.4790 136.1640 225.9760 220.8050 231.1470 395.2260 1023.4500 865.3590
  411.200 7.1285 2.2296 5.5290 14.0870 11.1000 1.4560 60.3120 56.8150 127.3630 224.6990 218.7920 230.6070 397.7360 1024.9800 865.8850
  411.300 9.5280 2.0873 5.5850 14.5270 11.0400 1.4987 60.3120 53.5960 114.6460 225.9760 219.4630 232.4890 402.9600 1026.7900 865.6050
  411.400 11.1173 2.0606 5.7400 14.6990 10.7400 1.5600 60.4007 54.6250 96.9110 223.4230 220.1340 226.7110 409.2310 1028.7400 865.0510
  411.500 12.5603 2.1102 6.0060 14.6130 10.4000 1.5333 60.2237 52.7660 91.7180 223.4230 219.4630 227.3820 414.9640 1030.7100 864.7280
  411.600 13.0617 2.1228 6.3270 14.2260 9.5000 1.4720 59.9583 52.3350 86.7460 223.4230 220.8050 226.0400 419.3980 1032.4600 864.6970
  411.700 13.6773 2.0675 6.7480 13.6150 9.1000 1.4133 59.5160 55.8530 88.2860 221.5070 219.4630 223.5520 422.6610 1033.8400 864.7750
