~Version information
  VERS.                           2.00 : CWLS log ASCII Standard -Version 2.00
  WRAP.                             NO : One line per depth step
~Well information
#MNEM.UNIT              Data Type        Information
#----------------------------------------------------------------------
  STRT.M                         0.000 : çÄóÄãé áÄèàëà
  STOP.M                       840.000 : äéçÖñ áÄèàëà
  STEP.M                         0.100 : òÄÉ
  NULL.                      -999.2500 : äéÑ éíëìíëíÇàü àçîéêåÄñàà
  WELL.                            308 : Well Name
  FLD .                       KARATUBE : Field Name
  CTRY.                     KAZAKHSTAN : Country
  SRVC.        JSC "KAZPROMGEOPHYSICA" : Service company
  DATE.                       08.06.04 : Log date
~Curve information
#MNEM.UNIT                               Curve Description
#----------------------------------------------------------------------
  DEPT.M                               : Depth Curve
  LL3 .OHMM                            : Appar.resist.laterolog,3 electrodes
  RHOB.G/C3                            : Bulk density by gamma-gamma log
  GZ3 .OHMM                            : App.resistivity by lateral A2.0M0.5N
  GZ3B.OHMM                            : App.resistivity by lateral N0.5å2.0Ä
  GR  .UR/H                            : Gamma-ray log
  NGLD.UE                              : Neutron-gamma log
  SP  .MV                              : Spontaneous potential
  CILR.MMHO                            : Conduct. by sonde 7I1.6,react.signal
  CILA.MMHO                            : Conduct. by sonde 7I1.6,active signal
  CALI.MM                              : Caliper
  C1  .MM                              : Diameter from profile1
  C2  .MM                              : Diameter from profile2
  DTP .US/M                            : Interval travel time (P-wave)
  T1  .US                              : Travel time1
  T2  .US                              : Travel time2
~Parameter information
#MNEM.UNIT              Value            Description
#----------------------------------------------------------------------
  BS  .MM                        215.9 : Bit Size
~Ascii Log Data
# ...
  648.200 4.8306 2.2142 9.9620 14.3550 6.5200 1.5573 71.4590 53.3970 133.1720 218.3160 218.1210 218.5110 395.9100 977.8190 819.4550
  648.300 4.6026 2.1970 10.0950 14.3660 6.8999 1.5813 70.1314 52.6670 132.4240 221.5070 219.4630 223.5520 395.1000 977.6990 819.6589
  648.400 4.6238 2.2384 10.0180 14.3020 7.1600 1.5733 70.7507 55.2220 132.9960 220.8690 221.4770 220.2620 397.1600 978.7209 819.8569
  648.500 4.7315 2.1328 9.9730 14.3020 7.0800 1.5947 72.4326 51.9040 131.6760 219.5920 220.8050 218.3800 400.5300 980.5930 820.3810
  648.600 5.1168 2.1328 9.7960 14.3340 6.8800 1.5733 73.4933 52.5670 127.1870 223.4230 220.1340 226.7110 403.4420 982.6720 821.2949
  648.700 5.4450 2.1428 9.6080 14.3660 7.1000 1.5547 72.7861 51.6710 126.3950 222.1460 221.4770 222.8150 404.8070 984.4449 822.5220
  648.800 5.5335 2.1066 9.4410 14.5270 6.8800 1.5520 71.2815 49.9130 125.7350 216.4010 220.8050 211.9960 404.0980 985.7570 824.1179
  648.900 5.3827 2.1253 9.3750 14.5270 6.6798 1.5387 70.9280 52.6340 124.8110 217.6770 219.4630 215.8920 401.8060 986.7849 826.0630
  649.000 5.3456 2.1442 9.2750 14.4730 6.4799 1.5360 71.1051 50.8090 129.0350 214.4860 218.7920 210.1790 398.8860 987.8679 828.3140
  649.100 5.2481 2.1905 9.1750 14.3770 6.6601 1.5173 72.6973 50.6430 127.5390 217.6770 220.8050 214.5490 396.6850 989.2860 830.6119
  649.200 5.2966 2.1805 9.1530 14.3020 6.8000 1.5333 71.1938 50.0780 127.6710 221.5070 223.4900 219.5250 395.9360 990.9210 832.5460
  649.300 5.7412 2.1945 9.1090 14.2800 6.4601 1.5120 71.5467 49.5480 125.8230 219.5920 221.4770 217.7080 396.9280 992.2340 833.4630
  649.400 6.2517 2.1505 9.1200 14.5050 6.3800 1.4827 70.3965 51.7050 124.8550 220.8690 221.4770 220.2620 399.8300 992.7319 832.7999
  649.500 6.7453 2.2087 9.0980 14.6230 6.5799 1.4667 71.2813 48.8170 118.3420 220.8690 217.4500 224.2890 405.1240 992.3619 830.3120
  649.600 7.3114 2.1317 9.0650 14.9240 6.5999 1.4320 71.1047 51.5390 110.8610 219.5920 217.4500 221.7350 411.5950 991.8300 827.1920
  649.700 8.0538 2.0700 9.1200 15.1600 6.3200 1.4560 70.3969 45.5320 107.8690 222.7840 219.4630 226.1050 416.9380 991.8970 825.1219
  649.800 8.4140 2.0943 9.2860 15.4070 5.8201 1.4587 71.2816 48.9830 103.7320 220.2310 220.8050 219.6560 418.3670 993.1360 825.7889
  649.900 7.9433 2.1854 9.5410 15.5140 5.7000 1.4693 71.9006 49.2160 106.5480 220.2310 222.1480 218.3140 415.9150 995.2269 828.8610
  650.000 7.4645 2.2148 9.9960 15.5680 5.6800 1.4240 72.5203 48.4520 102.2360 223.4230 220.1340 226.7110 410.8610 997.2440 832.8989
  650.100 7.4131 2.1178 10.4060 15.5890 5.6600 1.4267 72.4320 49.0830 104.9640 222.7840 223.4900 222.0780 405.6460 998.1100 835.8510
  650.200 7.3114 2.1106 10.8050 15.4390 5.6200 1.4293 72.0782 47.7560 107.5170 221.5070 222.1480 220.8670 402.2270 997.7180 836.8270
  650.300 7.0469 2.1418 11.1040 15.2240 5.5400 1.4933 72.4321 50.6760 109.4970 222.1460 222.1480 222.1440 403.0070 997.4370 836.2340
  650.400 6.8234 2.1276 11.3700 15.0310 5.4399 1.5147 73.1396 47.8880 113.0610 220.2310 219.4630 220.9980 406.6790 998.0480 835.3770
  650.500 6.6988 2.0374 11.5580 14.6880 5.3200 1.5280 73.4935 50.8090 112.4010 220.2310 219.4630 220.9980 411.4440 999.2870 834.7090
  650.600 6.5313 2.1154 11.6470 14.4620 5.1800 1.4506 73.5820 48.3200 115.5700 221.5070 222.8190 220.1960 413.3620 999.2720 833.9270
  650.700 6.5615 2.1073 11.7240 14.3020 5.3400 1.3707 72.9629 48.8510 117.1540 222.1460 220.8050 223.4860 413.3070 997.7209 832.3979
  650.800 6.6834 2.0756 11.9460 14.1730 5.1800 1.3653 72.1665 51.4390 116.7140 223.4230 223.4900 223.3550 411.7300 995.1160 830.4240
  650.900 6.7298 2.0688 12.0350 14.1300 5.3200 1.4293 71.9896 48.7840 120.1900 220.8690 220.1340 221.6040 410.2940 992.7889 828.6710
  651.000 6.1802 2.0892 12.2120 14.1300 5.4999 1.5067 72.5205 49.8460 117.9020 218.9540 221.4770 216.4320 408.2390 991.2429 827.9470
  651.100 5.0350 2.1031 12.3780 14.2160 5.9401 1.5200 70.2200 48.9500 125.2070 220.2310 221.4770 218.9850 405.0120 990.4420 828.4370
  651.200 4.4875 2.1450 12.6440 14.3120 6.0400 1.4880 69.7779 49.4480 132.9520 220.2310 219.4630 220.9980 400.6630 990.1810 829.9160
  651.300 4.4361 2.1074 12.8770 14.4300 6.1000 1.4213 68.9823 51.3060 141.5770 220.8690 219.4630 222.2750 395.8300 990.0300 831.6980
  651.400 4.5290 2.0885 12.9550 14.6880 6.0600 1.4373 71.3703 50.3770 150.4660 220.8690 221.4770 220.2620 392.4600 990.1250 833.1410
  651.500 4.6238 2.1187 12.9320 15.0850 6.1600 1.4587 71.1933 54.2270 148.1340 224.0610 220.1340 227.9880 392.0490 990.4130 833.5930
  651.600 4.9774 2.2465 12.6660 15.6750 6.3001 1.4373 71.8127 48.2530 149.4100 222.7840 220.1340 225.4340 396.2420 991.2579 832.7610
  651.700 5.5847 2.2265 12.3450 16.4370 6.2600 1.4480 72.6969 52.1360 139.6410 219.5920 220.1340 219.0510 403.7690 992.5389 831.0310
  651.800 6.2517 2.1868 12.1120 17.3490 5.8802 1.5094 74.1129 50.9410 133.9200 221.5070 218.1210 224.8940 412.2650 994.3740 829.4680
  651.900 6.3973 2.1332 12.0130 18.2820 5.1799 1.5573 73.9359 47.8550 123.1390 220.8690 221.4770 220.2620 417.7700 996.2030 829.0950
  652.000 6.3973 2.1062 12.0240 19.0760 5.0200 1.5254 72.7853 47.8220 109.9810 222.7840 218.1210 227.4480 419.1510 997.7219 830.0620
  652.100 7.1121 2.1446 12.0900 19.9030 5.1001 1.4640 70.1317 44.6360 106.8560 220.2310 220.1340 220.3270 417.4990 998.7450 831.7450
  652.200 9.7051 2.2012 12.2900 20.5570 5.2000 1.5067 68.8049 45.4990 101.5320 220.2310 220.1340 220.3270 415.9430 999.6810 833.3040
  652.300 11.2460 2.1390 12.5000 21.2010 4.7601 1.5520 68.0972 42.2800 98.6270 222.1460 220.8050 223.4860 415.9660 1000.7400 834.3530
  652.400 9.5499 2.0945 12.7220 21.4160 4.5400 1.5493 70.3082 43.0760 94.1830 222.7840 222.1480 223.4210 416.3710 1001.5500 835.0050
  652.500 8.2985 2.0731 12.9660 21.5340 4.5799 1.5120 70.2199 43.0430 93.6110 220.8690 220.1340 221.6040 415.3030 1001.8500 835.7290
  652.600 7.2277 2.2166 13.1540 21.5120 4.9401 1.4667 70.4853 40.7540 99.3310 219.5920 219.4630 219.7220 411.8170 1001.8000 837.0750
  652.700 6.6222 2.1898 13.3650 21.3080 5.2800 1.4720 70.8387 44.3040 102.1040 222.1460 220.1340 224.1570 407.6370 1002.4100 839.3579
  652.800 6.1376 2.1760 13.4420 20.9430 5.4200 1.4533 72.5207 42.0150 113.1490 218.9540 222.8190 215.0890 404.3510 1004.4200 842.6810
  652.900 5.9020 2.1726 13.4200 20.6970 5.3799 1.4347 73.3166 42.9770 114.8220 217.6770 220.1340 215.2210 403.3090 1008.0700 846.7469
  653.000 5.5335 2.0794 13.2210 20.6860 5.3600 1.4080 72.4315 42.4130 118.4300 218.9540 220.1340 217.7740 404.1020 1012.8000 851.1589
  653.100 5.2845 2.1472 13.0100 20.8900 5.4801 1.4373 71.7240 41.7490 121.4220 219.5920 220.8050 218.3800 406.1010 1017.8300 855.3870
  653.200 5.4828 2.1605 12.7000 21.2760 5.8800 1.4720 71.3704 43.5740 120.8940 218.9540 218.1210 219.7870 408.0240 1022.4400 859.2319
  653.300 5.9429 2.1147 12.3560 22.0160 5.8400 1.5120 70.1314 40.6210 114.9100 217.6770 219.4630 215.8920 408.8670 1026.3500 862.7999
  653.400 6.3387 2.1298 11.9350 22.9500 5.5599 1.5520 69.7778 41.9150 109.2770 219.5920 218.7920 220.3930 408.0250 1029.6100 866.4050
  653.500 6.9343 2.1378 11.6360 24.0120 5.0401 1.5867 69.5126 37.1700 102.7200 217.6770 220.8050 214.5490 405.9340 1032.7000 870.3230
  653.600 7.6384 2.1543 11.3810 25.3000 4.9600 1.6080 70.8393 38.7960 94.9310 221.5070 220.8050 222.2100 404.0330 1036.1500 874.5349
  653.700 8.2604 2.1802 11.2260 26.5450 5.1400 1.5840 71.8124 36.6720 89.4740 221.5070 222.8190 220.1960 403.3540 1040.2900 878.9470
  653.800 9.6605 2.1728 11.2040 27.8430 5.3000 1.5333 72.3433 35.6430 78.3850 223.4230 220.8050 226.0400 405.3740 1045.4800 883.3309
  653.900 10.5439 2.1712 11.2370 29.1300 4.9199 1.4987 71.3707 34.8130 76.1840 223.4230 222.8190 224.0260 409.7690 1051.6300 887.7260
  654.000 9.9770 2.1150 11.5250 30.3540 4.5001 1.4213 69.9543 32.9220 70.9920 220.8690 221.4770 220.2620 416.1890 1058.5300 892.0540
  654.100 8.3560 2.1230 11.8680 31.2760 4.4201 1.4160 67.8317 35.6430 74.1160 220.8690 222.1480 219.5910 421.8900 1064.8700 896.1160
  654.200 6.7920 2.1394 12.2670 32.0380 5.1200 1.4160 66.7703 31.7940 75.5240 220.2310 221.4770 218.9850 426.0470 1069.6801 899.2589
