~Version information
  VERS.                           2.00 : CWLS log ASCII Standard -Version 2.00
  WRAP.                             NO : One line per depth step
~Well information
#MNEM.UNIT              Data Type        Information
#----------------------------------------------------------------------
  STRT.M                         0.000 : çÄóÄãé áÄèàëà
  STOP.M                       840.000 : äéçÖñ áÄèàëà
  STEP.M                         0.100 : òÄÉ
  NULL.                      -999.2500 : äéÑ éíëìíëíÇàü àçîéêåÄñàà
  WELL.                            308 : Well Name
  FLD .                       KARATUBE : Field Name
  CTRY.                     KAZAKHSTAN : Country
  SRVC.        JSC "KAZPROMGEOPHYSICA" : Service company
  DATE.                       08.06.04 : Log date
~Curve information
#MNEM.UNIT                               Curve Description
#----------------------------------------------------------------------
  DEPT.M                               : Depth Curve
  LL3 .OHMM                            : Appar.resist.laterolog,3 electrodes
  RHOB.G/C3                            : Bulk density by gamma-gamma log
  GZ3 .OHMM                            : App.resistivity by lateral A2.0M0.5N
  GZ3B.OHMM                            : App.resistivity by lateral N0.5å2.0Ä
  GR  .UR/H                            : Gamma-ray log
  NGLD.UE                              : Neutron-gamma log
  SP  .MV                              : Spontaneous potential
  CILR.MMHO                            : Conduct. by sonde 7I1.6,react.signal
  CILA.MMHO                            : Conduct. by sonde 7I1.6,active signal
  CALI.MM                              : Caliper
  C1  .MM                              : Diameter from profile1
  C2  .MM                              : Diameter from profile2
  DTP .US/M                            : Interval travel time (P-wave)
  T1  .US                              : Travel time1
  T2  .US                              : Travel time2
~Parameter information
#MNEM.UNIT              Value            Description
#----------------------------------------------------------------------
  BS  .MM                        215.9 : Bit Size
~Ascii Log Data
# ...
  308.700 1.4689 1.9392 4.7980 2.1010 10.7600 1.3387 47.6617 226.7550 289.8770 218.3160 231.5440 205.0880 472.6780 1209.1899 1020.1200
  308.800 1.5205 1.9279 4.6210 2.0690 10.2399 1.3707 48.5462 226.0910 284.2440 217.0390 232.2150 201.8630 478.1190 1211.3400 1020.0900
  308.900 1.5885 1.9441 4.4760 2.1010 10.2800 1.3173 49.7850 226.6550 278.5670 215.7620 228.8590 202.6660 488.2520 1214.4700 1019.1700
  309.000 1.6293 1.9125 4.3550 2.1440 10.4200 1.2747 50.3157 228.3480 277.2470 218.9540 232.2150 205.6930 499.9480 1217.8600 1017.8800
  309.100 1.6596 1.8817 4.2660 2.1660 10.6400 1.2213 49.9620 222.4070 274.8270 220.8690 230.8720 210.8660 509.1630 1220.4399 1016.7700
  309.200 1.6866 1.9264 4.1330 2.2190 10.1600 1.1893 49.7850 227.4850 269.6340 218.3160 224.8320 211.7990 513.6079 1221.4600 1016.0200
  309.300 1.6368 1.9823 4.0890 2.2190 9.9600 1.2427 47.2200 225.8920 280.2840 217.6770 226.8460 208.5090 513.2760 1220.8400 1015.5300
  309.400 1.5346 1.9951 4.0110 2.2300 10.2999 1.2880 46.6887 226.9540 275.4870 218.3160 223.4900 213.1420 510.3860 1219.2100 1015.0600
  309.500 1.4555 1.9653 3.9110 2.1770 10.9000 1.2933 46.4233 232.1310 278.1270 221.5070 222.1480 220.8670 507.2930 1217.3900 1014.4800
  309.600 1.3804 1.8755 3.7890 2.1660 11.0600 1.2880 48.5463 234.6190 284.5520 223.4230 225.5030 221.3420 505.7940 1216.0400 1013.7200
  309.700 1.3459 1.8548 3.7010 2.1660 11.3200 1.3147 48.3692 242.1190 290.5370 221.5070 225.5030 217.5120 506.0470 1215.4700 1013.0500
  309.800 1.3428 1.8882 3.5460 2.1230 11.6201 1.3387 47.3964 243.0150 289.8770 220.8690 230.2010 211.5370 507.2260 1215.7300 1012.8400
  309.900 1.3614 1.9319 3.3240 2.0910 12.2000 1.3253 47.1310 247.6940 296.1260 220.8690 225.5030 216.2350 507.4480 1216.4900 1013.5200
  310.000 1.3740 1.8691 3.1580 2.1230 12.0800 1.3093 47.0427 246.4330 293.3970 218.9540 220.8050 217.1030 505.9700 1217.3700 1014.9800
  310.100 1.3996 1.8671 3.0020 2.1660 11.9800 1.3573 47.1310 247.2960 294.9380 221.5070 220.8050 222.2100 503.1120 1218.0000 1016.7600
  310.200 1.3772 1.8526 2.8360 2.2190 11.3600 1.3813 46.0692 246.7650 289.7890 223.4230 228.8590 217.9860 500.8650 1218.5300 1018.1800
  310.300 1.3614 1.8451 2.7370 2.2730 11.3200 1.3333 45.8040 250.5810 297.5780 220.8690 230.2010 211.5370 500.5540 1219.2200 1019.0000
  310.400 1.3397 1.8323 2.6260 2.3270 11.1800 1.2667 45.8040 247.8930 288.9970 220.8690 227.5170 214.2210 502.6200 1220.1899 1019.1500
  310.500 1.3243 1.8284 2.5260 2.4130 11.0600 1.2507 45.4503 252.1410 288.5570 222.1460 233.5570 210.7350 505.9580 1221.1500 1018.7700
  310.600 1.3366 1.8247 2.4370 2.4560 11.0400 1.2613 45.0080 244.2760 292.2530 224.6990 236.9130 212.4860 514.5300 1223.4900 1017.6800
  310.700 1.3552 1.8370 2.3490 2.5200 10.8800 1.2667 43.2386 248.0590 294.0580 223.4230 237.5840 209.2610 526.3590 1227.9100 1017.3700
  310.800 1.3709 1.7916 2.2930 2.6270 11.3400 1.2747 42.4425 246.9970 293.4410 231.0830 241.6110 220.5550 540.5439 1235.0300 1018.8100
  310.900 1.3583 1.8275 2.2380 2.7670 11.2000 1.2320 42.3540 240.3940 300.1740 216.4010 229.5300 203.2710 541.1200 1237.4100 1020.9600
  311.000 1.3677 1.8496 2.1710 2.8310 11.1800 1.2000 44.4773 236.6440 295.1580 217.0390 228.8590 205.2190 531.0129 1230.1400 1017.7300
  311.100 1.3305 1.8555 2.1490 2.9380 11.3000 1.1920 47.1313 234.5200 297.3140 218.9540 231.5440 206.3650 512.5480 1208.7300 1003.7100
  311.200 1.3213 1.8711 2.1600 3.0560 11.7200 1.1947 48.6351 223.6350 303.1670 219.5920 231.5440 207.6410 503.0430 1181.7600 980.5410
  311.300 1.2942 1.9091 2.1490 3.1420 11.8400 1.1920 47.3082 223.2040 306.8630 217.0390 228.1880 205.8900 500.5430 1155.5900 955.3700
  311.400 1.2706 1.8098 2.1050 3.2600 11.8600 1.2053 45.3617 214.4100 310.5160 220.8690 226.8460 214.8930 503.6470 1136.8000 935.3369
  311.500 1.2190 1.7685 2.0720 3.4210 11.3000 1.2960 43.5923 212.7170 312.8480 225.9760 228.8590 223.0930 506.6070 1123.4700 920.8300
  311.600 1.1940 1.8071 2.0600 3.5180 11.0600 1.4080 42.1767 199.7750 320.2410 225.3380 222.8190 227.8560 510.1930 1114.2900 910.2090
  311.700 1.1912 1.8443 2.0160 3.6570 10.4600 1.4133 40.7611 202.2310 323.5410 225.3380 224.1610 226.5140 514.0819 1107.4500 901.8220
  311.800 1.1749 1.8819 1.9940 3.7540 10.4600 1.3707 39.9653 198.7130 329.5260 222.1460 224.8320 219.4590 516.7560 1102.4000 895.7009
  311.900 1.1967 1.8638 1.9610 3.9150 10.4600 1.3280 41.1157 191.2800 337.4910 222.1460 230.2010 214.0900 517.1290 1098.2400 891.3889
  312.000 1.2078 1.9057 1.8940 4.1190 10.6200 1.2880 43.9463 185.2400 332.3870 220.8690 234.8990 206.8390 515.2980 1093.6700 887.5480
  312.100 1.2647 1.9403 1.7610 4.3330 10.7800 1.3120 45.9810 180.8270 329.4820 220.8690 230.8720 210.8660 512.2980 1087.8199 882.8989
  312.200 1.3213 1.9344 1.7500 4.6550 10.5600 1.3307 46.7769 165.5620 325.7860 221.5070 229.5300 213.4850 509.0000 1080.4200 876.8230
  312.300 1.3646 2.0147 1.6500 5.0200 10.0999 1.3680 46.1581 162.9070 317.6450 220.8690 223.4900 218.2480 504.3820 1072.2300 870.4810
  312.400 1.4028 2.0190 1.6500 5.3310 9.2801 1.3920 45.8927 152.9520 310.4280 219.5920 226.8460 212.3390 495.8900 1064.4500 866.0959
  312.500 1.4825 2.0395 1.6500 5.7070 8.9000 1.4453 44.5657 148.9360 292.9130 219.5920 226.8460 212.3390 479.5930 1057.7800 865.9430
  312.600 1.8750 2.1351 1.6170 6.0720 8.7600 1.5627 44.6540 133.4060 280.5040 222.1460 230.8720 213.4190 454.6660 1052.4700 870.6030
  312.700 2.5763 2.2124 1.5840 6.4360 8.9400 1.5813 45.2733 127.4660 257.1810 220.2310 228.1880 212.2740 424.2680 1048.8199 879.1129
  312.800 3.1405 2.2474 1.6170 6.9090 8.8400 1.5627 46.9539 117.8750 239.9300 217.6770 227.5170 207.8380 395.3260 1048.1300 889.9979
  312.900 3.3884 2.3046 1.5840 7.1870 8.7800 1.5040 48.1040 105.9290 219.6880 220.2310 222.8190 217.6430 373.7960 1051.3101 901.7960
  313.000 3.3266 2.2622 1.5840 7.3160 8.4800 1.4853 47.3963 96.8030 195.2640 222.7840 225.5030 220.0650 362.0680 1058.2000 913.3729
  313.100 3.0549 2.2857 1.6620 7.3590 8.1400 1.4613 46.7770 93.9820 187.2550 224.0610 226.8460 221.2760 359.8950 1066.9000 922.9399
  313.200 2.8708 2.3079 1.7500 7.1980 7.6400 1.4587 44.7422 85.8190 184.6150 225.3380 223.4900 227.1850 366.6090 1075.8500 929.2080
  313.300 2.6182 2.2834 1.8170 6.9300 7.3400 1.4320 42.4426 87.4450 184.8790 223.4230 222.8190 224.0260 382.3620 1084.4900 931.5460
  313.400 2.5351 2.2541 1.8280 6.6720 7.5600 1.3813 41.5577 86.2830 193.3720 220.8690 224.1610 217.5770 405.4760 1093.0601 930.8669
  313.500 2.3823 2.1993 1.9830 6.4150 8.0400 1.3227 43.1500 85.1550 196.3640 218.9540 221.4770 216.4320 431.5160 1101.4200 928.8170
  313.600 2.1330 2.1867 2.0490 6.2220 8.5800 1.3200 46.7770 86.2830 203.3170 215.7620 220.8050 210.7190 454.2620 1108.7100 927.0100
  313.700 2.0137 2.1122 2.0830 6.1680 9.2800 1.3440 49.9619 86.3160 209.6540 217.0390 220.8050 213.2730 469.2860 1114.1801 926.4680
  313.800 2.1086 2.0603 2.0720 6.1570 9.2800 1.3413 51.3773 89.5020 211.2380 217.0390 220.1340 213.9440 475.2320 1117.3800 927.2889
  313.900 2.4099 2.0909 2.1600 6.2110 8.9401 1.3280 50.4043 87.3780 210.1380 216.4010 216.7790 216.0230 473.9590 1118.7100 929.1260
  314.000 2.8907 2.0920 2.2490 6.3930 8.4200 1.3173 49.6083 89.4030 206.0900 214.4860 215.4360 213.5350 468.5230 1118.7700 931.3629
  314.100 3.1477 2.0803 2.3150 6.5870 8.2200 1.3307 49.6967 87.7760 194.8680 215.7620 216.7790 214.7460 462.3200 1118.5500 933.6210
  314.200 3.5318 2.1656 2.4040 6.7800 8.1000 1.3173 50.0503 85.2540 186.3750 218.3160 214.7650 221.8660 457.4490 1118.6500 935.6720
  314.300 4.2073 2.1959 2.4590 6.9730 7.8400 1.2773 50.2271 85.1550 173.4810 220.2310 219.4630 220.9980 455.1180 1119.4399 937.3929
  314.400 4.8084 2.1157 2.6260 7.1980 7.7200 1.2853 50.2270 87.4780 171.7650 220.8690 220.8050 220.9330 455.4660 1120.7500 938.5620
  314.500 5.3088 2.0768 2.7920 7.3380 7.6800 1.3493 50.7580 82.3340 162.0400 220.8690 222.8190 218.9190 458.0340 1122.3101 939.0940
  314.600 6.1944 2.1491 3.0470 7.4020 7.7400 1.4560 51.9080 85.2210 153.9430 222.1460 223.4900 220.8020 461.2660 1123.7000 939.1899
