~Version
 VERS              .         3.0                           : CWLS LOG ASCII STANDARD - VERSION 3.0
 WRAP              .         NO                            : ONE LINE PER DEPTH STEP
 DLM               .         SPACE                         : DELIMITING CHARACTER(SPACE TAB OR COMMA)
~Well Information
#_______________________________________________________________________________
#
#PARAMETER_NAME    .UNIT     VALUE                         : DESCRIPTION
#_______________________________________________________________________________
STRT               .M        0.7                           : First reference value
STOP               .M        858.3                         : Last reference value
STEP               .M        0.1                           : Step increment
NULL               .         -9999                         : Missing value
COMP               .         ICPetroleum                   : Company
WELL               .         1-КН                          : Well name
FLD                .         Karatobe                      : Field
LOC                .                                       : Location
SRVC               .         AFGIS OJSC"Kazpromgeophysica" : Service Company
CTRY               .         KZ                            : Country
DATE               .         22/11/2003                    : Service Date
X                  .km       466484.43                     : X or East-West coordinate
Y                  .km       5308000.04                    : Y or North South coordinate
GDAT               .                                       : Geodetic Datum
HZCS               .                                       : Horizontal Co-ordinate System
COUNTRY            .         Kazakhstan                    : 
COUNTRY            .         Kazakhstan                    : 
EREF               .m        148.6                         : 
ORIGINALWELLNAME   .         1-KN                          :
UWI                .                                       : 
~Parameter Information Block
#_______________________________________________________________________________
#
#PARAMETER_NAME    .UNIT     VALUE                         : DESCRIPTION
#_______________________________________________________________________________
SET                .         Las                           : 
TLFamily_DEPT      .         Measured Depth                : 
TLFamily_PHI_FINAL .         Porosity                      : 
TLFamily_SW_AR     .         Water Saturation              : 
TLFamily_VSH_FINAL .         Shale Volume                  : 
~Curve Information
#_______________________________________________________________________________
#
#LOGNAME           .UNIT     LOG_ID                        : DESCRIPTION
#_______________________________________________________________________________
DEPT               .M                                      : Depth curve {F}
PHI_FINAL          .m3/m3                                  : Porosity {F}
SW_AR              .m3/m3                                  :  {F}
VSH_FINAL          .unitless                               : Vshale {F}
~Ascii
# ...
780.8      0.159779   1          0.1891724 
780.9      0.1490677  1          0.1987151 
781        0.1284518  1          0.1932513 
781.1      0.170795   1          0.1798162 
781.2      0.1802623  0.9828931  0.1667399 
781.3      0.2219146  0.7633327  0.1514916 
781.4      0.2344312  0.7147464  0.1366919 
781.5      0.2346657  0.7194215  0.125901  
781.6      0.2284064  0.7416778  0.1235392 
781.7      0.2262264  0.7591851  0.1130524 
781.8      0.2124119  0.8231418  0.12001   
781.9      0.187034   0.9628881  0.1330733 
782        0.1603132  1          0.1477449 
782.1      0.1686873  1          0.1342742 
782.2      0.1433502  1          0.1188522 
782.3      0.06637228 1          0.102814  
782.4      0.01911149 1          0.09170103
782.5      0.07778527 1          0.09061022
782.6      0.1480685  1          0.09500817
782.7      0.06275265 1          0.1165208 
782.8      0.03817691 1          0.1354783 
782.9      0.1638664  1          0.1527336 
783        0.1447417  1          0.1527336 
783.1      0.1183979  1          0.1465025 
783.2      0.1064526  1          0.1391287 
783.3      0.1026683  1          0.1342742 
783.4      0.09259726 1          0.1223597 
783.5      0.1157136  1          0.1165269 
783.6      0.1471728  1          0.1039365 
783.7      0.1286246  1          0.09611039
783.8      0.1331057  1          0.09500226
783.9      0.1256068  1          0.105074  
784        0.1014517  1          0.1153658 
784.1      0.0839178  1          0.1153596 
784.2      0.1401087  1          0.1039365 
784.3      0.1652599  1          0.102814  
784.4      0.1482559  1          0.09061022
784.5      0.1521274  1          0.09390293
784.6      0.1300729  1          0.09500817
784.7      0.1241746  1          0.09944613
784.8      0.1640854  1          0.09170689
784.9      0.1431246  1          0.09170689
785        0.1100793  1          0.09061022
785.1      0.1434664  1          0.08733728
785.2      0.1416808  1          0.08734309
785.3      0.1092706  1          0.1005599 
785.4      0.1370667  1          0.1354913 
785.5      0.1029134  1          0.1641528 
785.6      0.08460926 1          0.1946083 
785.7      0.1567591  1          0.2168811 
785.8      0.1844887  1          0.22117   
785.9      0.1579658  1          0.2140404 
786        0.1133794  1          0.207018  
786.1      0.1092688  1          0.2000863 
786.2      0.1239254  1          0.2000863 
786.3      0.1260006  1          0.1864901 
786.4      0.1077795  1          0.1878295 
786.5      0.1061572  1          0.1811455 
786.6      0.09779549 1          0.1771751 
786.7      0.12589    1          0.1552542 
786.8      0.1146141  1          0.1539922 
786.9      0.1237777  1          0.1706355 
787        0.1003112  1          0.211222  
787.1      0.1144823  1          0.2140404 
787.2      0.121817   1          0.1784974 
787.3      0.1248043  1          0.1590529 
787.4      0.1347817  1          0.1565194 
787.5      0.1166529  1          0.1693266 
787.6      0.1090604  1          0.1628746 
787.7      0.0735976  1          0.1654481 
787.8      0.06251182 1          0.1667399 
787.9      0.1230467  1          0.1603212 
788        0.1354648  1          0.1539922 
788.1      0.1268633  1          0.1477449 
788.2      0.07992127 1          0.1745477 
788.3      0.112765   1          0.2000789 
788.4      0.09439157 1          0.2327486 
788.5      0.1131683  1          0.2401074 
788.6      0.07695735 1          0.2386249 
788.7      0.07635631 1          0.2490684 
788.8      0.06714299 1          0.2415939 
788.9      0.01196049 1          0.2112145 
789        0.05762532 1          0.1851541 
789.1      0.09152421 1          0.1784974 
789.2      0.09746547 1          0.1784974 
789.3      0.0813959  1          0.1719339 
789.4      0.1251765  1          0.1641665 
789.5      0.08067869 1          0.1891724 
789.6      0.09910981 1          0.2084257 
789.7      0.1123789  1          0.2154665 
789.8      0.1050133  1          0.214048  
789.9      0.07242677 1          0.2056289 
790        0.07652538 1          0.2000937 
790.1      0.0977371  1          0.1918833 
790.2      0.09052634 1          0.1959688 
790.3      0.07525653 1          0.1719409 
790.4      0.09212068 1          0.1330604 
790.5      0.09965813 1          0.1119002 
790.6      0.09431366 1          0.1107571 
790.7      0.04617506 1          0.117685  
790.8      0.01867174 1          0.1061962 
790.9      0.04490086 1          0.109617  
791        0.1173349  1          0.1165208 
791.1      0.1359858  1          0.1235392 
791.2      0.07728711 1          0.1188522 
791.3      0.06790802 1          0.1142076 
791.4      0.06868678 1          0.09944613
791.5      0.03691903 1          0.08843125
791.6      0.05988123 1          0.07557549
791.7      0.05332921 1          0.07138421
791.8      0.04029021 1          0.06620322
791.9      0.01813293 1          0.06006661
792        0.03235826 1          0.05905763
792.1      0.02662899 1          0.0560356 
792.2      0.01369021 1          0.04710961
792.3      0.04209844 1          0.03935052
792.4      0.04616745 1          0.03648156
792.5      0.05434453 1          0.03839   
792.6      0.02973239 1          0.03839   
792.7      0.03320649 1          0.03457793
792.8      0.0613552  1          0.04030839
792.9      0.06444813 1          0.04418037
793        0.05156838 1          0.06006661
793.1      0.06835044 1          0.07243076
793.2      0.08255927 1          0.08410136
793.3      0.09647557 1          0.08303019
793.4      0.1010821  1          0.07981625
793.5      0.1080647  1          0.08302446
793.6      0.07243938 1          0.08518105
793.7      0.04793866 1          0.1016885 
793.8      0.07225479 1          0.102808  
793.9      0.123118   1          0.1016825 
794        0.1275022  1          0.09170689
794.1      0.1259807  1          0.09170689
794.2      0.09913195 1          0.08843125
794.3      0.1158936  1          0.07663863
794.4      0.1544021  0.9347184  0.06414521
794.5      0.1679784  0.8186659  0.06108365
794.6      0.1578472  0.7659197  0.05703673
794.7      0.1416205  0.778097   0.05905763
794.8      0.1067945  1          0.06006661
794.9      0.08645848 1          0.06108365
795        0.07706507 1          0.05403575
795.1      0.08707561 1          0.04808759
795.2      0.07032563 1          0.05006176
795.3      0.07141832 1          0.05105272
795.4      0.06176529 1          0.0560356 
795.5      0.05841053 1          0.05804587
795.6      0.08737224 1          0.06108365
795.7      0.1057782  1          0.06210332
795.8      0.07637525 1          0.05704214
795.9      0.07777646 1          0.0540304 
796        0.1026104  1          0.05006176
796.1      0.1231143  1          0.06620873
796.2      0.1073011  1          0.08410136
796.3      0.08418903 1          0.09722141
796.4      0.07771327 1          0.08951639
796.5      0.04698001 1          0.07663863
796.6      0.03169264 1          0.05703673
796.7      0.01879224 1          0.04907339
796.8      0.03483662 1          0.04515076
796.9      0.05748252 1          0.05503169
797        0.0509551  1          0.04710961
797.1      0.04018239 1          0.0412739 
797.2      0.01984235 1          0.03839   
797.3      0.02772167 1          0.03839   
797.4      0.01001949 1          0.0355285 
797.5      0.02653634 1          0.02893615
797.6      0.03552592 1          0.03175107
797.7      0.03768166 1          0.04030839
797.8      0.03380814 1          0.05204093
797.9      0          1          0.05905763
798        0.0491141  1          0.07452077
798.1      0.06577058 1          0.08734891
798.2      0.1021947  1          0.1061962 
798.3      0.09116907 1          0.1039365 
798.4      0.06631784 1          0.09280054
798.5      0.09282404 1          0.09721544
798.6      0.1032287  1          0.09170689
798.7      0.091376   1          0.1005659 
798.8      0.08450197 1          0.093897  
798.9      0.07972205 1          0.09944613
