~Version
 VERS              .         3.0                           : CWLS LOG ASCII STANDARD - VERSION 3.0
 WRAP              .         NO                            : ONE LINE PER DEPTH STEP
 DLM               .         SPACE                         : DELIMITING CHARACTER(SPACE TAB OR COMMA)
~Well Information
#_______________________________________________________________________________
#
#PARAMETER_NAME    .UNIT     VALUE                         : DESCRIPTION
#_______________________________________________________________________________
STRT               .M        0.7                           : First reference value
STOP               .M        858.3                         : Last reference value
STEP               .M        0.1                           : Step increment
NULL               .         -9999                         : Missing value
COMP               .         ICPetroleum                   : Company
WELL               .         1-КН                          : Well name
FLD                .         Karatobe                      : Field
LOC                .                                       : Location
SRVC               .         AFGIS OJSC"Kazpromgeophysica" : Service Company
CTRY               .         KZ                            : Country
DATE               .         22/11/2003                    : Service Date
X                  .km       466484.43                     : X or East-West coordinate
Y                  .km       5308000.04                    : Y or North South coordinate
GDAT               .                                       : Geodetic Datum
HZCS               .                                       : Horizontal Co-ordinate System
COUNTRY            .         Kazakhstan                    : 
COUNTRY            .         Kazakhstan                    : 
EREF               .m        148.6                         : 
ORIGINALWELLNAME   .         1-KN                          :
UWI                .                                       : 
~Parameter Information Block
#_______________________________________________________________________________
#
#PARAMETER_NAME    .UNIT     VALUE                         : DESCRIPTION
#_______________________________________________________________________________
SET                .         Las                           : 
TLFamily_DEPT      .         Measured Depth                : 
TLFamily_PHI_FINAL .         Porosity                      : 
TLFamily_SW_AR     .         Water Saturation              : 
TLFamily_VSH_FINAL .         Shale Volume                  : 
~Curve Information
#_______________________________________________________________________________
#
#LOGNAME           .UNIT     LOG_ID                        : DESCRIPTION
#_______________________________________________________________________________
DEPT               .M                                      : Depth curve {F}
PHI_FINAL          .m3/m3                                  : Porosity {F}
SW_AR              .m3/m3                                  :  {F}
VSH_FINAL          .unitless                               : Vshale {F}
~Ascii
# ...
689.8      0.4040057  0.1722752  0.01170992
689.9      0.3910668  0.1914466  0.003522092
690        0.3937887  0.1989166  0         
690.1      0.3942145  0.2027133  0.001491833
690.2      0.388991   0.2112538  0.006027566
690.3      0.3869914  0.2259284  0.01215379
690.4      0.3612989  0.2543654  0.01398067
690.5      0.3463104  0.2817855  0.01306298
690.6      0.3551797  0.2953768  0.01726112
690.7      0.3663762  0.3067992  0.0206504 
690.8      0.3675001  0.3317303  0.02466803
690.9      0.3671812  0.3560115  0.02314224
691        0.3501058  0.3605355  0.03261738
691.1      0.3558929  0.3145561  0.03596235
691.2      0.3684145  0.2667619  0.03152056
691.3      0.380573   0.2606345  0.01630644
691.4      0.3877612  0.307545   0.009471743
691.5      0.3814894  0.4319692  0.007731925
691.6      0.3711705  0.6290337  0.006445201
691.7      0.3575512  0.8074008  0         
691.8      0.355035   0.9009597  0         
691.9      0.3454253  0.9410746  0         
692        0.3536904  0.9225643  0         
692.1      0.3495966  0.9281072  0.004761598
692.2      0.3591566  0.8900628  0.00517988
692.3      0.3590717  0.8869185  0.006869174
692.4      0.351497   0.8892055  0.006444539
692.5      0.3335512  0.8830494  0.005599476
692.6      0.3162724  0.8765422  0.00902871
692.7      0.2877217  0.9348606  0.01964663
692.8      0.2585489  1          0.03762536
692.9      0.1649346  1          0.1271024 
693        0.1567824  1          0.2028318 
693.1      0.1426538  1          0.28957   
693.2      0.1350812  1          0.3226188 
693.3      0.1484222  1          0.3328767 
693.4      0.0935102  1          0.3503455 
693.5      0.1046791  1          0.3755462 
693.6      0.1268494  1          0.3664197 
693.7      0.1332402  1          0.3363286 
693.8      0.1249268  1          0.3363286 
693.9      0.1006718  1          0.3345959 
694        0.06575066 1          0.3277278 
694.1      0.01108758 1          0.3091822 
694.2      0          1          0.2847404 
694.3      0.06572431 1          0.3042173 
694.4      0.03406711 1          0.3294519 
694.5      0          1          0.3556619 
694.6      0          1          0.3610198 
694.7      0.02236319 1          0.3682453 
694.8      0.01369664 1          0.3737114 
694.9      0          1          0.3574305 
695        0.04755421 1          0.3345959 
695.1      0.05154955 1          0.3468115 
695.2      0.01627465 1          0.3755462 
695.3      0          1          0.4074186 
695.4      0.0060781  1          0.4288145 
695.5      0          1          0.4209623 
695.6      0          1          0.3959971 
695.7      0.01360354 1          0.364628  
695.8      0.06130902 1          0.3664295 
695.9      0.04593398 1          0.3885046 
696        0.00147679 1          0.4112587 
696.1      0.05021212 1          0.4190094 
696.2      0.07104388 1          0.4407309 
696.3      0.06476403 1          0.4630823 
696.4      0.08252345 1          0.4924819 
696.5      0.08075124 1          0.5032372 
696.6      0.04032798 1          0.496765  
696.7      0.06865071 1          0.4347442 
696.8      0.06674408 1          0.3847823 
696.9      0.06551515 1          0.3363286 
697        0.05673093 1          0.3141949 
697.1      0.1067108  1          0.2976632 
697.2      0.1179202  1          0.3175495 
697.3      0.1034886  1          0.3415449 
697.4      0.09631082 1          0.3432865 
697.5      0.07254785 1          0.3260173 
697.6      0.08851211 1          0.3058709 
697.7      0.07291973 1          0.2895528 
697.8      0.07727805 1          0.2705345 
697.9      0.08872063 1          0.2736619 
698        0.1061641  1          0.305862  
698.1      0.106917   1          0.3311621 
698.2      0.1187139  1          0.3556523 
698.3      0.1321835  1          0.3700561 
698.4      0.1221894  1          0.386636  
698.5      0.05986787 1          0.3941293 
698.6      0.08963788 1          0.4055111 
698.7      0.0973947  1          0.4630933 
698.8      0.06967058 1          0.5684576 
698.9      0.03619111 1          0.613961  
699        0.04723111 1          0.5569097 
699.1      0.08889994 1          0.415098  
699.2      0.1174109  1          0.2944029 
699.3      0.1285869  1          0.2415939 
699.4      0.1204529  1          0.2536179 
699.5      0.1134559  1          0.2752274 
699.6      0.1097063  1          0.2658533 
699.7      0.0819919  1          0.2401074 
699.8      0.09314135 1          0.2225994 
699.9      0.1413372  1          0.211222  
700        0.1256416  1          0.1973402 
700.1      0.1118971  1          0.1878295 
700.2      0.1123152  1          0.1946083 
700.3      0.1380005  1          0.1824782 
700.4      0.08178066 1          0.2070255 
700.5      0.122184   1          0.219729  
700.6      0.1039269  1          0.2566489 
700.7      0.09676116 1          0.272092  
700.8      0.1170297  1          0.2927791 
700.9      0.1626907  1          0.3009317 
701        0.1623415  1          0.3108488 
701.1      0.1432646  1          0.3294427 
701.2      0.1205799  1          0.3311529 
701.3      0.1142824  1          0.3141949 
701.4      0.1148378  1          0.2895528 
701.5      0.1294249  1          0.2815557 
701.6      0.1036384  1          0.2705262 
701.7      0.08534111 1          0.2643203 
701.8      0.07338508 1          0.2475706 
701.9      0.104722   1          0.2386249 
702        0.1010212  1          0.234208  
702.1      0.112836   1          0.2386328 
702.2      0.07279    1          0.2415939 
702.3      0.01330559 1          0.2126407 
702.4      0.05619993 1          0.1838001 
702.5      0.1054893  1          0.1798162 
702.6      0.1369876  1          0.2183223 
702.7      0.1558613  1          0.2911682 
702.8      0.1442862  1          0.3294335 
702.9      0.1259063  1          0.3397985 
703        0.1133393  1          0.3755265 
703.1      0.1214229  1          0.4508421 
703.2      0.1189068  1          0.5097601 
703.3      0.1318082  1          0.4989321 
703.4      0.06070205 1          0.4860931 
703.5      0.07037362 1          0.4882096 
703.6      0.0824324  1          0.4882096 
703.7      0.04070197 1          0.4630933 
703.8      0.05841101 1          0.4630823 
703.9      0.05559845 1          0.4528453 
704        0.0420379  1          0.4427511 
704.1      0.04925769 1          0.4288039 
704.2      0.07021721 1          0.4093414 
704.3      0.04963783 1          0.4055111 
704.4      0.05638456 1          0.3847724 
704.5      0.1011806  1          0.3700658 
704.6      0.1012012  1          0.3345959 
704.7      0.1031025  1          0.3009317 
704.8      0.1024192  1          0.2976544 
704.9      0.06700005 1          0.3058798 
705        0.1137127  1          0.3380567 
705.1      0.06430618 1          0.3664391 
705.2      0.04996253 1          0.3960072 
705.3      0.06561054 1          0.4288039 
705.4      0.1144732  1          0.4209519 
705.5      0.08733403 1          0.4347442 
705.6      0.1231515  1          0.3903579 
705.7      0.1155487  1          0.3468021 
705.8      0.0826268  1          0.2847489 
705.9      0.08464008 1          0.2597038 
706        0.1148467  1          0.2612332 
706.1      0.1338618  1          0.2783875 
706.2      0.1113801  1          0.2927878 
706.3      0.09790299 1          0.3226097 
706.4      0.07942383 1          0.3610391 
706.5      0.09903022 1          0.3884946 
706.6      0.05176431 1          0.3520813 
706.7      0.1017363  1          0.3075289 
706.8      0.1006878  1          0.2879416 
706.9      0.1129016  1          0.2960309 
707        0.09785526 1          0.299291  
707.1      0.1033213  1          0.2976632 
707.2      0.1000838  1          0.2879502 
707.3      0.1118536  1          0.2815557 
707.4      0.1097679  1          0.2581703 
707.5      0.07055242 1          0.2416019 
707.6      0.07101882 1          0.2342159 
707.7      0.1157523  1          0.2460686 
707.8      0.1639529  1          0.2831417 
707.9      0.1636907  1          0.3009317 
