~Version
 VERS              .         3.0                           : CWLS LOG ASCII STANDARD - VERSION 3.0
 WRAP              .         NO                            : ONE LINE PER DEPTH STEP
 DLM               .         SPACE                         : DELIMITING CHARACTER(SPACE TAB OR COMMA)
~Well Information
#_______________________________________________________________________________
#
#PARAMETER_NAME    .UNIT     VALUE                         : DESCRIPTION
#_______________________________________________________________________________
STRT               .M        0.7                           : First reference value
STOP               .M        858.3                         : Last reference value
STEP               .M        0.1                           : Step increment
NULL               .         -9999                         : Missing value
COMP               .         ICPetroleum                   : Company
WELL               .         1-КН                          : Well name
FLD                .         Karatobe                      : Field
LOC                .                                       : Location
SRVC               .         AFGIS OJSC"Kazpromgeophysica" : Service Company
CTRY               .         KZ                            : Country
DATE               .         22/11/2003                    : Service Date
X                  .km       466484.43                     : X or East-West coordinate
Y                  .km       5308000.04                    : Y or North South coordinate
GDAT               .                                       : Geodetic Datum
HZCS               .                                       : Horizontal Co-ordinate System
COUNTRY            .         Kazakhstan                    : 
COUNTRY            .         Kazakhstan                    : 
EREF               .m        148.6                         : 
ORIGINALWELLNAME   .         1-KN                          :
UWI                .                                       : 
~Parameter Information Block
#_______________________________________________________________________________
#
#PARAMETER_NAME    .UNIT     VALUE                         : DESCRIPTION
#_______________________________________________________________________________
SET                .         Las                           : 
TLFamily_DEPT      .         Measured Depth                : 
TLFamily_PHI_FINAL .         Porosity                      : 
TLFamily_SW_AR     .         Water Saturation              : 
TLFamily_VSH_FINAL .         Shale Volume                  : 
~Curve Information
#_______________________________________________________________________________
#
#LOGNAME           .UNIT     LOG_ID                        : DESCRIPTION
#_______________________________________________________________________________
DEPT               .M                                      : Depth curve {F}
PHI_FINAL          .m3/m3                                  : Porosity {F}
SW_AR              .m3/m3                                  :  {F}
VSH_FINAL          .unitless                               : Vshale {F}
~Ascii
# ...
180.4      0.2501898  0.681015   0.7044278 
180.5      0.2966113  0.5855626  0.6160727 
180.6      0.2998122  0.5854694  0.6205972 
180.7      0.2625085  0.6638821  0.6988624 
180.8      0.2389067  0.7321282  0.7303115 
180.9      0.237981   0.7348217  0.7089719 
181        0.2370208  0.7284847  0.7036179 
181.1      0.2409102  0.7084517  0.7139515 
181.2      0.2052188  0.8234593  0.796691  
181.3      0.09820528 1          1         
181.4      0.09776899 1          1         
181.5      0.1047877  1          0.9746531 
181.6      0.1665242  1          0.8437192 
181.7      0.203141   0.8376786  0.7452695 
181.8      0.1494097  1          0.8372777 
181.9      0.1305664  1          0.8679799 
182        0.1576807  1          0.8189499 
182.1      0.2599728  0.6708375  0.6472092 
182.2      0.3162109  0.5637006  0.5526781 
182.3      0.3123419  0.5753134  0.5738744 
182.4      0.3114192  0.583445   0.5825039 
182.5      0.3448118  0.5345036  0.5317875 
182.6      0.3819121  0.4895156  0.4849429 
182.7      0.3574879  0.5269878  0.5195449 
182.8      0.285226   0.6598604  0.6415637 
182.9      0.1958089  0.9430223  0.794039  
183        0.1305894  1          0.9306645 
183.1      0.1021409  1          1         
183.2      0.1448868  1          0.9303144 
183.3      0.1851866  1          0.8469491 
183.4      0.2392423  0.7920139  0.7537516 
183.5      0.2524389  0.7708721  0.7426642 
183.6      0.2304589  0.8350149  0.7987064 
183.7      0.2367579  0.8231964  0.7588468 
183.8      0.210182   0.9087503  0.7868665 
183.9      0.2760192  0.694411   0.6450386 
184        0.2638596  0.729181   0.6643552 
184.1      0.2148807  0.8877204  0.7582538 
184.2      0.1276702  1          0.941746  
184.3      0.1652597  1          0.9019032 
184.4      0.2687858  0.7085238  0.719934  
184.5      0.3462975  0.5540462  0.5759367 
184.6      0.3118542  0.6186852  0.6253191 
184.7      0.2827468  0.6821659  0.653703  
184.8      0.2498266  0.7630913  0.6985253 
184.9      0.2769972  0.6920915  0.6486455 
185        0.2605636  0.7369804  0.7085988 
185.1      0.2403406  0.7994977  0.773515  
185.2      0.2587283  0.7531342  0.7566269 
185.3      0.2920768  0.6902506  0.692758  
185.4      0.3070762  0.669102   0.6528481 
185.5      0.2694306  0.7496843  0.6823421 
185.6      0.2653795  0.7334361  0.6526043 
185.7      0.2411605  0.7831057  0.6622376 
185.8      0.2618077  0.7272846  0.6379957 
185.9      0.3183938  0.618132   0.5574115 
186        0.3532616  0.5722928  0.5010104 
186.1      0.3659211  0.5570126  0.4783385 
186.2      0.3152713  0.6413139  0.5698631 
186.3      0.3209987  0.6392154  0.5654993 
186.4      0.3323547  0.6093272  0.5653982 
186.5      0.342215   0.5802435  0.5652969 
186.6      0.3287647  0.5981746  0.5956958 
186.7      0.2921446  0.6722227  0.6369318 
186.8      0.268779   0.7301137  0.6463531 
186.9      0.2685194  0.7298616  0.6273085 
187        0.275174   0.7122676  0.6133322 
187.1      0.2765822  0.7088367  0.6178169 
187.2      0.2756463  0.7218602  0.6316491 
187.3      0.2970063  0.6966158  0.5949389 
187.4      0.326504   0.649796   0.5601423 
187.5      0.3140841  0.6757675  0.5902787 
187.6      0.3142398  0.6678929  0.5946151 
187.7      0.3214923  0.6390892  0.5640854 
187.8      0.3526669  0.5760766  0.4880962 
187.9      0.32574    0.6117803  0.5227702 
188        0.3111181  0.633378   0.5306765 
188.1      0.3152272  0.6216688  0.5186182 
188.2      0.3547341  0.5490679  0.4308713 
188.3      0.3611652  0.5597347  0.4077223 
188.4      0.3417931  0.6222667  0.4478606 
188.5      0.3362233  0.6464086  0.4875121 
188.6      0.3338319  0.650788   0.506448  
188.7      0.3412561  0.614682   0.5063604 
188.8      0.3197072  0.6336849  0.5421165 
188.9      0.3016233  0.6579546  0.5976739 
189        0.2105489  0.9175156  0.5712988 
189.1      0.219741   0.8822646  0.5418298 
189.2      0.2232301  0.8779591  0.5137134 
189.3      0.2212138  0.8844162  0.517536  
189.4      0.2021788  0.9593852  0.5708897 
189.5      0.1941826  1          0.5622764 
189.6      0.201669   0.9616793  0.5413524 
189.7      0.223706   0.8696449  0.4978268 
189.8      0.2302256  0.8431605  0.5330383 
189.9      0.2168131  0.8924199  0.566102  
190        0.1817389  1          0.6054408 
190.1      0.1553035  1          0.6568094 
190.2      0.1597049  1          0.6713746 
190.3      0.1638347  1          0.6862242 
190.4      0.1552756  1          0.7117021 
190.5      0.1240138  1          0.7434274 
190.6      0.1421542  1          0.6959675 
190.7      0.1817869  1          0.6091982 
190.8      0.1863153  1          0.5867926 
190.9      0.1759547  1          0.6089761 
191        0.1712383  1          0.6413341 
191.1      0.1705621  1          0.7004319 
191.2      0.1376783  1          0.8216704 
191.3      0.09358568 1          0.9148657 
191.4      0.1116905  1          0.8699688 
191.5      0.1503222  1          0.7863781 
191.6      0.1628149  1          0.7637459 
191.7      0.1341859  1          0.8208539 
191.8      0.1277007  1          0.8568907 
191.9      0.138034   1          0.844507  
192        0.1219348  1          0.8814799 
192.1      0.132657   1          0.8749995 
192.2      0.1395786  1          0.8685967 
192.3      0.1868181  1          0.7851138 
192.4      0.2279545  0.9336058  0.6935987 
192.5      0.2218547  0.9699191  0.6934674 
192.6      0.1713709  1          0.8312933 
192.7      0.1191865  1          0.95889   
192.8      0.1007691  1          1         
192.9      0.1160072  1          0.9721929 
193        0.1353063  1          0.9117193 
193.1      0.1799011  1          0.8068696 
193.2      0.1809538  1          0.7951604 
193.3      0.1526072  1          0.8482233 
193.4      0.1164873  1          0.9507048 
193.5      0.1135847  1          0.9641346 
193.6      0.1044537  1          1         
193.7      0.09092125 1          1         
193.8      0.08558306 1          1         
193.9      0.09754422 1          1         
194        0.1068554  1          1         
194.1      0.09146126 1          0.9976595 
194.2      0.1212207  1          0.9159675 
194.3      0.1724     1          0.8404617 
194.4      0.1799143  1          0.8463566 
194.5      0.1745111  1          0.8833314 
194.6      0.1203951  1          0.9687578 
194.7      0.1346738  1          0.9414617 
194.8      0.1233782  1          1         
194.9      0.1295934  1          1         
195        0.1285969  1          1         
195.1      0.1577808  1          0.8822249 
195.2      0.1878214  1          0.7806687 
195.3      0.1923207  1          0.7154456 
195.4      0.1818062  1          0.7581302 
195.5      0.1616676  1          0.8205813 
195.6      0.1467894  1          0.8813664 
195.7      0.1185741  1          0.9196963 
195.8      0.1079963  1          0.9260485 
195.9      0.09869234 1          0.952552  
196        0.07836781 1          1         
196.1      0.07954997 1          1         
196.2      0.09326973 1          1         
196.3      0.1329895  1          0.945024  
196.4      0.1697225  1          0.8925764 
196.5      0.19362    1          0.8428119 
196.6      0.1984216  1          0.8129225 
196.7      0.1772701  1          0.8485095 
196.8      0.1287506  1          0.950782  
196.9      0.1548709  1          0.904455  
197        0.166653   1          0.8541022 
197.1      0.1628952  1          0.8478313 
197.2      0.1300066  1          0.9299896 
197.3      0.1083464  1          0.9980353 
197.4      0.1037776  1          0.983802  
197.5      0.113233   1          0.9426897 
197.6      0.09139662 1          1         
197.7      0.08425511 1          1         
197.8      0.08989393 1          1         
197.9      0.1076642  1          0.9758803 
198        0.1093237  1          0.982573  
198.1      0.1093505  1          1         
198.2      0.117755   1          0.9480392 
198.3      0.1457316  1          0.8458023 
198.4      0.2013199  0.9668743  0.656334  
198.5      0.2122846  0.9241771  0.5830726 
