~Version
 VERS              .         3.0                           : CWLS LOG ASCII STANDARD - VERSION 3.0
 WRAP              .         NO                            : ONE LINE PER DEPTH STEP
 DLM               .         SPACE                         : DELIMITING CHARACTER(SPACE TAB OR COMMA)
~Well Information
#_______________________________________________________________________________
#
#PARAMETER_NAME    .UNIT     VALUE                         : DESCRIPTION
#_______________________________________________________________________________
STRT               .M        0.7                           : First reference value
STOP               .M        858.3                         : Last reference value
STEP               .M        0.1                           : Step increment
NULL               .         -9999                         : Missing value
COMP               .         ICPetroleum                   : Company
WELL               .         1-КН                          : Well name
FLD                .         Karatobe                      : Field
LOC                .                                       : Location
SRVC               .         AFGIS OJSC"Kazpromgeophysica" : Service Company
CTRY               .         KZ                            : Country
DATE               .         22/11/2003                    : Service Date
X                  .km       466484.43                     : X or East-West coordinate
Y                  .km       5308000.04                    : Y or North South coordinate
GDAT               .                                       : Geodetic Datum
HZCS               .                                       : Horizontal Co-ordinate System
COUNTRY            .         Kazakhstan                    : 
COUNTRY            .         Kazakhstan                    : 
EREF               .m        148.6                         : 
ORIGINALWELLNAME   .         1-KN                          :
UWI                .                                       : 
~Parameter Information Block
#_______________________________________________________________________________
#
#PARAMETER_NAME    .UNIT     VALUE                         : DESCRIPTION
#_______________________________________________________________________________
SET                .         Las                           : 
TLFamily_DEPT      .         Measured Depth                : 
TLFamily_PHI_FINAL .         Porosity                      : 
TLFamily_SW_AR     .         Water Saturation              : 
TLFamily_VSH_FINAL .         Shale Volume                  : 
~Curve Information
#_______________________________________________________________________________
#
#LOGNAME           .UNIT     LOG_ID                        : DESCRIPTION
#_______________________________________________________________________________
DEPT               .M                                      : Depth curve {F}
PHI_FINAL          .m3/m3                                  : Porosity {F}
SW_AR              .m3/m3                                  :  {F}
VSH_FINAL          .unitless                               : Vshale {F}
~Ascii
# ...
307.8      0.3966311  0.6424651  0.2379951 
307.9      0.3612897  0.6691521  0.2303277 
308        0.2973773  0.7481359  0.2557951 
308.1      0.2285218  0.8959931  0.2900011 
308.2      0.1601639  1          0.3376491 
308.3      0.1279549  1          0.3325623 
308.4      0.1344102  1          0.29897   
308.5      0.1868335  1          0.2831773 
308.6      0.2603356  0.9043786  0.3250069 
308.7      0.2672968  0.8743818  0.3581307 
308.8      0.2881417  0.798282   0.3770499 
308.9      0.2645957  0.8674832  0.3853693 
309        0.2366239  0.9629869  0.4083872 
309.1      0.2321807  0.9902788  0.4083266 
309.2      0.2570054  0.9143078  0.3768311 
309.3      0.291101   0.8126723  0.3396524 
309.4      0.312299   0.7575405  0.3125669 
309.5      0.3158382  0.7646706  0.3054552 
309.6      0.3195974  0.7523858  0.3030942 
309.7      0.324665   0.7477973  0.3148264 
309.8      0.3367985  0.7295631  0.3053303 
309.9      0.3226103  0.7541926  0.3219756 
310        0.3125292  0.7694342  0.3470145 
310.1      0.2897009  0.8052182  0.4106835 
310.2      0.2707561  0.8435184  0.4349229 
310.3      0.2657266  0.8618392  0.4636289 
310.4      0.2524256  0.9092699  0.4668568 
310.5      0.2521936  0.9043856  0.4569655 
310.6      0.2421309  0.938736   0.4409274 
310.7      0.2388392  0.9617354  0.4377178 
310.8      0.2392825  0.9672813  0.4407935 
310.9      0.2659782  0.8862192  0.3814587 
311        0.2815275  0.8419428  0.3596114 
311.1      0.3026451  0.7892254  0.3312779 
311.2      0.3042285  0.7814158  0.3438512 
311.3      0.322393   0.7360047  0.3141354 
311.4      0.3150528  0.7588377  0.3336241 
311.5      0.3164431  0.754737   0.338618  
311.6      0.3084181  0.776221   0.361971  
311.7      0.296192   0.8054812  0.3672874 
311.8      0.2986955  0.7921174  0.3618532 
311.9      0.3051481  0.766606   0.346084  
312        0.3174642  0.7366022  0.3186209 
312.1      0.3213161  0.7318992  0.3161832 
312.2      0.3341507  0.6982545  0.3043351 
312.3      0.3506993  0.6687197  0.2973854 
312.4      0.3636476  0.6486051  0.2795263 
312.5      0.3407007  0.6846885  0.2816743 
312.6      0.2916536  0.7823008  0.2838227 
312.7      0.294048   0.7753007  0.3088088 
312.8      0.2935328  0.7863641  0.3329861 
312.9      0.2780777  0.8224946  0.3404771 
313        0.2847294  0.8083346  0.3254653 
313.1      0.2954115  0.7895055  0.3278808 
313.2      0.3090015  0.7509534  0.3229426 
313.3      0.3102923  0.7660086  0.3454012 
313.4      0.303692   0.7886242  0.3531123 
313.5      0.2936818  0.8191331  0.3690461 
313.6      0.3135911  0.7815058  0.3556381 
313.7      0.3241119  0.7651257  0.3798963 
313.8      0.3120431  0.7891172  0.4025838 
313.9      0.3069135  0.7817667  0.3938734 
314        0.3046101  0.763108   0.3607317 
314.1      0.2987594  0.7599193  0.334871  
314.2      0.2878138  0.7823147  0.3373396 
314.3      0.2829153  0.8041296  0.3224524 
314.4      0.2778584  0.8313844  0.3104359 
314.5      0.2857479  0.8229354  0.3057127 
314.6      0.2867728  0.8129933  0.298749  
314.7      0.2519573  0.892817   0.3079685 
314.8      0.2142106  0.9243606  0.3498214 
314.9      0.1514489  1          0.3961478 
315        0.08058432 1          0.4196108 
315.1      0.05226222 1          0.4410492 
315.2      0.001947509 1          0.615447  
315.3      0          1          1         
315.4      0          1          1         
315.5      0          1          1         
315.6      0          1          1         
315.7      0          1          1         
315.8      0.007737875 1          1         
315.9      0.01919028 1          1         
316        0.1384401  1          0.6401286 
316.1      0.2104009  1          0.4793463 
316.2      0.2396054  0.9612269  0.4340962 
316.3      0.2594772  0.8947982  0.3896514 
316.4      0.2600163  0.9020235  0.4010299 
316.5      0.2201791  1          0.4495888 
316.6      0.1915579  1          0.5030117 
316.7      0.1847272  1          0.520714  
316.8      0.169126   1          0.5540345 
316.9      0.1417017  1          0.6522297 
317        0.1270471  1          0.6835527 
317.1      0.1205997  1          0.7066877 
317.2      0.1446719  1          0.6431691 
317.3      0.1476531  1          0.6301536 
317.4      0.1720632  1          0.5688873 
317.5      0.2034982  1          0.4749738 
317.6      0.2148171  1          0.4301009 
317.7      0.1784078  1          0.4456117 
317.8      0.08961746 1          0.564648  
317.9      0.009070907 1          0.7247703 
318        0.005736804 1          0.6778091 
318.1      0.001050369 1          0.6250558 
318.2      0          1          0.508772  
318.3      0.0009207134 1          0.4515334 
318.4      0.02156745 1          0.3404062 
318.5      0.07084066 1          0.2794467 
318.6      0.1170917  1          0.2948769 
318.7      0.1608466  1          0.34025   
318.8      0.2053798  1          0.3689353 
318.9      0.2432286  1          0.3529767 
319        0.2451449  1          0.3966393 
319.1      0.2553394  0.963581   0.3937208 
319.2      0.2592798  0.9426074  0.4081192 
319.3      0.2533596  0.9526271  0.4139686 
319.4      0.2215242  1          0.4259057 
319.5      0.191155   1          0.4021016 
319.6      0.1659831  1          0.3500444 
319.7      0.1745112  1          0.3200655 
319.8      0.1892893  1          0.3499457 
319.9      0.2441669  0.9852875  0.3058028 
320        0.286655   0.8518755  0.2988633 
320.1      0.3176322  0.7750046  0.2703192 
320.2      0.3162444  0.7801759  0.2965077 
320.3      0.3181629  0.7767017  0.2875148 
320.4      0.3343379  0.7420314  0.2765923 
320.5      0.3277727  0.7551438  0.285243  
320.6      0.2974964  0.8173453  0.3172715 
320.7      0.2802059  0.8693131  0.341832  
320.8      0.3037732  0.7953629  0.334251  
320.9      0.299495   0.8101489  0.3417364 
321        0.2743675  0.8801661  0.3731947 
321.1      0.2422904  0.9987397  0.4040598 
321.2      0.2496049  0.9698074  0.4011    
321.3      0.2615214  0.9361258  0.3784998 
321.4      0.2734786  0.8973619  0.3756975 
321.5      0.2670171  0.9098768  0.3756436 
321.6      0.2796555  0.8676711  0.3594771 
321.7      0.2605051  0.9290545  0.3838089 
321.8      0.2461276  0.9790845  0.436631  
321.9      0.2589938  0.9341821  0.4334726 
322        0.2723717  0.8974331  0.3864369 
322.1      0.2827344  0.8728282  0.3311688 
322.2      0.2832303  0.8746601  0.3360833 
322.3      0.2884905  0.8563455  0.3310772 
322.4      0.2863496  0.85916    0.3384982 
322.5      0.2695301  0.9018499  0.343498  
322.6      0.2176536  1          0.38331   
322.7      0.1647068  1          0.4178025 
322.8      0.1329646  1          0.4359591 
322.9      0.1717523  1          0.4029939 
323        0.2389006  0.9711711  0.3186224 
323.1      0.2702939  0.8871466  0.286449  
323.2      0.2828852  0.8508093  0.2798705 
323.3      0.2668143  0.8846927  0.3330943 
323.4      0.2493697  0.9466729  0.3692085 
323.5      0.237167   0.9742256  0.3855987 
323.6      0.2222915  1          0.4232479 
323.7      0.2183979  1          0.4415903 
323.8      0.2248593  1          0.4415071 
323.9      0.2346466  0.9977703  0.4291136 
324        0.2413719  0.962971   0.4199886 
324.1      0.2278146  1          0.4320469 
324.2      0.2362512  0.9988348  0.408031  
324.3      0.2284686  1          0.4319177 
324.4      0.2023007  1          0.476551  
324.5      0.1656382  1          0.5509498 
324.6      0.1444952  1          0.5937196 
324.7      0.1560389  1          0.6017343 
324.8      0.1649214  1          0.5975677 
324.9      0.1536514  1          0.6478105 
325        0.13389    1          0.6832987 
325.1      0.1256556  1          0.7110133 
325.2      0.138748   1          0.7015128 
325.3      0.1627393  1          0.6561036 
325.4      0.1630147  1          0.6516275 
325.5      0.151923   1          0.6342486 
325.6      0.08115649 1          0.7010291 
325.7      0.04523084 1          0.6824808 
325.8      0.0322002  1          0.714889  
325.9      0.003598866 1          0.9718125 
