~Version
 VERS              .         3.0                           : CWLS LOG ASCII STANDARD - VERSION 3.0
 WRAP              .         NO                            : ONE LINE PER DEPTH STEP
 DLM               .         SPACE                         : DELIMITING CHARACTER(SPACE TAB OR COMMA)
~Well Information
#_______________________________________________________________________________
#
#PARAMETER_NAME    .UNIT     VALUE                         : DESCRIPTION
#_______________________________________________________________________________
STRT               .M        0.7                           : First reference value
STOP               .M        858.3                         : Last reference value
STEP               .M        0.1                           : Step increment
NULL               .         -9999                         : Missing value
COMP               .         ICPetroleum                   : Company
WELL               .         1-КН                          : Well name
FLD                .         Karatobe                      : Field
LOC                .                                       : Location
SRVC               .         AFGIS OJSC"Kazpromgeophysica" : Service Company
CTRY               .         KZ                            : Country
DATE               .         22/11/2003                    : Service Date
X                  .km       466484.43                     : X or East-West coordinate
Y                  .km       5308000.04                    : Y or North South coordinate
GDAT               .                                       : Geodetic Datum
HZCS               .                                       : Horizontal Co-ordinate System
COUNTRY            .         Kazakhstan                    : 
COUNTRY            .         Kazakhstan                    : 
EREF               .m        148.6                         : 
ORIGINALWELLNAME   .         1-KN                          :
UWI                .                                       : 
~Parameter Information Block
#_______________________________________________________________________________
#
#PARAMETER_NAME    .UNIT     VALUE                         : DESCRIPTION
#_______________________________________________________________________________
SET                .         Las                           : 
TLFamily_DEPT      .         Measured Depth                : 
TLFamily_PHI_FINAL .         Porosity                      : 
TLFamily_SW_AR     .         Water Saturation              : 
TLFamily_VSH_FINAL .         Shale Volume                  : 
~Curve Information
#_______________________________________________________________________________
#
#LOGNAME           .UNIT     LOG_ID                        : DESCRIPTION
#_______________________________________________________________________________
DEPT               .M                                      : Depth curve {F}
PHI_FINAL          .m3/m3                                  : Porosity {F}
SW_AR              .m3/m3                                  :  {F}
VSH_FINAL          .unitless                               : Vshale {F}
~Ascii
# ...
598.8      0.3605698  1          0.1262717 
598.9      0.3574573  1          0.1241778 
599        0.3531098  1          0.1160371 
599.1      0.3402356  1          0.1120805 
599.2      0.3439657  1          0.117012  
599.3      0.3413726  1          0.1325872 
599.4      0.3344507  1          0.1540926 
599.5      0.3358712  1          0.1637522 
599.6      0.3466922  1          0.1493581 
599.7      0.3527881  1          0.1199852 
599.8      0.3593622  1          0.09611457
599.9      0.3646343  1          0.09791083
600        0.3369984  1          0.1250865 
600.1      0.3184528  1          0.1624393 
600.2      0.3213373  1          0.1686301 
600.3      0.3188094  1          0.1516068 
600.4      0.3282366  1          0.1250479 
600.5      0.347791   1          0.1250369 
600.6      0.3431943  1          0.1346079 
600.7      0.3140583  1          0.141223  
600.8      0.3099058  1          0.1400899 
600.9      0.2986728  1          0.1801077 
601        0.2741915  1          0.2720758 
601.1      0.2283615  1          0.4011147 
601.2      0.1791328  1          0.5261865 
601.3      0.1597788  1          0.5768215 
601.4      0.1331232  1          0.5867102 
601.5      0.1354067  1          0.5766639 
601.6      0.1171797  1          0.6035213 
601.7      0.09410658 1          0.6947721 
601.8      0.07908336 1          0.7720893 
601.9      0.06240357 1          0.8431697 
602        0.06301838 1          0.8112273 
602.1      0.05777227 1          0.7341607 
602.2      0.05718878 1          0.7219198 
602.3      0.04851145 1          0.7801102 
602.4      0.02167916 1          0.8471683 
602.5      0.01232967 1          0.8946584 
602.6      0.01122696 1          0.9093038 
602.7      0.0182601  1          0.8895278 
602.8      0.03001988 1          0.8845369 
602.9      0.05355335 1          0.8747939 
603        0.02948948 1          0.9388731 
603.1      0.01148746 1          1         
603.2      0.005129667 1          1         
603.3      0          1          1         
603.4      0          1          1         
603.5      0.001139387 1          1         
603.6      0.001283325 1          1         
603.7      0          1          1         
603.8      0.003415005 1          1         
603.9      0.00518488 1          1         
604        0.002333192 1          1         
604.1      0          1          1         
604.2      0          1          1         
604.3      0          1          0.9785681 
604.4      0.01178041 1          0.6579537 
604.5      0.1099351  1          0.4914922 
604.6      0.1780516  1          0.4634676 
604.7      0.1541238  1          0.5267826 
604.8      0.1602391  1          0.5483687 
604.9      0.1302017  1          0.6041947 
605        0.1146961  1          0.6914295 
605.1      0.06838521 1          0.7942148 
605.2      0.08478011 1          0.7984651 
605.3      0.0580801  1          0.8160875 
605.4      0.06146099 1          0.8070745 
605.5      0.03702391 1          0.8524387 
605.6      0.008947064 1          0.8855388 
605.7      0.0005115705 1          0.8902249 
605.8      0.003856292 1          0.8614342 
605.9      0.06578571 1          0.7382444 
606        0.138405   1          0.6419524 
606.1      0.1953454  1          0.5665501 
606.2      0.2141621  1          0.4932452 
606.3      0.1789506  1          0.4931809 
606.4      0.17118    1          0.4623873 
606.5      0.167807   1          0.481693  
606.6      0.1751116  1          0.448841  
606.7      0.1964315  1          0.4382986 
606.8      0.1810171  1          0.4814908 
606.9      0.1366169  1          0.5499908 
607        0.09725796 1          0.6338382 
607.1      0.08831294 1          0.6409394 
607.2      0.09881754 1          0.5887312 
607.3      0.1103772  1          0.512983  
607.4      0.1382452  1          0.4645074 
607.5      0.1298891  1          0.4644482 
607.6      0.139038   1          0.4403942 
607.7      0.1424452  1          0.4300256 
607.8      0.1260933  1          0.4376792 
607.9      0.1273533  1          0.4560965 
608        0.1386828  1          0.419773  
608.1      0.1540368  1          0.3835177 
608.2      0.142547   1          0.427206  
608.3      0.1355341  1          0.4918833 
608.4      0.1322122  1          0.5092634 
608.5      0.1704858  1          0.4373222 
608.6      0.1661144  1          0.4046502 
608.7      0.1606903  1          0.4070379 
608.8      0.1536822  1          0.424364  
608.9      0.1388561  1          0.4528533 
609        0.1194933  1          0.4690206 
609.1      0.1016024  1          0.5267478 
609.2      0.1252116  1          0.497078  
609.3      0.1319283  1          0.4526379 
609.4      0.1534666  1          0.4042533 
609.5      0.1511382  1          0.3875371 
609.6      0.1559298  1          0.4341353 
609.7      0.1300943  1          0.5385635 
609.8      0.06436788 1          0.6640633 
609.9      0.06459031 1          0.6751985 
610        0.09001268 1          0.6276491 
610.1      0.08796321 1          0.5863956 
610.2      0.09547373 1          0.5829894 
610.3      0.1183462  1          0.5228843 
610.4      0.153234   1          0.4820659 
610.5      0.1406474  1          0.507846  
610.6      0.1111542  1          0.59271   
610.7      0.1003957  1          0.6096094 
610.8      0.09719373 1          0.6026801 
610.9      0.1103804  1          0.5857722 
611        0.07857252 1          0.6666569 
611.1      0.03045782 1          0.7408298 
611.2      0.02930286 1          0.7448109 
611.3      0.06780982 1          0.6890969 
611.4      0.114638   1          0.5886717 
611.5      0.1095228  1          0.5986784 
611.6      0.07851071 1          0.6661289 
611.7      0.02090831 1          0.8352495 
611.8      0.00662402 1          0.9513704 
611.9      0.005540903 1          1         
612        0.006715148 1          1         
612.1      0.008586354 1          1         
612.2      0.009813632 1          1         
612.3      0.005692426 1          1         
612.4      0.003745447 1          1         
612.5      0.006859086 1          1         
612.6      0.003571204 1          1         
612.7      0.009690099 1          0.9097986 
612.8      0.06772912 1          0.6838129 
612.9      0.1298009  1          0.5645384 
613        0.1539934  1          0.4804524 
613.1      0.1538635  1          0.4974411 
613.2      0.1412984  1          0.5422288 
613.3      0.128332   1          0.5578789 
613.4      0.1415241  1          0.5674006 
613.5      0.1774886  1          0.5029655 
613.6      0.2148427  1          0.4168211 
613.7      0.2670559  1          0.2955229 
613.8      0.2963904  1          0.203671  
613.9      0.3076175  1          0.1639803 
614        0.320228   1          0.1451192 
614.1      0.3186733  1          0.148527  
614.2      0.3127997  1          0.1450928 
614.3      0.3158095  1          0.1351251 
614.4      0.3384571  1          0.1021595 
614.5      0.3359197  1          0.07498728
614.6      0.3284196  1          0.05934501
614.7      0.3327456  1          0.06219428
614.8      0.3203984  1          0.07108948
614.9      0.3343333  1          0.08464634
615        0.3352936  1          0.09142287
615.1      0.3274972  1          0.1058201 
615.2      0.3015879  1          0.1224163 
615.3      0.2881918  1          0.1506676 
615.4      0.312389   1          0.1317624 
615.5      0.3313189  1          0.1030072 
615.6      0.3560744  1          0.06802372
615.7      0.3692378  1          0.06359665
615.8      0.3592793  1          0.07334273
615.9      0.3505647  1          0.08624696
616        0.3359378  1          0.1048003 
616.1      0.3386618  1          0.1123957 
616.2      0.334236   1          0.1162946 
616.3      0.3421095  1          0.08290535
616.4      0.3491359  1          0.05441077
616.5      0.3617302  1          0.03253556
616.6      0.3527031  1          0.03780202
616.7      0.3524073  1          0.0523789 
616.8      0.3550562  1          0.06573457
616.9      0.3499557  1          0.07251503
