~Version
 VERS              .         3.0                           : CWLS LOG ASCII STANDARD - VERSION 3.0
 WRAP              .         NO                            : ONE LINE PER DEPTH STEP
 DLM               .         SPACE                         : DELIMITING CHARACTER(SPACE TAB OR COMMA)
~Well Information
#_______________________________________________________________________________
#
#PARAMETER_NAME    .UNIT     VALUE                         : DESCRIPTION
#_______________________________________________________________________________
STRT               .M        0.7                           : First reference value
STOP               .M        858.3                         : Last reference value
STEP               .M        0.1                           : Step increment
NULL               .         -9999                         : Missing value
COMP               .         ICPetroleum                   : Company
WELL               .         1-КН                          : Well name
FLD                .         Karatobe                      : Field
LOC                .                                       : Location
SRVC               .         AFGIS OJSC"Kazpromgeophysica" : Service Company
CTRY               .         KZ                            : Country
DATE               .         22/11/2003                    : Service Date
X                  .km       466484.43                     : X or East-West coordinate
Y                  .km       5308000.04                    : Y or North South coordinate
GDAT               .                                       : Geodetic Datum
HZCS               .                                       : Horizontal Co-ordinate System
COUNTRY            .         Kazakhstan                    : 
COUNTRY            .         Kazakhstan                    : 
EREF               .m        148.6                         : 
ORIGINALWELLNAME   .         1-KN                          :
UWI                .                                       : 
~Parameter Information Block
#_______________________________________________________________________________
#
#PARAMETER_NAME    .UNIT     VALUE                         : DESCRIPTION
#_______________________________________________________________________________
SET                .         Las                           : 
TLFamily_DEPT      .         Measured Depth                : 
TLFamily_PHI_FINAL .         Porosity                      : 
TLFamily_SW_AR     .         Water Saturation              : 
TLFamily_VSH_FINAL .         Shale Volume                  : 
~Curve Information
#_______________________________________________________________________________
#
#LOGNAME           .UNIT     LOG_ID                        : DESCRIPTION
#_______________________________________________________________________________
DEPT               .M                                      : Depth curve {F}
PHI_FINAL          .m3/m3                                  : Porosity {F}
SW_AR              .m3/m3                                  :  {F}
VSH_FINAL          .unitless                               : Vshale {F}
~Ascii
# ...
216.8      0.342198   0.7123954  0.2223318 
216.9      0.3342456  0.7184567  0.2282434 
217        0.3432037  0.6954606  0.1924618 
217.1      0.3600951  0.6695728  0.1607899 
217.2      0.3751751  0.6521987  0.1426881 
217.3      0.3669728  0.6676537  0.1299972 
217.4      0.3649986  0.6719029  0.1206178 
217.5      0.392097   0.6334252  0.1007286 
217.6      0.3953276  0.6316812  0.09605727
217.7      0.3809415  0.6525853  0.100707  
217.8      0.3812579  0.6545338  0.1054702 
217.9      0.4007049  0.6220973  0.09037364
218        0.420642   0.5964115  0.09373499
218.1      0.4149395  0.5996327  0.1115857 
218.2      0.3894248  0.6272376  0.1439754 
218.3      0.3783031  0.6422526  0.1574531 
218.4      0.3719096  0.6567925  0.1652708 
218.5      0.3831215  0.6466372  0.162088  
218.6      0.3957267  0.6287115  0.1573963 
218.7      0.3780573  0.6531947  0.1604787 
218.8      0.3644718  0.6762032  0.1799416 
218.9      0.353009   0.6882799  0.1799191 
219        0.3719368  0.6526469  0.1497381 
219.1      0.3865692  0.6332072  0.1165118 
219.2      0.3950452  0.6242468  0.1041104 
219.3      0.403698   0.6077631  0.102901  
219.4      0.3866064  0.6315621  0.1065005 
219.5      0.3575221  0.6809175  0.1203339 
219.6      0.345812   0.7000711  0.1379955 
219.7      0.3708847  0.6560429  0.1365648 
219.8      0.4034373  0.6150283  0.1337546 
219.9      0.3980399  0.6221323  0.1202799 
220        0.371031   0.6632274  0.1151259 
220.1      0.3598171  0.6717424  0.1028123 
220.2      0.359084   0.6747234  0.1064079 
220.3      0.3741457  0.6514412  0.1051844 
220.4      0.3907797  0.6267515  0.1027791 
220.5      0.4102589  0.5993142  0.09691318
220.6      0.4128045  0.6040795  0.1027569 
220.7      0.3946941  0.6374163  0.125448  
220.8      0.3734584  0.6624532  0.1616368 
220.9      0.3683977  0.6610522  0.1712012 
221        0.3729026  0.6567806  0.1679479 
221.1      0.3696201  0.664792   0.1744325 
221.2      0.3560711  0.6869743  0.1949716 
221.3      0.3434776  0.7054569  0.2058332 
221.4      0.336266   0.7297386  0.1913888 
221.5      0.3466391  0.7037586  0.1615    
221.6      0.3670904  0.6583253  0.1433944 
221.7      0.3575656  0.6715223  0.1279878 
221.8      0.3690842  0.6574174  0.1348396 
221.9      0.3728366  0.6610145  0.164568  
222        0.3654017  0.6720496  0.1792254 
222.1      0.3390756  0.7141173  0.1947482 
222.2      0.3342116  0.7221296  0.1859814 
222.3      0.3426552  0.7017658  0.185958  
222.4      0.3548864  0.6814175  0.1825091 
222.5      0.3708594  0.652807   0.1628672 
222.6      0.3935977  0.6201745  0.1660189 
222.7      0.3895298  0.6333942  0.1773954 
222.8      0.3884336  0.6382688  0.2017713 
222.9      0.3744339  0.660001   0.1963341 
223        0.3720407  0.6631827  0.1790027 
223.1      0.3730384  0.655732   0.167509  
223.2      0.3634362  0.6737978  0.1519783 
223.3      0.3684712  0.6601069  0.1549814 
223.4      0.3805038  0.6419496  0.137389  
223.5      0.3667763  0.6646547  0.1237305 
223.6      0.3809681  0.6388023  0.09430941
223.7      0.3849828  0.6332943  0.08438769
223.8      0.3836887  0.6369078  0.09203967
223.9      0.3735763  0.6499371  0.113369  
224        0.3506097  0.6927347  0.1415579 
224.1      0.3548479  0.6883487  0.1578898 
224.2      0.3548403  0.6970334  0.1721284 
224.3      0.3515064  0.7006533  0.1704883 
224.4      0.3310858  0.7414653  0.1995432 
224.5      0.2994305  0.8256856  0.2960145 
224.6      0.181669   1          0.5734602 
224.7      0.05257893 1          0.8922297 
224.8      0.02436137 1          1         
224.9      0.0988571  1          0.8257517 
225        0.1383782  1          0.7532002 
225.1      0.1613131  1          0.7319927 
225.2      0.1480407  1          0.7370561 
225.3      0.1021573  1          0.7965895 
225.4      0.079739   1          0.8544206 
225.5      0.07058364 1          0.9033483 
225.6      0.1040308  1          0.7684967 
225.7      0.1262727  1          0.7575614 
225.8      0.1037565  1          0.801431  
225.9      0.0703761  1          0.890107  
226        0.07583608 1          0.8837639 
226.1      0.09246783 1          0.8472837 
226.2      0.06037049 1          0.9147291 
226.3      0.04534227 1          1         
226.4      0.05528782 1          1         
226.5      0.1033211  1          0.8828899 
226.6      0.1689044  1          0.7196154 
226.7      0.1829181  1          0.6943035 
226.8      0.1569245  1          0.7400874 
226.9      0.1064374  1          0.8519135 
227        0.08592863 1          0.9132686 
227.1      0.07603991 1          0.9258582 
227.2      0.0964119  1          0.9065636 
227.3      0.09828822 1          0.9191014 
227.4      0.118639   1          0.8874654 
227.5      0.1227155  1          0.8628852 
227.6      0.07077603 1          0.9912761 
227.7      0.06761737 1          1         
227.8      0.05921318 1          1         
227.9      0.06701937 1          0.9503945 
228        0.1235793  1          0.8560254 
228.1      0.1356082  1          0.8380832 
228.2      0.1558492  1          0.7810701 
228.3      0.1466912  1          0.7975904 
228.4      0.1256508  1          0.8087459 
228.5      0.1016759  1          0.8374312 
228.6      0.1053737  1          0.8084042 
228.7      0.1164479  1          0.7586306 
228.8      0.118683   1          0.7373145 
228.9      0.1163283  1          0.6914955 
229        0.1442436  1          0.6718869 
229.1      0.1585853  1          0.7061709 
229.2      0.1502359  1          0.7632657 
229.3      0.1236065  1          0.8073461 
229.4      0.07890679 1          0.9089101 
229.5      0.04426291 1          1         
229.6      0.04656269 1          1         
229.7      0.05244484 1          1         
229.8      0.07607473 1          0.9533472 
229.9      0.1643315  1          0.7101395 
230        0.2103001  1          0.5680737 
230.1      0.1971933  1          0.6063357 
230.2      0.1624253  1          0.7199135 
230.3      0.1065994  1          0.8702017 
230.4      0.1003329  1          0.8761228 
230.5      0.096426   1          0.8820469 
230.6      0.1054002  1          0.875778  
230.7      0.07427594 1          0.9256228 
230.8      0.05730439 1          0.9190346 
230.9      0.08042729 1          0.8752287 
231        0.0975951  1          0.8690065 
231.1      0.0849951  1          0.9121612 
231.2      0.0818039  1          0.9056637 
231.3      0.09421258 1          0.8505229 
231.4      0.1102392  1          0.7389527 
231.5      0.05453519 1          0.7927192 
231.6      0.05074609 1          0.7706112 
231.7      0.06272406 1          0.7759153 
231.8      0.1020363  1          0.7542073 
231.9      0.1160711  1          0.7977017 
232        0.07663278 1          0.923223  
232.1      0.03767335 1          0.9687966 
232.2      0.05148315 1          0.9165084 
232.3      0.07345249 1          0.8027092 
232.4      0.09873346 1          0.7694446 
232.5      0.1076103  1          0.7117732 
232.6      0.1236648  1          0.6868159 
232.7      0.1965755  1          0.5572484 
232.8      0.2010603  1          0.5777935 
232.9      0.2022448  1          0.5776931 
233        0.175184   1          0.6575608 
233.1      0.1571492  1          0.7109839 
233.2      0.1622405  1          0.7312754 
233.3      0.1509367  1          0.7520824 
233.4      0.1476372  1          0.762597  
233.5      0.140757   1          0.8178552 
233.6      0.1658058  1          0.7951139 
233.7      0.1746734  1          0.7729496 
233.8      0.157393   1          0.8116787 
233.9      0.1207159  1          0.9586388 
234        0.1216726  1          1         
234.1      0.1333805  1          0.9386255 
234.2      0.1351852  1          0.8516563 
234.3      0.1369863  1          0.8223006 
234.4      0.1162886  1          0.8692709 
234.5      0.09204946 1          0.8997615 
234.6      0.09437741 1          0.9248359 
234.7      0.08006876 1          1         
234.8      0.09052819 1          1         
234.9      0.08739129 1          0.9633003 
