~Version
 VERS              .         3.0                           : CWLS LOG ASCII STANDARD - VERSION 3.0
 WRAP              .         NO                            : ONE LINE PER DEPTH STEP
 DLM               .         SPACE                         : DELIMITING CHARACTER(SPACE TAB OR COMMA)
~Well Information
#_______________________________________________________________________________
#
#PARAMETER_NAME    .UNIT     VALUE                         : DESCRIPTION
#_______________________________________________________________________________
STRT               .M        0.7                           : First reference value
STOP               .M        858.3                         : Last reference value
STEP               .M        0.1                           : Step increment
NULL               .         -9999                         : Missing value
COMP               .         ICPetroleum                   : Company
WELL               .         1-КН                          : Well name
FLD                .         Karatobe                      : Field
LOC                .                                       : Location
SRVC               .         AFGIS OJSC"Kazpromgeophysica" : Service Company
CTRY               .         KZ                            : Country
DATE               .         22/11/2003                    : Service Date
X                  .km       466484.43                     : X or East-West coordinate
Y                  .km       5308000.04                    : Y or North South coordinate
GDAT               .                                       : Geodetic Datum
HZCS               .                                       : Horizontal Co-ordinate System
COUNTRY            .         Kazakhstan                    : 
COUNTRY            .         Kazakhstan                    : 
EREF               .m        148.6                         : 
ORIGINALWELLNAME   .         1-KN                          :
UWI                .                                       : 
~Parameter Information Block
#_______________________________________________________________________________
#
#PARAMETER_NAME    .UNIT     VALUE                         : DESCRIPTION
#_______________________________________________________________________________
SET                .         Las                           : 
TLFamily_DEPT      .         Measured Depth                : 
TLFamily_PHI_FINAL .         Porosity                      : 
TLFamily_SW_AR     .         Water Saturation              : 
TLFamily_VSH_FINAL .         Shale Volume                  : 
~Curve Information
#_______________________________________________________________________________
#
#LOGNAME           .UNIT     LOG_ID                        : DESCRIPTION
#_______________________________________________________________________________
DEPT               .M                                      : Depth curve {F}
PHI_FINAL          .m3/m3                                  : Porosity {F}
SW_AR              .m3/m3                                  :  {F}
VSH_FINAL          .unitless                               : Vshale {F}
~Ascii
# ...
653.4      0.07482436 1          0.6459277 
653.5      0.06691478 1          0.6529788 
653.6      0.06309158 1          0.6422545 
653.7      0.03708608 1          0.6893651 
653.8      0.04762403 1          0.6385813 
653.9      0.07545628 1          0.5498675 
654        0.101747   1          0.5025479 
654.1      0.1116233  1          0.5286264 
654.2      0.09809491 1          0.6073885 
654.3      0.06972557 1          0.6925052 
654.4      0.02268318 1          0.8314729 
654.5      0.01678166 1          0.8628818 
654.6      0.01590625 1          0.876613  
654.7      0.03478994 1          0.8005666 
654.8      0.06040299 1          0.7305751 
654.9      0.1377201  1          0.5521929 
655        0.1990884  1          0.3988424 
655.1      0.2259616  0.952036   0.3235748 
655.2      0.2176221  0.9267278  0.3196092 
655.3      0.2156981  0.8424754  0.319584  
655.4      0.2358879  0.6605938  0.3079995 
655.5      0.265949   0.5492486  0.2633545 
655.6      0.2771901  0.5600538  0.2313182 
655.7      0.26033    0.6333639  0.2135455 
655.8      0.2699038  0.6418312  0.2207945 
655.9      0.2690155  0.6742834  0.2282198 
656        0.2427941  0.7608219  0.2436502 
656.1      0.217511   0.8389662  0.2803879 
656.2      0.1987522  0.8978454  0.3077282 
656.3      0.1819516  0.9957896  0.353744  
656.4      0.1699277  1          0.3516117 
656.5      0.1769064  1          0.3411757 
656.6      0.207167   1          0.3210675 
656.7      0.2285173  0.9816693  0.3349693 
656.8      0.2141006  1          0.3864492 
656.9      0.1920789  1          0.3909685 
657        0.19408    1          0.3773495 
657.1      0.1976972  1          0.3885949 
657.2      0.2021946  1          0.3954369 
657.3      0.1592716  1          0.4491548 
657.4      0.1364208  1          0.4864434 
657.5      0.103426   1          0.5442516 
657.6      0.09022412 1          0.5980115 
657.7      0.07872626 1          0.6421489 
657.8      0.07217577 1          0.6706837 
657.9      0.06755842 1          0.6633373 
658        0.05407714 1          0.6889493 
658.1      0.0177612  1          0.7923948 
658.2      0.01198436 1          0.7964877 
658.3      0.02798612 1          0.7000062 
658.4      0.06368408 1          0.5973536 
658.5      0.07380669 1          0.5345297 
658.6      0.05888596 1          0.5682087 
658.7      0.07922074 1          0.5254944 
658.8      0.07026462 1          0.537321  
658.9      0.09986548 1          0.4746099 
659        0.08546296 1          0.4965608 
659.1      0.09153174 1          0.5401404 
659.2      0.07079089 1          0.6338523 
659.3      0.04402599 1          0.6584552 
659.4      0.06371839 1          0.6031356 
659.5      0.08976043 1          0.5706943 
659.6      0.05727828 1          0.5612048 
659.7      0.03472323 1          0.5549207 
659.8      0.02470494 1          0.5396173 
659.9      0.05680421 1          0.4767216 
660        0.06726086 1          0.422655  
660.1      0.07888064 1          0.4177305 
660.2      0.06324073 1          0.4930104 
660.3      0.04124407 1          0.5860636 
660.4      0.06365183 1          0.5699828 
660.5      0.07786409 1          0.536122  
660.6      0.104143   1          0.512579  
660.7      0.1063576  1          0.5011067 
660.8      0.102728   1          0.4708116 
660.9      0.1007125  1          0.462783  
661        0.063983   1          0.5180771 
661.1      0.02800195 1          0.6018153 
661.2      0.01881213 1          0.6116962 
661.3      0.01762322 1          0.6217729 
661.4      0.03541721 1          0.5661163 
661.5      0.05106005 1          0.5819209 
661.6      0.08446133 1          0.5119089 
661.7      0.1188416  1          0.4291309 
661.8      0.1403399  1          0.384186  
661.9      0.1477487  1          0.3818982 
662        0.1442887  1          0.4167647 
662.1      0.1162218  1          0.4516764 
662.2      0.09201362 1          0.4780606 
662.3      0.07796966 1          0.4489997 
662.4      0.08500767 1          0.436234  
662.5      0.09185807 1          0.4165017 
662.6      0.09271421 1          0.4213062 
662.7      0.1039731  1          0.4164146 
662.8      0.1199575  1          0.4021089 
662.9      0.1121567  1          0.4435522 
663        0.1248466  1          0.4260019 
663.1      0.09260342 1          0.461524  
663.2      0.07678422 1          0.4747601 
663.3      0.05522264 1          0.4938675 
663.4      0.074      1          0.4535149 
663.5      0.1093859  1          0.4041239 
663.6      0.1305017  1          0.4064359 
663.7      0.1275316  1          0.4280932 
663.8      0.1313287  1          0.4355052 
663.9      0.1327669  1          0.4481055 
664        0.09180933 1          0.4823961 
664.1      0.06123124 1          0.5672629 
664.2      0.07130864 1          0.5927445 
664.3      0.08703803 1          0.5861848 
664.4      0.087369   1          0.5484653 
664.5      0.08177122 1          0.5606978 
664.6      0.05964128 1          0.6292559 
664.7      0.06081722 1          0.5858738 
664.8      0.08826493 1          0.515626  
664.9      0.134207   1          0.3872918 
665        0.1306954  1          0.3918108 
665.1      0.1182767  1          0.4200672 
665.2      0.1263361  1          0.4655869 
665.3      0.1468937  1          0.4708527 
665.4      0.151613   1          0.4788605 
665.5      0.1246266  1          0.5476649 
665.6      0.1000878  1          0.5949061 
665.7      0.09738465 1          0.6147139 
665.8      0.1128714  1          0.5818027 
665.9      0.1372757  1          0.5148406 
666        0.1344561  1          0.5119269 
666.1      0.1124561  1          0.5382416 
666.2      0.08183186 1          0.6143008 
666.3      0.1043721  1          0.5814351 
666.4      0.1489815  1          0.4974882 
666.5      0.1537895  1          0.4622147 
666.6      0.1643204  1          0.4265966 
666.7      0.1721777  1          0.3842276 
666.8      0.1672562  1          0.3665278 
666.9      0.1644333  1          0.4143509 
667        0.1274366  1          0.5496439 
667.1      0.07873838 1          0.6803247 
667.2      0.04112119 1          0.7453101 
667.3      0.07977297 1          0.6584044 
667.4      0.1181245  1          0.5493582 
667.5      0.1693767  0.9998223  0.4564297 
667.6      0.1767389  0.9567884  0.4435358 
667.7      0.1661338  1          0.4747916 
667.8      0.1334341  1          0.5521279 
667.9      0.122193   1          0.5769995 
668        0.1374855  1          0.5135103 
668.1      0.1671634  0.9487103  0.4432519 
668.2      0.1790866  0.8371643  0.3949265 
668.3      0.1966455  0.7381261  0.3552375 
668.4      0.2181497  0.6741337  0.2908254 
668.5      0.2446496  0.6178191  0.2681428 
668.6      0.2599504  0.5862826  0.2664352 
668.7      0.2483138  0.6084295  0.2697828 
668.8      0.2528606  0.5921375  0.2580692 
668.9      0.2653677  0.5607834  0.2237887 
669        0.2486     0.6002297  0.2373398 
669.1      0.2531168  0.6164395  0.2237521 
669.2      0.260312   0.6232111  0.2237219 
669.3      0.2844318  0.5738181  0.2037298 
669.4      0.2809359  0.566965   0.2296451 
669.5      0.2541418  0.6026984  0.2418733 
669.6      0.259921   0.5885416  0.2341254 
669.7      0.2921812  0.5483473  0.2064186 
669.8      0.2904495  0.5724831  0.2091925 
669.9      0.2888804  0.5754241  0.2206348 
670        0.2585397  0.6351313  0.2401897 
670.1      0.2643621  0.6376143  0.2355378 
670.2      0.2759693  0.6427701  0.2309614 
670.3      0.2796935  0.6556171  0.2309301 
670.4      0.280421   0.6291673  0.2560137 
670.5      0.2578687  0.6132948  0.2726728 
670.6      0.2502137  0.5796916  0.2478979 
670.7      0.2859037  0.5052934  0.2034538 
670.8      0.3072506  0.4881921  0.1734628 
670.9      0.3073756  0.4941305  0.1822223 
671        0.3083543  0.4871453  0.2033873 
671.1      0.3011525  0.4987805  0.2218286 
671.2      0.2870581  0.5206164  0.2232773 
671.3      0.2812978  0.5112008  0.2203291 
671.4      0.2860762  0.4822263  0.1951735 
671.5      0.2922723  0.4626364  0.1672685 
