~Version
 VERS              .         3.0                           : CWLS LOG ASCII STANDARD - VERSION 3.0
 WRAP              .         NO                            : ONE LINE PER DEPTH STEP
 DLM               .         SPACE                         : DELIMITING CHARACTER(SPACE TAB OR COMMA)
~Well Information
#_______________________________________________________________________________
#
#PARAMETER_NAME    .UNIT     VALUE                         : DESCRIPTION
#_______________________________________________________________________________
STRT               .M        0.7                           : First reference value
STOP               .M        858.3                         : Last reference value
STEP               .M        0.1                           : Step increment
NULL               .         -9999                         : Missing value
COMP               .         ICPetroleum                   : Company
WELL               .         1-КН                          : Well name
FLD                .         Karatobe                      : Field
LOC                .                                       : Location
SRVC               .         AFGIS OJSC"Kazpromgeophysica" : Service Company
CTRY               .         KZ                            : Country
DATE               .         22/11/2003                    : Service Date
X                  .km       466484.43                     : X or East-West coordinate
Y                  .km       5308000.04                    : Y or North South coordinate
GDAT               .                                       : Geodetic Datum
HZCS               .                                       : Horizontal Co-ordinate System
COUNTRY            .         Kazakhstan                    : 
COUNTRY            .         Kazakhstan                    : 
EREF               .m        148.6                         : 
ORIGINALWELLNAME   .         1-KN                          :
UWI                .                                       : 
~Parameter Information Block
#_______________________________________________________________________________
#
#PARAMETER_NAME    .UNIT     VALUE                         : DESCRIPTION
#_______________________________________________________________________________
SET                .         Las                           : 
TLFamily_DEPT      .         Measured Depth                : 
TLFamily_PHI_FINAL .         Porosity                      : 
TLFamily_SW_AR     .         Water Saturation              : 
TLFamily_VSH_FINAL .         Shale Volume                  : 
~Curve Information
#_______________________________________________________________________________
#
#LOGNAME           .UNIT     LOG_ID                        : DESCRIPTION
#_______________________________________________________________________________
DEPT               .M                                      : Depth curve {F}
PHI_FINAL          .m3/m3                                  : Porosity {F}
SW_AR              .m3/m3                                  :  {F}
VSH_FINAL          .unitless                               : Vshale {F}
~Ascii
# ...
453.3      0.2540583  1          0.3349147 
453.4      0.2273889  1          0.3882509 
453.5      0.1913566  1          0.5033321 
453.6      0.1472093  1          0.603925  
453.7      0.1082929  1          0.6873465 
453.8      0.1316794  1          0.6266285 
453.9      0.1578858  1          0.5707033 
454        0.1806358  1          0.5358616 
454.1      0.1891141  1          0.5357833 
454.2      0.1568981  1          0.6033757 
454.3      0.1178082  1          0.6866971 
454.4      0.09913485 1          0.7165897 
454.5      0.1357793  1          0.6259564 
454.6      0.1158266  1          0.6494721 
454.7      0.06784996 1          0.7610892 
454.8      0.009309965 1          0.9727519 
454.9      0.009921825 1          0.9668244 
455        0.04344089 1          0.8227881 
455.1      0.08532686 1          0.7157905 
455.2      0.0833791  1          0.7113207 
455.3      0.02814802 1          0.8273434 
455.4      0.01886272 1          0.8730365 
455.5      0.01883534 1          0.9155419 
455.6      0.03386262 1          0.8469957 
455.7      0.07585011 1          0.8317544 
455.8      0.1305884  1          0.7643524 
455.9      0.1680768  1          0.755041  
456        0.2307435  1          0.6601316 
456.1      0.3211178  0.7747764  0.5342187 
456.2      0.3969366  0.6452246  0.3817155 
456.3      0.400917   0.6925348  0.3405021 
456.4      0.3894264  0.7531933  0.3715692 
456.5      0.3789495  0.7443354  0.4407851 
456.6      0.4002391  0.6290596  0.4493642 
456.7      0.4300525  0.5452015  0.3665108 
456.8      0.4483691  0.5367209  0.2763907 
456.9      0.4524443  0.5751078  0.1981765 
457        0.4382718  0.5911958  0.1746625 
457.1      0.3830396  0.6749172  0.1996648 
457.2      0.2969448  0.855472   0.3068853 
457.3      0.1840154  1          0.503809  
457.4      0.1197123  1          0.695972  
457.5      0.0788146  1          0.8096116 
457.6      0.03982597 1          0.8961216 
457.7      0.0194262  1          0.9451886 
457.8      0.01607482 1          0.9619727 
457.9      0.04566571 1          0.8693671 
458        0.02693585 1          0.928036  
458.1      0.009593975 1          1         
458.2      0.0111676  1          1         
458.3      0.01825184 1          1         
458.4      0.04706115 1          0.9274293 
458.5      0.09945079 1          0.8131298 
458.6      0.1239341  1          0.7841844 
458.7      0.1194779  1          0.8326039 
458.8      0.1452342  1          0.7792108 
458.9      0.1883695  1          0.6412297 
459        0.2254956  1          0.5187243 
459.1      0.2893781  0.9788736  0.4088512 
459.2      0.3373816  0.7931406  0.3369604 
459.3      0.3781713  0.69521    0.291535  
459.4      0.3731454  0.7201306  0.2640176 
459.5      0.3707416  0.7762867  0.2438195 
459.6      0.3518453  0.8685123  0.2455785 
459.7      0.3584276  0.8729324  0.2298416 
459.8      0.3245787  0.9420782  0.2402006 
459.9      0.3169545  0.9003612  0.2527169 
460        0.291898   0.9061552  0.2812422 
460.1      0.2497161  0.9877946  0.3388568 
460.2      0.2461529  0.9789892  0.3648435 
460.3      0.2018494  1          0.4499659 
460.4      0.2050399  1          0.4983659 
460.5      0.1853112  1          0.5511728 
460.6      0.1556284  1          0.5793122 
460.7      0.1819119  1          0.53065   
460.8      0.1912375  0.9728038  0.5141151 
460.9      0.1999173  0.9269935  0.4980106 
461        0.1878512  0.999328   0.5204906 
461.1      0.1805004  1          0.5303416 
461.2      0.1724881  1          0.5751984 
461.3      0.1488895  1          0.6271877 
461.4      0.122487   1          0.6708555 
461.5      0.1368168  1          0.638652  
461.6      0.1350276  1          0.6584532 
461.7      0.08021571 1          0.8040372 
461.8      0.01436358 1          1         
461.9      0.01487381 1          1         
462        0.008418689 1          1         
462.1      0.007234325 1          0.9719148 
462.2      0.006648893 1          0.9379053 
462.3      0.002989492 1          0.9830931 
462.4      0.006440107 1          0.8941743 
462.5      0.01745855 1          0.75156   
462.6      0.05522186 1          0.4968226 
462.7      0.1343519  1          0.3027152 
462.8      0.3125474  0.6638049  0.217388  
462.9      0.3972473  0.5928648  0.2109043 
463        0.4328035  0.5769218  0.2206176 
463.1      0.4372039  0.5888658  0.198364  
463.2      0.4181681  0.6126508  0.1763292 
463.3      0.3556401  0.7008033  0.2045024 
463.4      0.2812415  0.8608888  0.2921109 
463.5      0.2100914  1          0.4226526 
463.6      0.1263165  1          0.5767295 
463.7      0.08564851 1          0.6563182 
463.8      0.07970585 1          0.7321105 
463.9      0.07293501 1          0.8156358 
464        0.01808708 1          0.9744601 
464.1      0.01287356 1          1         
464.2      0.02924173 1          0.9128299 
464.3      0.09169604 1          0.7958274 
464.4      0.1558639  1          0.6397604 
464.5      0.1781041  0.8682004  0.5583048 
464.6      0.2209973  0.6878738  0.4648532 
464.7      0.2192352  0.6965678  0.4559426 
464.8      0.1986597  0.7781054  0.5015919 
464.9      0.1865075  0.8489764  0.5614696 
465        0.1933657  0.8412071  0.5684111 
465.1      0.2131079  0.768259   0.4919265 
465.2      0.2334017  0.6883967  0.429961  
465.3      0.2397067  0.6547078  0.4188884 
465.4      0.2390839  0.6481797  0.4326232 
465.5      0.2345519  0.645361   0.4467472 
465.6      0.2233345  0.6684319  0.4553745 
465.7      0.2345691  0.6357265  0.4052469 
465.8      0.2101459  0.7045259  0.4186057 
465.9      0.2276462  0.6442763  0.4104563 
466        0.2213892  0.6508463  0.4157905 
466.1      0.2239604  0.6255704  0.3644743 
466.2      0.2223653  0.6081961  0.3717637 
466.3      0.1966103  0.6606768  0.4156226 
466.4      0.1949061  0.6570646  0.4209963 
466.5      0.2205739  0.5801436  0.3691696 
466.6      0.2342487  0.557013   0.3293162 
466.7      0.235149   0.5543041  0.3139347 
466.8      0.2470475  0.5185653  0.3032781 
466.9      0.2544974  0.4917761  0.2789338 
467        0.2745915  0.4616761  0.26922   
467.1      0.2729479  0.4820054  0.29694   
467.2      0.2566321  0.5128586  0.3290682 
467.3      0.2447448  0.5444805  0.3496149 
467.4      0.236912   0.5771143  0.3449129 
467.5      0.2406988  0.6235015  0.3425534 
467.6      0.1959475  0.8864438  0.3266858 
467.7      0.1928395  1          0.3114003 
467.8      0.1831285  1          0.3564872 
467.9      0.1546179  1          0.4568339 
468        0.1153448  1          0.6020132 
468.1      0.1106311  1          0.6679592 
468.2      0.09984146 1          0.69265   
468.3      0.1043621  1          0.7312926 
468.4      0.08986102 1          0.8242496 
468.5      0.04203359 1          0.9444154 
468.6      0.04255605 1          0.9554257 
468.7      0.06701457 1          0.8691426 
468.8      0.08825248 1          0.8335935 
468.9      0.104467   1          0.7993762 
469        0.07312503 1          0.8738533 
469.1      0.05392106 1          0.8685622 
469.2      0.05275322 1          0.8330436 
469.3      0.1031377  1          0.6872727 
469.4      0.1392195  1          0.5682706 
469.5      0.153567   1          0.5576843 
469.6      0.1367337  1          0.5751607 
469.7      0.1079873  1          0.6582518 
469.8      0.0968451  1          0.7383822 
469.9      0.09093232 1          0.720679  
470        0.1056458  1          0.6991334 
470.1      0.1290108  1          0.6341922 
470.2      0.1204301  1          0.6497837 
470.3      0.1467245  1          0.5962499 
470.4      0.1777484  1          0.5398848 
470.5      0.1676226  1          0.5638179 
470.6      0.118612   1          0.6533414 
470.7      0.07671253 1          0.7782256 
470.8      0.03037223 1          0.8816194 
470.9      0.02729321 1          0.8659573 
471        0.02951929 1          0.8404958 
471.1      0.05838531 1          0.773075  
471.2      0.04616554 1          0.8402185 
471.3      0.1239962  1          0.8106287 
471.4      0.1956411  1          0.7589648 
