~Version
 VERS              .         3.0                           : CWLS LOG ASCII STANDARD - VERSION 3.0
 WRAP              .         NO                            : ONE LINE PER DEPTH STEP
 DLM               .         SPACE                         : DELIMITING CHARACTER(SPACE TAB OR COMMA)
~Well Information
#_______________________________________________________________________________
#
#PARAMETER_NAME    .UNIT     VALUE                         : DESCRIPTION
#_______________________________________________________________________________
STRT               .M        0.7                           : First reference value
STOP               .M        858.3                         : Last reference value
STEP               .M        0.1                           : Step increment
NULL               .         -9999                         : Missing value
COMP               .         ICPetroleum                   : Company
WELL               .         1-КН                          : Well name
FLD                .         Karatobe                      : Field
LOC                .                                       : Location
SRVC               .         AFGIS OJSC"Kazpromgeophysica" : Service Company
CTRY               .         KZ                            : Country
DATE               .         22/11/2003                    : Service Date
X                  .km       466484.43                     : X or East-West coordinate
Y                  .km       5308000.04                    : Y or North South coordinate
GDAT               .                                       : Geodetic Datum
HZCS               .                                       : Horizontal Co-ordinate System
COUNTRY            .         Kazakhstan                    : 
COUNTRY            .         Kazakhstan                    : 
EREF               .m        148.6                         : 
ORIGINALWELLNAME   .         1-KN                          :
UWI                .                                       : 
~Parameter Information Block
#_______________________________________________________________________________
#
#PARAMETER_NAME    .UNIT     VALUE                         : DESCRIPTION
#_______________________________________________________________________________
SET                .         Las                           : 
TLFamily_DEPT      .         Measured Depth                : 
TLFamily_PHI_FINAL .         Porosity                      : 
TLFamily_SW_AR     .         Water Saturation              : 
TLFamily_VSH_FINAL .         Shale Volume                  : 
~Curve Information
#_______________________________________________________________________________
#
#LOGNAME           .UNIT     LOG_ID                        : DESCRIPTION
#_______________________________________________________________________________
DEPT               .M                                      : Depth curve {F}
PHI_FINAL          .m3/m3                                  : Porosity {F}
SW_AR              .m3/m3                                  :  {F}
VSH_FINAL          .unitless                               : Vshale {F}
~Ascii
# ...
507.9      0.3732904  0.8911271  0.03385544
508        0.3825426  0.8740247  0.03446978
508.1      0.3685451  0.9008554  0.04618572
508.2      0.3631322  0.9239372  0.06598597
508.3      0.3530571  0.9633167  0.07572973
508.4      0.3545884  0.9776442  0.07740753
508.5      0.321477   1          0.07405091
508.6      0.2871848  1          0.0765528 
508.7      0.2426477  1          0.0757046 
508.8      0.2384895  1          0.07738174
508.9      0.251491   1          0.08877227
509        0.2554183  1          0.09903432
509.1      0.2831065  1          0.1038982 
509.2      0.3074107  1          0.1048747 
509.3      0.3479836  0.9595378  0.1019136 
509.4      0.3454084  0.9822338  0.09996446
509.5      0.3736739  0.9210172  0.09519195
509.6      0.39573    0.8867757  0.08871897
509.7      0.3926851  0.8955464  0.09423579
509.8      0.3785142  0.9167961  0.09236852
509.9      0.3552992  0.9408386  0.09800166
510        0.3433805  0.9275401  0.08688778
510.1      0.3224564  0.9868385  0.08333091
510.2      0.3314734  0.9908754  0.08071198
510.3      0.3469965  0.9681901  0.0747683 
510.4      0.3605634  0.9325026  0.07643849
510.5      0.3669103  0.9312178  0.07727238
510.6      0.3774304  0.9089131  0.09416209
510.7      0.3805892  0.8893719  0.09603091
510.8      0.3784372  0.8807838  0.09602252
510.9      0.354483   0.9500211  0.08771583
511        0.3549977  0.9511269  0.07979549
511.1      0.3664871  0.9263598  0.06900617
511.2      0.3689359  0.9416416  0.05892909
511.3      0.3806491  0.9199746  0.05892445
511.4      0.3623715  0.9686878  0.06818872
511.5      0.3420988  1          0.0763688 
511.6      0.3292103  1          0.09222483
511.7      0.3170766  1          0.1016973 
511.8      0.31479    1          0.1016883 
511.9      0.3200357  0.9790307  0.08496871
512        0.3388191  0.8140786  0.07466349
512.1      0.3674854  0.7691601  0.06656255
512.2      0.4004492  0.8019922  0.06190656
512.3      0.4061788  0.8511407  0.04948718
512.4      0.400805   0.8728739  0.05159041
512.5      0.4001494  0.8676214  0.05445034
512.6      0.3668294  0.9244044  0.06036559
512.7      0.355051   0.9355671  0.06264452
512.8      0.3650022  0.9381616  0.06341013
512.9      0.3536093  0.9839342  0.0573612 
513        0.3600301  0.9624581  0.05662201
513.1      0.3711604  0.9327782  0.0544328 
513.2      0.3570473  0.9676186  0.07130754
513.3      0.3508024  0.982653   0.09486756
513.4      0.3474722  0.9693546  0.1188306 
513.5      0.342207   0.9305484  0.1252976 
513.6      0.3422637  0.9210745  0.1252859 
513.7      0.3328798  0.9906411  0.1376902 
513.8      0.319603   1          0.1660803 
513.9      0.3390444  1          0.1634505 
514        0.3457831  0.9961405  0.1330636 
514.1      0.3534219  0.9844277  0.1034324 
514.2      0.3620307  0.9610605  0.1063955 
514.3      0.3277512  1          0.1387652 
514.4      0.2987574  1          0.189295  
514.5      0.2865514  1          0.2178917 
514.6      0.2612608  1          0.2425871 
514.7      0.2532684  1          0.269286  
514.8      0.2327982  1          0.2981815 
514.9      0.2091633  1          0.3145266 
515        0.1898454  1          0.3250791 
515.1      0.1821129  1          0.3448462 
515.2      0.1940223  1          0.3538917 
515.3      0.2359927  1          0.3185965 
515.4      0.2757236  1          0.346978  
515.5      0.2816579  1          0.4230131 
515.6      0.2242595  1          0.5998779 
515.7      0.1610176  1          0.750782  
515.8      0.09398164 1          0.8143414 
515.9      0.06149686 1          0.8236879 
516        0.1188478  1          0.6594337 
516.1      0.1525418  1          0.5312669 
516.2      0.1812974  1          0.4499506 
516.3      0.1711112  1          0.4612034 
516.4      0.1517805  1          0.508905  
516.5      0.1646991  1          0.4965165 
516.6      0.1463176  1          0.5309283 
516.7      0.1341887  1          0.5882133 
516.8      0.1202384  1          0.6169566 
516.9      0.1197881  1          0.6131721 
517        0.1201482  1          0.6391474 
517.1      0.08441583 1          0.7535645 
517.2      0.05223566 1          0.8125289 
517.3      0.05141477 1          0.7937968 
517.4      0.07129698 1          0.7145537 
517.5      0.07739799 1          0.6816359 
517.6      0.1033576  1          0.619902  
517.7      0.08975926 1          0.6734495 
517.8      0.0482527  1          0.8500856 
517.9      0.02221544 1          1         
518        0.04184349 1          1         
518.1      0.1358613  1          0.8399662 
518.2      0.2750652  0.9977789  0.6342694 
518.3      0.3884528  0.7081932  0.403337  
518.4      0.4387627  0.6070735  0.2466878 
518.5      0.4555124  0.5707238  0.1719171 
518.6      0.4451713  0.5943266  0.1440845 
518.7      0.4208064  0.6766361  0.1501133 
518.8      0.3537154  0.8249354  0.2075704 
518.9      0.2506751  1          0.3569058 
519        0.1789697  1          0.5259169 
519.1      0.1184804  1          0.6524864 
519.2      0.1369215  1          0.6221443 
519.3      0.1379534  1          0.6074225 
519.4      0.1597209  1          0.5720419 
519.5      0.1624767  1          0.5685265 
519.6      0.1617012  1          0.5787788 
519.7      0.153356   1          0.6070487 
519.8      0.1569118  1          0.5997662 
519.9      0.1819407  1          0.5157597 
520        0.2013887  1          0.4733242 
520.1      0.2043053  1          0.456044  
520.2      0.1826295  1          0.5250528 
520.3      0.1673063  1          0.541125  
520.4      0.1554167  1          0.5345445 
520.5      0.1293844  1          0.5814932 
520.6      0.07141064 1          0.7237209 
520.7      0.03308728 1          0.8510745 
520.8      0.0506452  1          0.807948  
520.9      0.1029707  1          0.6701969 
521        0.1357702  1          0.5881046 
521.1      0.1438031  1          0.584487  
521.2      0.1283944  1          0.5705692 
521.3      0.0970985  1          0.6426929 
521.4      0.09665769 1          0.6579746 
521.5      0.1016893  1          0.6656958 
521.6      0.1201891  1          0.6089739 
521.7      0.1084658  1          0.6235646 
521.8      0.0912372  1          0.6653547 
521.9      0.08815894 1          0.6972956 
522        0.09109312 1          0.6890658 
522.1      0.0764585  1          0.7012103 
522.2      0.07350637 1          0.7093312 
522.3      0.0866956  1          0.6928132 
522.4      0.1104302  1          0.64927   
522.5      0.1170435  1          0.6228331 
522.6      0.1355263  1          0.5937747 
522.7      0.172853   1          0.5458633 
522.8      0.1780549  1          0.5106    
522.9      0.1635607  1          0.5105293 
523        0.1260568  1          0.552243  
523.1      0.08714467 1          0.6076639 
523.2      0.07620871 1          0.5968151 
523.3      0.07658688 1          0.5487229 
523.4      0.09409074 1          0.4401252 
523.5      0.140589   1          0.3711759 
523.6      0.1928674  1          0.4005633 
523.7      0.1566022  1          0.5516964 
523.8      0.07531872 1          0.7676654 
523.9      0.01430572 1          0.9332199 
524        0.008045915 1          0.9764582 
524.1      0.00379337 1          0.9874276 
524.2      0.03335543 1          0.8709258 
524.3      0.02681534 1          0.8510523 
524.4      0.04136125 1          0.8315949 
524.5      0.04766458 1          0.8314623 
524.6      0.06397351 1          0.7578985 
524.7      0.07451085 1          0.7191236 
524.8      0.06352388 1          0.7402533 
524.9      0.03735581 1          0.8073297 
525        0.01282279 1          0.8950308 
525.1      0.002131911 1          0.9637043 
525.2      0.001718881 1          0.9912528 
525.3      0.01122402 1          0.920532  
525.4      0.07047065 1          0.7973976 
525.5      0.1113477  1          0.6774724 
525.6      0.1068832  1          0.6694494 
525.7      0.1174173  1          0.6892626 
525.8      0.1159539  1          0.6851478 
525.9      0.1256102  1          0.6160499 
526        0.1388492  1          0.5803846 
