~Version
 VERS              .         3.0                           : CWLS LOG ASCII STANDARD - VERSION 3.0
 WRAP              .         NO                            : ONE LINE PER DEPTH STEP
 DLM               .         SPACE                         : DELIMITING CHARACTER(SPACE TAB OR COMMA)
~Well Information
#_______________________________________________________________________________
#
#PARAMETER_NAME    .UNIT     VALUE                         : DESCRIPTION
#_______________________________________________________________________________
STRT               .M        0.7                           : First reference value
STOP               .M        858.3                         : Last reference value
STEP               .M        0.1                           : Step increment
NULL               .         -9999                         : Missing value
COMP               .         ICPetroleum                   : Company
WELL               .         1-КН                          : Well name
FLD                .         Karatobe                      : Field
LOC                .                                       : Location
SRVC               .         AFGIS OJSC"Kazpromgeophysica" : Service Company
CTRY               .         KZ                            : Country
DATE               .         22/11/2003                    : Service Date
X                  .km       466484.43                     : X or East-West coordinate
Y                  .km       5308000.04                    : Y or North South coordinate
GDAT               .                                       : Geodetic Datum
HZCS               .                                       : Horizontal Co-ordinate System
COUNTRY            .         Kazakhstan                    : 
COUNTRY            .         Kazakhstan                    : 
EREF               .m        148.6                         : 
ORIGINALWELLNAME   .         1-KN                          :
UWI                .                                       : 
~Parameter Information Block
#_______________________________________________________________________________
#
#PARAMETER_NAME    .UNIT     VALUE                         : DESCRIPTION
#_______________________________________________________________________________
SET                .         Las                           : 
TLFamily_DEPT      .         Measured Depth                : 
TLFamily_PHI_FINAL .         Porosity                      : 
TLFamily_SW_AR     .         Water Saturation              : 
TLFamily_VSH_FINAL .         Shale Volume                  : 
~Curve Information
#_______________________________________________________________________________
#
#LOGNAME           .UNIT     LOG_ID                        : DESCRIPTION
#_______________________________________________________________________________
DEPT               .M                                      : Depth curve {F}
PHI_FINAL          .m3/m3                                  : Porosity {F}
SW_AR              .m3/m3                                  :  {F}
VSH_FINAL          .unitless                               : Vshale {F}
~Ascii
# ...
416.9      0.06299637 1          0.8993924 
417        0.05030806 1          1         
417.1      0.03687546 1          1         
417.2      0.03280547 1          1         
417.3      0.02860695 1          1         
417.4      0.04098066 1          0.9435421 
417.5      0.03961477 1          0.9039657 
417.6      0.04016519 1          0.8766105 
417.7      0.03708227 1          0.8818482 
417.8      0.03431571 1          0.8656214 
417.9      0.03455187 1          0.8341853 
418        0.02219104 1          0.8391929 
418.1      0.02640377 1          0.8390496 
418.2      0.0145508  1          0.908398  
418.3      0.001374248 1          1         
418.4      0          1          1         
418.5      0.001750877 1          1         
418.6      0.009926158 1          1         
418.7      0.01606636 1          1         
418.8      0.02429583 1          1         
418.9      0.03128886 1          1         
419        0.02838674 1          1         
419.1      0.02728706 1          1         
419.2      0.02496582 1          1         
419.3      0.01066161 1          1         
419.4      0.008709066 1          1         
419.5      0.01212423 1          1         
419.6      0.01490056 1          1         
419.7      0.01082399 1          1         
419.8      0.01333834 1          1         
419.9      0.0133324  1          1         
420        0.01596804 1          1         
420.1      0.01650518 1          1         
420.2      0.02538868 1          1         
420.3      0.02592614 1          1         
420.4      0.01921283 1          1         
420.5      0.00993813 1          1         
420.6      0.008654628 1          0.9730054 
420.7      0.009317027 1          0.9669465 
420.8      0.01116968 1          0.9844962 
420.9      0.003859597 1          1         
421        0.002582832 1          1         
421.1      0          1          1         
421.2      0.0006831854 1          0.8295395 
421.3      0.003958466 1          0.5771707 
421.4      0.001716963 1          0.4392534 
421.5      0.001496398 1          0.3394487 
421.6      0.02237619 1          0.251194  
421.7      0.06861512 1          0.1843475 
421.8      0.1298912  1          0.1888453 
421.9      0.2291985  1          0.2567198 
422        0.1778125  1          0.4388667 
422.1      0.129418   1          0.6260669 
422.2      0.106123   1          0.7051728 
422.3      0.1110607  1          0.6748912 
422.4      0.1071387  1          0.629721  
422.5      0.1076157  1          0.657984  
422.6      0.08939913 1          0.7003537 
422.7      0.05756319 1          0.787712  
422.8      0.04992468 1          0.8582415 
422.9      0.04607036 1          0.8739597 
423        0.02766358 1          0.8270089 
423.1      0.02490975 1          0.8370556 
423.2      0.009685434 1          0.9282915 
423.3      0.006838698 1          1         
423.4      0.005391518 1          1         
423.5      0.01054508 1          1         
423.6      0.03063424 1          1         
423.7      0.03369407 1          1         
423.8      0.0326295  1          1         
423.9      0.006332409 1          1         
424        0          1          1         
424.1      0          1          1         
424.2      0          1          1         
424.3      0.008965152 1          1         
424.4      0.03033179 1          1         
424.5      0.02567547 1          1         
424.6      0.01747283 1          1         
424.7      0.02554755 1          0.9485804 
424.8      0.1550675  1          0.6638498 
424.9      0.188656   0.9977806  0.6001384 
425        0.187887   1          0.5887369 
425.1      0.1694186  1          0.6231405 
425.2      0.1681616  1          0.6389196 
425.3      0.1716705  1          0.6190224 
425.4      0.1876696  1          0.5520374 
425.5      0.2037089  0.9657531  0.5142692 
425.6      0.2232182  0.9230169  0.4818739 
425.7      0.2140943  0.9625931  0.4786659 
425.8      0.2195893  0.9421352  0.457146  
425.9      0.2219686  0.9005021  0.4511119 
426        0.2091094  0.9018262  0.487905  
426.1      0.1955695  0.8704946  0.5238554 
426.2      0.2258441  0.6883511  0.4509203 
426.3      0.272972   0.5453123  0.3491679 
426.4      0.310933   0.5462039  0.2868319 
426.5      0.3185918  0.665051   0.29934   
426.6      0.3021486  0.7786663  0.3395379 
426.7      0.275886   0.8855057  0.4189554 
426.8      0.2699724  0.9233047  0.4841898 
426.9      0.2659927  0.951731   0.5722875 
427        0.2678471  0.9743661  0.5869361 
427.1      0.2819116  0.9639007  0.5097506 
427.2      0.2825659  0.9702646  0.4473382 
427.3      0.25334    1          0.4775808 
427.4      0.1928273  1          0.6208916 
427.5      0.146088   1          0.7814313 
427.6      0.1261682  1          0.86693   
427.7      0.1299861  1          0.8720533 
427.8      0.1186208  1          0.8719037 
427.9      0.1201616  1          0.805259  
428        0.1374993  1          0.7161672 
428.1      0.2024713  1          0.5822383 
428.2      0.2775856  0.9408202  0.4526187 
428.3      0.3277537  0.8060183  0.3936038 
428.4      0.3373218  0.8144406  0.3753777 
428.5      0.3277394  0.8668476  0.4123867 
428.6      0.3140301  0.8958489  0.4435191 
428.7      0.2952002  0.932106   0.5118557 
428.8      0.278457   0.9838023  0.6118127 
428.9      0.2641566  1          0.7513574 
429        0.3057687  0.9027369  0.7239081 
429.1      0.4057495  0.6770495  0.4952708 
429.2      0.4537079  0.5874128  0.2659353 
429.3      0.464518   0.5630684  0.1471061 
429.4      0.4325684  0.6285511  0.1184058 
429.5      0.4056863  0.6678807  0.1370882 
429.6      0.3636285  0.7071741  0.1932974 
429.7      0.3005498  0.8186607  0.2939422 
429.8      0.2406597  1          0.4341089 
429.9      0.1960036  1          0.5276551 
430        0.1732516  1          0.6068347 
430.1      0.1679522  1          0.6501285 
430.2      0.1099415  1          0.7405772 
430.3      0.07392123 1          0.8069589 
430.4      0.03020001 1          0.8947572 
430.5      0.01593791 1          0.9446622 
430.6      0.01160165 1          0.938805  
430.7      0.02032857 1          0.8623445 
430.8      0.04746975 1          0.8161635 
430.9      0.07792132 1          0.7351983 
431        0.1040739  1          0.6909539 
431.1      0.09270439 1          0.6865575 
431.2      0.0732262  1          0.7080632 
431.3      0.04953998 1          0.7670513 
431.4      0.05041616 1          0.8103941 
431.5      0.05504251 1          0.8455999 
431.6      0.03302648 1          0.9315166 
431.7      0.03282497 1          0.9146316 
431.8      0.06127442 1          0.8818572 
431.9      0.1194747  1          0.7901399 
432        0.1588138  1          0.7293604 
432.1      0.150802   1          0.7520461 
432.2      0.1321367  1          0.7897456 
432.3      0.1201499  1          0.844453  
432.4      0.1305092  1          0.8391792 
432.5      0.1728354  1          0.8492978 
432.6      0.155908   1          0.9583528 
432.7      0.1635625  1          1         
432.8      0.1787963  1          0.9695673 
432.9      0.2337296  1          0.7419079 
433        0.2772537  0.9360096  0.5423111 
433.1      0.2782454  0.944613   0.4524604 
433.2      0.2485868  1          0.4704785 
433.3      0.1868654  1          0.5924692 
433.4      0.1201852  1          0.7785639 
433.5      0.1208047  1          0.8478574 
433.6      0.144614   1          0.8223211 
433.7      0.1799072  1          0.7409154 
433.8      0.1414166  1          0.7407945 
433.9      0.09774094 1          0.7226354 
434        0.06831817 1          0.7873871 
434.1      0.03510226 1          0.8730997 
434.2      0.0128194  1          0.9499232 
434.3      0.01378269 1          0.9440496 
434.4      0.01335151 1          0.9103618 
434.5      0.02776137 1          0.8777835 
434.6      0.0485002  1          0.8514408 
434.7      0.05711814 1          0.8059307 
434.8      0.05548702 1          0.8307329 
434.9      0.0503924  1          0.8613852 
435        0.05778374 1          0.8770326 
