~Version
 VERS              .         3.0                           : CWLS LOG ASCII STANDARD - VERSION 3.0
 WRAP              .         NO                            : ONE LINE PER DEPTH STEP
 DLM               .         SPACE                         : DELIMITING CHARACTER(SPACE TAB OR COMMA)
~Well Information
#_______________________________________________________________________________
#
#PARAMETER_NAME    .UNIT     VALUE                         : DESCRIPTION
#_______________________________________________________________________________
STRT               .M        0.7                           : First reference value
STOP               .M        858.3                         : Last reference value
STEP               .M        0.1                           : Step increment
NULL               .         -9999                         : Missing value
COMP               .         ICPetroleum                   : Company
WELL               .         1-КН                          : Well name
FLD                .         Karatobe                      : Field
LOC                .                                       : Location
SRVC               .         AFGIS OJSC"Kazpromgeophysica" : Service Company
CTRY               .         KZ                            : Country
DATE               .         22/11/2003                    : Service Date
X                  .km       466484.43                     : X or East-West coordinate
Y                  .km       5308000.04                    : Y or North South coordinate
GDAT               .                                       : Geodetic Datum
HZCS               .                                       : Horizontal Co-ordinate System
COUNTRY            .         Kazakhstan                    : 
COUNTRY            .         Kazakhstan                    : 
EREF               .m        148.6                         : 
ORIGINALWELLNAME   .         1-KN                          :
UWI                .                                       : 
~Parameter Information Block
#_______________________________________________________________________________
#
#PARAMETER_NAME    .UNIT     VALUE                         : DESCRIPTION
#_______________________________________________________________________________
SET                .         Las                           : 
TLFamily_DEPT      .         Measured Depth                : 
TLFamily_PHI_FINAL .         Porosity                      : 
TLFamily_SW_AR     .         Water Saturation              : 
TLFamily_VSH_FINAL .         Shale Volume                  : 
~Curve Information
#_______________________________________________________________________________
#
#LOGNAME           .UNIT     LOG_ID                        : DESCRIPTION
#_______________________________________________________________________________
DEPT               .M                                      : Depth curve {F}
PHI_FINAL          .m3/m3                                  : Porosity {F}
SW_AR              .m3/m3                                  :  {F}
VSH_FINAL          .unitless                               : Vshale {F}
~Ascii
# ...
271.4      0.2372485  0.6636025  0.4489522 
271.5      0.2381955  0.6669062  0.4578254 
271.6      0.2399027  0.6740939  0.4755771 
271.7      0.228308   0.713522   0.4857177 
271.8      0.2279481  0.707489   0.4755771 
271.9      0.2216264  0.7139773  0.4578254 
272        0.1918939  0.794062   0.4273953 
272.1      0.1550346  0.9151032  0.3665392 
272.2      0.1372537  0.9445334  0.2815864 
272.3      0.13299    0.8785673  0.1776185 
272.4      0.1295205  0.8753544  0.1484606 
272.5      0.1037127  1          0.2777858 
272.6      0.1163392  1          0.4159869 
272.7      0.1550748  1          0.4781079 
272.8      0.191668   0.852497   0.4983942 
272.9      0.1951815  0.8623874  0.527559  
273        0.1811769  0.9751403  0.5808065 
273.1      0.1462856  1          0.6530827 
273.2      0.1318118  1          0.6543461 
273.3      0.1729281  1          0.6049055 
273.4      0.1756     1          0.6099722 
273.5      0.1691925  1          0.6277265 
273.6      0.1618492  1          0.6353313 
273.7      0.1448339  1          0.6492738 
273.8      0.1470408  1          0.6442005 
273.9      0.1479642  1          0.6378626 
274        0.1393061  1          0.6378626 
274.1      0.1324964  1          0.6442005 
274.2      0.1337532  1          0.6416636 
274.3      0.1455721  1          0.6213814 
274.4      0.1660776  1          0.5896897 
274.5      0.1768045  0.9830978  0.5655977 
274.6      0.18571    0.9084665  0.5326347 
274.7      0.1969912  0.815281   0.4793777 
274.8      0.2177399  0.6880916  0.4033036 
274.9      0.2550338  0.5342331  0.2980713 
275        0.2947441  0.4269428  0.209319  
275.1      0.32635    0.3791198  0.1864984 
275.2      0.3379493  0.3686329  0.1915694 
275.3      0.3250149  0.3906888  0.2131224 
275.4      0.3018798  0.4327595  0.2460872 
275.5      0.284317   0.4736899  0.2803206 
275.6      0.2594616  0.5388817  0.3234291 
275.7      0.2522772  0.5526983  0.3221624 
275.8      0.2684952  0.5050659  0.2904604 
275.9      0.2921813  0.4547632  0.2651052 
276        0.3040085  0.4325808  0.2524255 
276.1      0.3121099  0.4162031  0.2384779 
276.2      0.3253434  0.3908021  0.2143888 
276.3      0.3308525  0.3733045  0.1839599 
276.4      0.3413712  0.3521703  0.1547988 
276.5      0.3592714  0.3281041  0.1319768 
276.6      0.3744288  0.3035663  0.09267266
276.7      0.3655535  0.305162   0.07492219
276.8      0.371088   0.2993581  0.06984797
276.9      0.3744681  0.2964324  0.06858256
277        0.3715773  0.2978704  0.06604797
277.1      0.3662693  0.3045978  0.07492219
277.2      0.3604378  0.3127459  0.08633264
277.3      0.3463308  0.3272207  0.09393817
277.4      0.3384118  0.333212   0.09013743
277.5      0.3394033  0.3356206  0.1002788 
277.6      0.3407257  0.3436856  0.1281739 
277.7      0.3452225  0.3467191  0.1497263 
277.8      0.3529413  0.3299448  0.1205637 
277.9      0.3472236  0.3292865  0.1028171 
278        0.3417238  0.3401812  0.1205637 
278.1      0.3420189  0.348485   0.1459235 
278.2      0.3370089  0.3614029  0.1687447 
278.3      0.335947   0.3767671  0.2080481 
278.4      0.3326636  0.3923259  0.2397474 
278.5      0.350046   0.3534711  0.1826898 
278.6      0.3927445  0.2916076  0.09774343
278.7      0.4203219  0.2618035  0.05336909
278.8      0.4206609  0.2526323  0.01786681
278.9      0.4167404  0.2492263  0         
279        0.4156153  0.2449322  0         
279.1      0.416295   0.2445539  0         
279.2      0.3849169  0.2630437  0         
279.3      0.3367034  0.2955802  0         
279.4      0.2551133  0.3683649  0         
279.5      0.2138615  0.4535186  0         
279.6      0.2366047  0.4519871  0.05590275
279.7      0.2974629  0.3745753  0.0850631 
279.8      0.365824   0.3053287  0.07618964
279.9      0.4160551  0.2683254  0.06858256
280        0.4103306  0.2671623  0.05083092
280.1      0.3994963  0.2659369  0.0204019 
280.2      0.3909955  0.2677078  0.006454456
280.3      0.3830276  0.2757079  0.01659797
280.4      0.3732829  0.2846319  0.02420544
280.5      0.3790245  0.2816023  0.02800843
280.6      0.3938759  0.2742687  0.03815142
280.7      0.4073972  0.2706635  0.0571719 
280.8      0.4075279  0.2760307  0.07745579
280.9      0.3936706  0.2848584  0.07618964
281        0.390879   0.2832298  0.06350848
281.1      0.3952453  0.2761094  0.0482964 
281.2      0.3976697  0.2745168  0.0482964 
281.3      0.390239   0.282611   0.0597068 
281.4      0.3863963  0.2910147  0.07999264
281.5      0.3816497  0.3014938  0.1040839 
281.6      0.3914841  0.2983874  0.1180289 
281.7      0.4058742  0.2934466  0.135778  
281.8      0.3955564  0.3052145  0.1509948 
281.9      0.3757135  0.320042   0.1497263 
282        0.3523512  0.3362858  0.1383158 
282.1      0.3294987  0.3569702  0.1345112 
282.2      0.3123934  0.3810914  0.1497263 
282.3      0.3171502  0.3794479  0.1598694 
282.4      0.3334733  0.3587109  0.1509948 
282.5      0.3492467  0.3378468  0.1345112 
282.6      0.3698882  0.3191887  0.1319768 
282.7      0.3686116  0.3174519  0.123101  
282.8      0.3794399  0.3073392  0.1180289 
282.9      0.3906568  0.2997311  0.1205637 
283        0.3691412  0.3182093  0.1269059 
283.1      0.3601976  0.3268983  0.1307094 
283.2      0.3669042  0.3248669  0.1421184 
283.3      0.3797493  0.3172191  0.1509948 
283.4      0.3822078  0.31647    0.1547988 
283.5      0.3764189  0.3226768  0.1598694 
283.6      0.3710014  0.3275402  0.161137  
283.7      0.369065   0.3291655  0.161137  
283.8      0.3651414  0.3312691  0.1573331 
283.9      0.3534846  0.342021   0.1586047 
284        0.3350458  0.356673   0.1497263 
284.1      0.3428605  0.3472432  0.144657  
284.2      0.348273   0.3400097  0.1383158 
284.3      0.3478057  0.3455731  0.1535311 
284.4      0.3408182  0.3629707  0.1839599 
284.5      0.3341063  0.37544    0.199175  
284.6      0.3295339  0.3756539  0.1864984 
284.7      0.3321998  0.3627155  0.1586047 
284.8      0.3609188  0.3242529  0.1243694 
284.9      0.4139999  0.2809048  0.110422  
285        0.4408258  0.2670279  0.1192994 
285.1      0.4265617  0.2866771  0.1598694 
285.2      0.4110875  0.2991044  0.1674794 
285.3      0.3863729  0.3259916  0.1953721 
285.4      0.3437445  0.3784596  0.2346758 
285.5      0.3002061  0.4521881  0.2853888 
285.6      0.2645241  0.5520468  0.3665392 
285.7      0.2175862  0.7420909  0.4793777 
285.8      0.152591   1          0.6264539 
285.9      0.09741697 1          0.7380362 
286        0.05485264 1          0.8153753 
286.1      0.004177276 1          1         
286.2      0.01202918 1          1         
286.3      0.03418665 1          1         
286.4      0.05996258 1          1         
286.5      0.07845528 1          1         
286.6      0.08542744 1          1         
286.7      0.08084189 1          1         
286.8      0.07709358 1          1         
286.9      0.07959997 1          1         
287        0.05627485 1          1         
287.1      0.03178841 1          1         
287.2      0.02147633 1          1         
287.3      0.01973318 1          1         
287.4      0.01527977 1          1         
287.5      0.05505143 1          0.8464978 
287.6      0.1282569  1          0.7345318 
287.7      0.07232369 1          0.8867516 
287.8      0.0333038  1          1         
287.9      0.05356193 1          1         
288        0.07515305 1          0.9409683 
288.1      0.1341399  1          0.7852791 
288.2      0.1748688  1          0.7140409 
288.3      0.2160703  1          0.6531658 
288.4      0.1789516  1          0.7186452 
288.5      0.10526    1          0.833675  
288.6      0.04808676 1          0.9091341 
288.7      0.014955   1          1         
288.8      0.009885241 1          1         
288.9      0.00651938 1          1         
289        0.006874255 1          1         
289.1      0.01193454 1          1         
289.2      0.008155176 1          1         
289.3      0.005325379 1          1         
289.4      0.002905092 1          1         
289.5      0.00628995 1          1         
