~Version
 VERS              .         3.0                           : CWLS LOG ASCII STANDARD - VERSION 3.0
 WRAP              .         NO                            : ONE LINE PER DEPTH STEP
 DLM               .         SPACE                         : DELIMITING CHARACTER(SPACE TAB OR COMMA)
~Well Information
#_______________________________________________________________________________
#
#PARAMETER_NAME    .UNIT     VALUE                         : DESCRIPTION
#_______________________________________________________________________________
STRT               .M        0.7                           : First reference value
STOP               .M        858.3                         : Last reference value
STEP               .M        0.1                           : Step increment
NULL               .         -9999                         : Missing value
COMP               .         ICPetroleum                   : Company
WELL               .         1-КН                          : Well name
FLD                .         Karatobe                      : Field
LOC                .                                       : Location
SRVC               .         AFGIS OJSC"Kazpromgeophysica" : Service Company
CTRY               .         KZ                            : Country
DATE               .         22/11/2003                    : Service Date
X                  .km       466484.43                     : X or East-West coordinate
Y                  .km       5308000.04                    : Y or North South coordinate
GDAT               .                                       : Geodetic Datum
HZCS               .                                       : Horizontal Co-ordinate System
COUNTRY            .         Kazakhstan                    : 
COUNTRY            .         Kazakhstan                    : 
EREF               .m        148.6                         : 
ORIGINALWELLNAME   .         1-KN                          :
UWI                .                                       : 
~Parameter Information Block
#_______________________________________________________________________________
#
#PARAMETER_NAME    .UNIT     VALUE                         : DESCRIPTION
#_______________________________________________________________________________
SET                .         Las                           : 
TLFamily_DEPT      .         Measured Depth                : 
TLFamily_PHI_FINAL .         Porosity                      : 
TLFamily_SW_AR     .         Water Saturation              : 
TLFamily_VSH_FINAL .         Shale Volume                  : 
~Curve Information
#_______________________________________________________________________________
#
#LOGNAME           .UNIT     LOG_ID                        : DESCRIPTION
#_______________________________________________________________________________
DEPT               .M                                      : Depth curve {F}
PHI_FINAL          .m3/m3                                  : Porosity {F}
SW_AR              .m3/m3                                  :  {F}
VSH_FINAL          .unitless                               : Vshale {F}
~Ascii
# ...
744.4      0.1082193  1          0.2863346 
744.5      0.1283801  1          0.2783875 
744.6      0.1460289  1          0.2847489 
744.7      0.1513974  1          0.3158655 
744.8      0.1695997  1          0.3243113 
744.9      0.1388557  1          0.3158655 
745        0.1116513  1          0.3158655 
745.1      0.1151908  1          0.2960309 
745.2      0.1784611  1          0.3042173 
745.3      0.1628451  1          0.3091822 
745.4      0.1118436  1          0.3468115 
745.5      0.154749   1          0.3450513 
745.6      0.114317   1          0.3468021 
745.7      0.1167026  1          0.299291  
745.8      0.1274183  1          0.2643285 
745.9      0.09427893 1          0.2551314 
746        0.09131207 1          0.275219  
746.1      0.1440864  1          0.275219  
746.2      0.1694828  1          0.2460686 
746.3      0.2026567  1          0.2211623 
746.4      0.1765548  1          0.2356791 
746.5      0.1641985  1          0.2674069 
746.6      0.1470027  1          0.2863432 
746.7      0.1293307  1          0.2815557 
746.8      0.1108061  1          0.2831417 
746.9      0.1022483  1          0.3260356 
747        0.1243734  1          0.3792104 
747.1      0.1569043  1          0.4131915 
747.2      0.1361811  1          0.4131915 
747.3      0.08333486 1          0.4093414 
747.4      0.05852307 1          0.3737016 
747.5      0.05150385 1          0.3485667 
747.6      0.09035702 1          0.338066  
747.7      0.0889596  1          0.3260173 
747.8      0.05497728 1          0.3485572 
747.9      0.08136541 1          0.3646377 
748        0.1095974  1          0.3664488 
748.1      0.1136452  1          0.3432865 
748.2      0.1329796  1          0.3175495 
748.3      0.09294799 1          0.3380567 
748.4      0.09981892 1          0.3432958 
748.5      0.1127584  1          0.3737016 
748.6      0.08354235 1          0.386636  
748.7      0.05934868 1          0.3884946 
748.8      0.09507171 1          0.386636  
748.9      0.1115022  1          0.3847724 
749        0.06146747 1          0.4016907 
749.1      0.04594719 1          0.3810596 
749.2      0.1181324  1          0.3664295 
749.3      0.08586828 1          0.3277278 
749.4      0.001629273 1          0.3175405 
749.5      0.04192245 1          0.3311437 
749.6      0.0964719  1          0.3700756 
749.7      0.08249462 1          0.4035984 
749.8      0.04952621 1          0.4016907 
749.9      0.07170979 1          0.3755364 
750        0.06549686 1          0.3610295 
750.1      0.0774028  1          0.3979104 
750.2      0.08003459 1          0.4209623 
750.3      0.07031402 1          0.4132122 
750.4      0.0738854  1          0.3810695 
750.5      0.09505923 1          0.3538788 
750.6      0.08580983 1          0.3503264 
750.7      0.09623647 1          0.3345959 
750.8      0.01408174 1          0.3468021 
750.9      0.0215533  1          0.3397985 
751        0.08089465 1          0.3192379 
751.1      0.1127181  1          0.3175495 
751.2      0.09516413 1          0.3209217 
751.3      0.0215533  1          0.3397985 
751.4      0.02413773 1          0.3468115 
751.5      0.09160581 1          0.3610198 
751.6      0.09372251 1          0.3556523 
751.7      0.09544934 1          0.345042  
751.8      0.1048612  1          0.338066  
751.9      0.07987641 1          0.3521003 
752        0.07692747 1          0.3503264 
752.1      0.1086394  1          0.386636  
752.2      0.1009916  1          0.4447553 
752.3      0.04033066 1          0.5229477 
752.4      0.002335833 1          0.511938  
752.5      0.00495279 1          0.4190407 
752.6      0          1          0.3209035 
752.7      0.04061273 1          0.2768054 
752.8      0.07664888 1          0.2847404 
752.9      0.06830234 1          0.3294519 
753        0.05144525 1          0.3773661 
753.1      0.0600408  1          0.4093414 
753.2      0.03150351 1          0.390368  
753.3      0          1          0.368255  
753.4      0          1          0.3574401 
753.5      0.04236818 1          0.364628  
753.6      0.08866471 1          0.3610198 
753.7      0.103343   1          0.3363286 
753.8      0.08539949 1          0.3209217 
753.9      0.09618653 1          0.3277278 
754        0.08306485 1          0.3503264 
754.1      0.05570893 1          0.3810695 
754.2      0.02246073 1          0.3829135 
754.3      0.05802009 1          0.3468115 
754.4      0.03538435 1          0.3091733 
754.5      0.02238838 1          0.2911595 
754.6      0.034462   1          0.3025768 
754.7      0.0812373  1          0.3158655 
754.8      0.1197792  1          0.3574305 
754.9      0.1017018  1          0.424894  
755        0.04329689 1          0.4924704 
755.1      0.0310907  1          0.5229713 
755.2      0.03851745 1          0.4989206 
755.3      0.04676846 1          0.452867  
755.4      0.0719262  1          0.4093311 
755.5      0.09779236 1          0.3773858 
755.6      0.08287638 1          0.3979002 
755.7      0.06060902 1          0.4190094 
755.8      0.04418581 1          0.4776483 
755.9      0.06047004 1          0.4924819 
756        0.03873457 1          0.4839822 
756.1      0.06361043 1          0.4755591 
756.2      0.06256272 1          0.4630933 
756.3      0.04780565 1          0.4367487 
756.4      0.04496311 1          0.3997879 
756.5      0.04650161 1          0.3959971 
756.6      0.06411448 1          0.4016907 
756.7      0.07899958 1          0.4074186 
756.8      0.1030525  1          0.3755462 
756.9      0.05624164 1          0.3328582 
757        0.07257381 1          0.3075289 
757.1      0.05312416 1          0.3108577 
757.2      0          1          0.338066  
757.3      0          1          0.3829036 
757.4      0          1          0.4447768 
757.5      0          1          0.5341013 
757.6      0.002682659 1          0.5969494 
757.7      0.03531773 1          0.5802317 
757.8      0.05249073 1          0.5386373 
757.9      0.07154261 1          0.4882096 
758        0.08111514 1          0.4427511 
758.1      0.07552805 1          0.3884845 
758.2      0.09466424 1          0.3628216 
758.3      0.07969229 1          0.3503264 
758.4      0.06768318 1          0.3485572 
758.5      0.05023955 1          0.3158655 
758.6      0.09904363 1          0.3009317 
758.7      0.0822379  1          0.3058709 
758.8      0.004016383 1          0.3294244 
758.9      0.04104239 1          0.3503359 
759        0.1107271  1          0.3398078 
759.1      0.1001245  1          0.3158566 
759.2      0.1236327  1          0.3075289 
759.3      0.1016508  1          0.3328675 
759.4      0.0707765  1          0.3574401 
759.5      0.04864668 1          0.3718814 
759.6      0.1091104  1          0.3574401 
759.7      0.1205646  1          0.338066  
759.8      0.09704713 1          0.3125196 
759.9      0.05619485 1          0.3042173 
760        0.051948   1          0.3158566 
760.1      0.08081082 1          0.300923  
760.2      0.04065206 1          0.2976632 
760.3      0.05809439 1          0.3025591 
760.4      0.1148311  1          0.3485761 
760.5      0.07950607 1          0.3664295 
760.6      0.04246867 1          0.3432865 
760.7      0.05887071 1          0.3125196 
760.8      0.05914646 1          0.3091822 
760.9      0.02907459 1          0.3260264 
761        0.0193571  1          0.338066  
761.1      0          1          0.3091733 
761.2      0          1          0.2927878 
761.3      0.07945697 1          0.2705262 
761.4      0.1033238  1          0.2783791 
761.5      0.0747355  1          0.2927791 
761.6      0.135489   1          0.3398172 
761.7      0.1383683  1          0.364628  
761.8      0.1060153  1          0.364628  
761.9      0.1250876  1          0.3847823 
762        0.1177466  1          0.4209414 
762.1      0.06156072 1          0.4589737 
762.2      0.05397517 1          0.4467644 
762.3      0.03965724 1          0.4528453 
762.4      0.02287835 1          0.4630933 
762.5      0.0335076  1          0.4797541 
