~Version
 VERS              .         3.0                           : CWLS LOG ASCII STANDARD - VERSION 3.0
 WRAP              .         NO                            : ONE LINE PER DEPTH STEP
 DLM               .         SPACE                         : DELIMITING CHARACTER(SPACE TAB OR COMMA)
~Well Information
#_______________________________________________________________________________
#
#PARAMETER_NAME    .UNIT     VALUE                         : DESCRIPTION
#_______________________________________________________________________________
STRT               .M        0.7                           : First reference value
STOP               .M        858.3                         : Last reference value
STEP               .M        0.1                           : Step increment
NULL               .         -9999                         : Missing value
COMP               .         ICPetroleum                   : Company
WELL               .         1-КН                          : Well name
FLD                .         Karatobe                      : Field
LOC                .                                       : Location
SRVC               .         AFGIS OJSC"Kazpromgeophysica" : Service Company
CTRY               .         KZ                            : Country
DATE               .         22/11/2003                    : Service Date
X                  .km       466484.43                     : X or East-West coordinate
Y                  .km       5308000.04                    : Y or North South coordinate
GDAT               .                                       : Geodetic Datum
HZCS               .                                       : Horizontal Co-ordinate System
COUNTRY            .         Kazakhstan                    : 
COUNTRY            .         Kazakhstan                    : 
EREF               .m        148.6                         : 
ORIGINALWELLNAME   .         1-KN                          :
UWI                .                                       : 
~Parameter Information Block
#_______________________________________________________________________________
#
#PARAMETER_NAME    .UNIT     VALUE                         : DESCRIPTION
#_______________________________________________________________________________
SET                .         Las                           : 
TLFamily_DEPT      .         Measured Depth                : 
TLFamily_PHI_FINAL .         Porosity                      : 
TLFamily_SW_AR     .         Water Saturation              : 
TLFamily_VSH_FINAL .         Shale Volume                  : 
~Curve Information
#_______________________________________________________________________________
#
#LOGNAME           .UNIT     LOG_ID                        : DESCRIPTION
#_______________________________________________________________________________
DEPT               .M                                      : Depth curve {F}
PHI_FINAL          .m3/m3                                  : Porosity {F}
SW_AR              .m3/m3                                  :  {F}
VSH_FINAL          .unitless                               : Vshale {F}
~Ascii
# ...
125.8      -9999      -9999      0.09501355
125.9      -9999      -9999      0.1012389 
126        -9999      -9999      0.102503  
126.1      -9999      -9999      0.1143544 
126.2      -9999      -9999      0.1184609 
126.3      -9999      -9999      0.110292  
126.4      -9999      -9999      0.08892784
126.5      -9999      -9999      0.07098079
126.6      -9999      -9999      0.06372614
126.7      -9999      -9999      0.06886196
126.8      -9999      -9999      0.07634795
126.9      -9999      -9999      0.09367223
127        -9999      -9999      0.08886813
127.1      -9999      -9999      0.08418924
127.2      -9999      -9999      0.07522611
127.3      -9999      -9999      0.07521801
127.4      -9999      -9999      0.08074592
127.5      -9999      -9999      0.07411508
127.6      -9999      -9999      0.07089763
127.7      -9999      -9999      0.06065742
127.8      -9999      -9999      0.05966988
127.9      -9999      -9999      0.06064489
128        -9999      -9999      0.06063864
128.1      -9999      -9999      0.06566095
128.2      -9999      -9999      0.08180064
128.3      -9999      -9999      0.0972032 
128.4      -9999      -9999      0.1022189 
128.5      -9999      -9999      0.09718101
128.6      -9999      -9999      0.09593997
128.7      -9999      -9999      0.09965723
128.8      -9999      -9999      0.1073357 
128.9      -9999      -9999      0.1099551 
129        -9999      -9999      0.1180643 
129.1      -9999      -9999      0.1180502 
129.2      -9999      -9999      0.1180361 
129.3      -9999      -9999      0.1152809 
129.4      -9999      -9999      0.1098905 
129.5      -9999      -9999      0.1193817 
129.6      -9999      -9999      0.1179796 
129.7      -9999      -9999      0.09954299
129.8      -9999      -9999      0.09096161
129.9      -9999      -9999      0.08508182
130        -9999      -9999      0.09456171
130.1      -9999      -9999      0.08276675
130.2      -9999      -9999      0.06860755
130.3      -9999      -9999      0.06756124
130.4      -9999      -9999      0.0838832 
130.5      -9999      -9999      0.1084278 
130.6      -9999      -9999      0.1097358 
130.7      -9999      -9999      0.09571131
130.8      -9999      -9999      0.09085963
130.9      -9999      -9999      0.09324964
131        -9999      -9999      0.08964841
131.1      -9999      -9999      0.08728775
131.2      -9999      -9999      0.09565702
131.3      0.06190759 -9999      0.09687147
131.4      0.07023755 -9999      0.08264869
131.5      0.08248028 -9999      0.06747604
131.6      0.0850047  -9999      0.08150253
131.7      0.07775945 -9999      0.1005653 
131.8      0.07133022 -9999      0.1082632 
131.9      0.07270934 -9999      0.09929252
132        0.07841833 -9999      0.08488472
132.1      0.08142136 -9999      0.08033241
132.2      0.07914897 -9999      0.07482254
132.3      0.07286146 -9999      0.08370798
132.4      0.07136026 -9999      0.08484728
132.5      0.07245716 -9999      0.08254907
132.6      0.07025242 -9999      0.0814135 
132.7      0.06488464 -9999      0.09671742
132.8      0.06145479 -9999      0.1029741 
132.9      0.06302822 -9999      0.100427  
133        0.06151651 -9999      0.08594048
133.1      0.06400856 -9999      0.08136904
133.2      0.0687217  -9999      0.07474232
133.3      0.07439463 -9999      0.06838376
133.4      0.06686073 -9999      0.07046235
133.5      0.06358451 -9999      0.07799195
133.6      0.06607877 -9999      0.08938861
133.7      0.07772166 -9999      0.08587403
133.8      0.07744929 -9999      0.07361645
133.9      0.07283054 -9999      0.06225028
134        0.0614948  -9999      0.06936914
134.1      0.06107644 -9999      0.08240457
134.2      0.07111061 -9999      0.08353347
134.3      0.08501101 -9999      0.06727803
134.4      0.09295367 -9999      0.05354437
134.5      0.08968751 -9999      0.05260626
134.6      0.0948799  -9999      0.05075971
134.7      0.08673429 -9999      0.05827758
134.8      0.08232509 -9999      0.0672428 
134.9      0.06688157 -9999      0.08808916
135        0.06964811 -9999      0.0834602 
135.1      0.06937264 -9999      0.06928875
135.2      0.06968748 -9999      0.06216684
135.3      0.06692323 -9999      0.06824013
135.4      0.06464512 -9999      0.07242256
135.5      0.06756979 -9999      0.07241486
135.6      0.07001498 -9999      0.07455051
135.7      0.07273534 -9999      0.07890589
135.8      0.07528938 -9999      0.0939445 
135.9      0.06967342 -9999      0.1254742 
136        0.06231941 -9999      0.1817895 
136.1      0.04535165 -9999      0.2226238 
136.2      0.03436618 -9999      0.2649636 
136.3      0.02380927 -9999      0.3104583 
136.4      0.01491256 -9999      0.3618927 
136.5      0.01010753 -9999      0.3836291 
136.6      0.01491348 -9999      0.3468291 
136.7      0.03285425 -9999      0.2970653 
136.8      0.06664959 -9999      0.2417664 
136.9      0.1337999  -9999      0.1889021 
137        0.170825   -9999      0.1525537 
137.1      0.1956381  -9999      0.1142216 
137.2      0.1798318  -9999      0.09259792
137.3      0.1864891  -9999      0.07227656
137.4      0.1522268  -9999      0.06808995
137.5      0.1274301  -9999      0.06911396
137.6      0.09375424 -9999      0.07439139
137.7      0.08755919 -9999      0.07984508
137.8      0.07745106 -9999      0.09494595
137.9      0.0678298  -9999      0.1181911 
138        0.05035669 -9999      0.1413796 
138.1      0.04064434 -9999      0.1555714 
138.2      0.01624587 -9999      0.1444322 
138.3      0.013666   -9999      0.1294146 
138.4      0.019331   -9999      0.1265234 
138.5      0.0406067  -9999      0.1367487 
138.6      0.04694482 -9999      0.1637509 
138.7      0.0390276  -9999      0.207596  
138.8      0.03191604 -9999      0.2455274 
138.9      0.02098029 -9999      0.2735012 
139        0.009894761 -9999      0.283307  
139.1      0.01239925 -9999      0.2783083 
139.2      0.01197069 -9999      0.270953  
139.3      0.02014966 -9999      0.2453496 
139.4      0.01303179 -9999      0.2543804 
139.5      0.004048203 -9999      0.2684242 
139.6      0.008150515 -9999      0.2566165 
139.7      0.01471379 -9999      0.2320587 
139.8      0.02270697 -9999      0.2173486 
139.9      0.02616481 -9999      0.2013901 
140        0.03168886 -9999      0.1826312 
140.1      0.04123259 -9999      0.1456365 
140.2      0.04992874 -9999      0.1234199 
140.3      0.05758302 -9999      0.1164892 
140.4      0.04087016 -9999      0.1276507 
140.5      0.009524522 -9999      0.1502813 
140.6      0.006512301 -9999      0.1486849 
140.7      0.02396679 -9999      0.1583269 
140.8      0.04687804 -9999      0.1599493 
140.9      0.04780019 -9999      0.1582777 
141        0.05444279 -9999      0.1191311 
141.1      0.07843633 -9999      0.1019977 
141.2      0.08842277 -9999      0.1110084 
141.3      0.08712919 -9999      0.1246609 
141.4      0.05877561 -9999      0.1333001 
141.5      0.04692093 -9999      0.1176877 
141.6      0.04596039 -9999      0.1019327 
141.7      0.05774724 -9999      0.08627149
141.8      0.06150702 -9999      0.08171597
141.9      0.06278954 -9999      0.08740991
142        0.06512871 -9999      0.08282439
142.1      0.07234028 -9999      0.06775067
142.2      0.07922159 -9999      0.05312856
142.3      0.08243314 -9999      0.04075802
142.4      0.07988732 -9999      0.03991845
142.5      0.07716958 -9999      0.04855976
142.6      0.07609013 -9999      0.06267966
142.7      0.08350309 -9999      0.06977517
142.8      0.1258863  -9999      0.07504771
142.9      0.1421612  -9999      0.07503972
143        0.1316745  -9999      0.07611145
143.1      0.08475659 -9999      0.06974591
143.2      0.08084758 -9999      0.06973859
143.3      0.08354145 -9999      0.0686951 
143.4      0.0781412  -9999      0.06868792
143.5      0.0797988  -9999      0.0558616 
143.6      0.06978175 -9999      0.05121523
143.7      0.06514806 -9999      0.04761562
143.8      0.05587961 -9999      0.0567877 
143.9      0.0508687  -9999      0.05773634
