~Version
 VERS              .         3.0                           : CWLS LOG ASCII STANDARD - VERSION 3.0
 WRAP              .         NO                            : ONE LINE PER DEPTH STEP
 DLM               .         SPACE                         : DELIMITING CHARACTER(SPACE TAB OR COMMA)
~Well Information
#_______________________________________________________________________________
#
#PARAMETER_NAME    .UNIT     VALUE                         : DESCRIPTION
#_______________________________________________________________________________
STRT               .M        0.7                           : First reference value
STOP               .M        858.3                         : Last reference value
STEP               .M        0.1                           : Step increment
NULL               .         -9999                         : Missing value
COMP               .         ICPetroleum                   : Company
WELL               .         1-КН                          : Well name
FLD                .         Karatobe                      : Field
LOC                .                                       : Location
SRVC               .         AFGIS OJSC"Kazpromgeophysica" : Service Company
CTRY               .         KZ                            : Country
DATE               .         22/11/2003                    : Service Date
X                  .km       466484.43                     : X or East-West coordinate
Y                  .km       5308000.04                    : Y or North South coordinate
GDAT               .                                       : Geodetic Datum
HZCS               .                                       : Horizontal Co-ordinate System
COUNTRY            .         Kazakhstan                    : 
COUNTRY            .         Kazakhstan                    : 
EREF               .m        148.6                         : 
ORIGINALWELLNAME   .         1-KN                          :
UWI                .                                       : 
~Parameter Information Block
#_______________________________________________________________________________
#
#PARAMETER_NAME    .UNIT     VALUE                         : DESCRIPTION
#_______________________________________________________________________________
SET                .         Las                           : 
TLFamily_DEPT      .         Measured Depth                : 
TLFamily_PHI_FINAL .         Porosity                      : 
TLFamily_SW_AR     .         Water Saturation              : 
TLFamily_VSH_FINAL .         Shale Volume                  : 
~Curve Information
#_______________________________________________________________________________
#
#LOGNAME           .UNIT     LOG_ID                        : DESCRIPTION
#_______________________________________________________________________________
DEPT               .M                                      : Depth curve {F}
PHI_FINAL          .m3/m3                                  : Porosity {F}
SW_AR              .m3/m3                                  :  {F}
VSH_FINAL          .unitless                               : Vshale {F}
~Ascii
# ...
544.3      0.2130465  1          0.4553716 
544.4      0.2024794  1          0.4665765 
544.5      0.1761119  1          0.4838211 
544.6      0.1679301  1          0.452442  
544.7      0.09391009 1          0.4925444 
544.8      0.06555849 1          0.5718024 
544.9      0.0475261  1          0.6815585 
545        0.02182797 1          0.8472277 
545.1      0.01279019 1          0.9169031 
545.2      0.001086357 1          1         
545.3      0.003457289 1          0.9915642 
545.4      0.0067618  1          0.9639882 
545.5      0.03297297 1          0.8466091 
545.6      0.0457084  1          0.7996566 
545.7      0.06677639 1          0.7638208 
545.8      0.02864625 1          0.8704501 
545.9      0.004066518 1          1         
546        0.002177268 1          1         
546.1      0.002609092 1          1         
546.2      0.01346114 1          0.9204208 
546.3      0.009585542 1          0.9411859 
546.4      0.01030139 1          0.9842275 
546.5      0.008614202 1          0.9785911 
546.6      0.02396355 1          0.8693675 
546.7      0.03361148 1          0.8213452 
546.8      0.05608242 1          0.7410001 
546.9      0.06061798 1          0.7157453 
547        0.06782698 1          0.6993361 
547.1      0.06022483 1          0.7322133 
547.2      0.04163691 1          0.8160424 
547.3      0.03636857 1          0.8882195 
547.4      0.04144901 1          0.9447988 
547.5      0.0856451  1          0.8535414 
547.6      0.1308333  1          0.686662  
547.7      0.1238001  1          0.6219972 
547.8      0.1292374  1          0.5727877 
547.9      0.0766142  1          0.7106018 
548        0.02723202 1          0.8576092 
548.1      0          1          1         
548.2      0.003411913 1          1         
548.3      0.007814867 1          1         
548.4      0.008500742 1          1         
548.5      0.007706904 1          1         
548.6      0.004604515 1          1         
548.7      0.004186232 1          1         
548.8      0.01612925 1          1         
548.9      0.01297979 1          1         
549        0.003168723 1          1         
549.1      0.002242086 1          1         
549.2      0.003942212 1          1         
549.3      0.0003559832 1          1         
549.4      0          1          1         
549.5      0.001455052 1          0.9629468 
549.6      0.00244387 1          0.9682007 
549.7      0.0005481647 1          1         
549.8      0.0005481647 1          1         
549.9      0.005622091 1          1         
550        0.003649847 1          1         
550.1      0.001548476 1          1         
550.2      0.002215143 1          1         
550.3      0          1          1         
550.4      0          1          1         
550.5      0.003790911 1          1         
550.6      0.00483101 1          0.9994903 
550.7      0.01210725 1          0.9086227 
550.8      0.002848763 1          0.9608715 
550.9      0          1          1         
551        0.001972734 1          1         
551.1      0          1          1         
551.2      0          1          1         
551.3      0.0006697022 1          1         
551.4      0.01750295 1          0.8725632 
551.5      0.01556008 1          0.9074542 
551.6      0.01153072 1          0.9227158 
551.7      0.01342686 1          0.9329878 
551.8      0.006992484 1          0.9919539 
551.9      0.00259936 1          1         
552        0.008131711 1          0.9644017 
552.1      0.01840593 1          0.8964579 
552.2      0.02583284 1          0.8813162 
552.3      0.02149666 1          0.8713155 
552.4      0.02509273 1          0.8374229 
552.5      0.0106668  1          0.8612313 
552.6      0.01671556 1          0.8907105 
552.7      0.008914765 1          0.9366896 
552.8      0.008040084 1          0.8904256 
552.9      0.003323955 1          0.9363856 
553        0.002505908 1          1         
553.1      0          1          1         
553.2      0.004903533 1          0.9787337 
553.3      0.01125404 1          0.9099062 
553.4      0.008074882 1          0.9304225 
553.5      0.009639291 1          0.9407617 
553.6      0.008192196 1          0.9301215 
553.7      0.0041572  1          0.9779308 
553.8      0.006861976 1          1         
553.9      0.00828622 1          1         
554        0.007932691 1          1         
554.1      0.009949782 1          1         
554.2      0.01116216 1          1         
554.3      0.01560452 1          1         
554.4      0.08014677 1          0.8207362 
554.5      0.1602519  1          0.6415373 
554.6      0.216463   1          0.512929  
554.7      0.2350049  1          0.4148411 
554.8      0.2220174  1          0.394739  
554.9      0.2127581  1          0.4121809 
555        0.1939918  1          0.4436033 
555.1      0.2024305  1          0.4120759 
555.2      0.1880673  1          0.4171293 
555.3      0.1989831  1          0.3920411 
555.4      0.2131643  1          0.3919919 
555.5      0.2389339  1          0.3799223 
555.6      0.2228586  1          0.4042644 
555.7      0.1957325  1          0.4652556 
555.8      0.1640492  1          0.4911315 
555.9      0.1298906  1          0.5275386 
556        0.1041988  1          0.5628842 
556.1      0.08391478 1          0.6003466 
556.2      0.0387693  1          0.7139915 
556.3      0.00368558 1          0.8090895 
556.4      0.008727816 1          0.9362952 
556.5      0.02026274 1          0.8415145 
556.6      0.05292403 1          0.7469345 
556.7      0.09022209 1          0.6972714 
556.8      0.1028218  1          0.6892108 
556.9      0.0946755  1          0.7091844 
557        0.0815365  1          0.7380229 
557.1      0.09042115 1          0.7337038 
557.2      0.1240531  1          0.6615764 
557.3      0.1626869  1          0.5520703 
557.4      0.1830522  1          0.5171354 
557.5      0.165708   1          0.5650287 
557.6      0.1638379  1          0.58179   
557.7      0.18218    1          0.5682251 
557.8      0.2276576  1          0.5076976 
557.9      0.3000654  0.9920477  0.4365563 
558        0.3854136  0.6966757  0.3149805 
558.1      0.4322891  0.6156698  0.2080369 
558.2      0.4288063  0.6482313  0.1528669 
558.3      0.3897465  0.7432175  0.1552804 
558.4      0.3225644  0.9103311  0.2080119 
558.5      0.2433214  1          0.3599146 
558.6      0.1476285  1          0.5543582 
558.7      0.06397034 1          0.7660573 
558.8      0.02099157 1          0.8868924 
558.9      0.01686545 1          0.9429991 
559        0.0172237  1          0.9220543 
559.1      0.04839528 1          0.7920333 
559.2      0.04623179 1          0.8100582 
559.3      0.02440099 1          0.9215268 
559.4      0.008692453 1          1         
559.5      0.007147013 1          1         
559.6      0.02423889 1          0.9262752 
559.7      0.05445855 1          0.823249  
559.8      0.05195383 1          0.832441  
559.9      0.02351744 1          0.8953559 
560        0.01446139 1          0.9257342 
560.1      0.03567979 1          0.8227116 
560.2      0.1120419  1          0.6549101 
560.3      0.1388874  1          0.5898595 
560.4      0.1524974  1          0.5661049 
560.5      0.1552241  1          0.5594031 
560.6      0.1610883  1          0.5626101 
560.7      0.1357259  1          0.6069542 
560.8      0.1050664  1          0.6930457 
560.9      0.07013936 1          0.7591651 
561        0.03417597 1          0.8641984 
561.1      0.03263946 1          0.8936188 
561.2      0.03070025 1          0.883543  
561.3      0.06994449 1          0.7805316 
561.4      0.07684174 1          0.7542859 
561.5      0.06816178 1          0.7671202 
561.6      0.07621711 1          0.7370949 
561.7      0.1141189  1          0.6842409 
561.8      0.09435118 1          0.7243654 
561.9      0.05853335 1          0.7887026 
562        0.05064354 1          0.8066046 
562.1      0.07187602 1          0.753486  
562.2      0.08484347 1          0.7533718 
562.3      0.03449096 1          0.8968944 
