~Version
 VERS              .         3.0                           : CWLS LOG ASCII STANDARD - VERSION 3.0
 WRAP              .         NO                            : ONE LINE PER DEPTH STEP
 DLM               .         SPACE                         : DELIMITING CHARACTER(SPACE TAB OR COMMA)
~Well Information
#_______________________________________________________________________________
#
#PARAMETER_NAME    .UNIT     VALUE                         : DESCRIPTION
#_______________________________________________________________________________
STRT               .M        0.7                           : First reference value
STOP               .M        858.3                         : Last reference value
STEP               .M        0.1                           : Step increment
NULL               .         -9999                         : Missing value
COMP               .         ICPetroleum                   : Company
WELL               .         1-КН                          : Well name
FLD                .         Karatobe                      : Field
LOC                .                                       : Location
SRVC               .         AFGIS OJSC"Kazpromgeophysica" : Service Company
CTRY               .         KZ                            : Country
DATE               .         22/11/2003                    : Service Date
X                  .km       466484.43                     : X or East-West coordinate
Y                  .km       5308000.04                    : Y or North South coordinate
GDAT               .                                       : Geodetic Datum
HZCS               .                                       : Horizontal Co-ordinate System
COUNTRY            .         Kazakhstan                    : 
COUNTRY            .         Kazakhstan                    : 
EREF               .m        148.6                         : 
ORIGINALWELLNAME   .         1-KN                          :
UWI                .                                       : 
~Parameter Information Block
#_______________________________________________________________________________
#
#PARAMETER_NAME    .UNIT     VALUE                         : DESCRIPTION
#_______________________________________________________________________________
SET                .         Las                           : 
TLFamily_DEPT      .         Measured Depth                : 
TLFamily_PHI_FINAL .         Porosity                      : 
TLFamily_SW_AR     .         Water Saturation              : 
TLFamily_VSH_FINAL .         Shale Volume                  : 
~Curve Information
#_______________________________________________________________________________
#
#LOGNAME           .UNIT     LOG_ID                        : DESCRIPTION
#_______________________________________________________________________________
DEPT               .M                                      : Depth curve {F}
PHI_FINAL          .m3/m3                                  : Porosity {F}
SW_AR              .m3/m3                                  :  {F}
VSH_FINAL          .unitless                               : Vshale {F}
~Ascii
# ...
362.3      0.05266726 1          0.8745871 
362.4      0.02258598 1          1         
362.5      0.02487169 1          1         
362.6      0.03220619 1          1         
362.7      0.04164392 1          1         
362.8      0.03552592 1          1         
362.9      0.01659675 1          1         
363        0.01015485 1          1         
363.1      0.01091659 1          1         
363.2      0.01254933 1          1         
363.3      0.02384643 1          1         
363.4      0.02485374 1          1         
363.5      0.03134763 1          1         
363.6      0.033611   1          1         
363.7      0.03054704 1          1         
363.8      0.02760218 1          1         
363.9      0.02917363 1          0.9467909 
364        0.08768291 1          0.7674565 
364.1      0.106817   1          0.6965701 
364.2      0.1165671  1          0.6441242 
364.3      0.1054446  1          0.665369  
364.4      0.09470197 1          0.6190915 
364.5      0.075925   1          0.6480356 
364.6      0.07246691 1          0.6825729 
364.7      0.04138091 1          0.7764156 
364.8      0.07193918 1          0.7421485 
364.9      0.09759099 1          0.7138842 
365        0.0791266  1          0.75637   
365.1      0.04057936 1          0.8647029 
365.2      0.03126109 1          0.8980299 
365.3      0.04830328 1          0.8534732 
365.4      0.05237247 1          0.8587651 
365.5      0.04401796 1          0.8975443 
365.6      0.007884193 1          1         
365.7      0.01261849 1          1         
365.8      0.004773941 1          1         
365.9      0.007821249 1          1         
366        0.004874287 1          1         
366.1      0.001245774 1          1         
366.2      0.02210453 1          0.8851293 
366.3      0.05559328 1          0.7893016 
366.4      0.03128352 1          0.8681667 
366.5      0.0215591  1          0.9015853 
366.6      0.02160617 1          0.9186475 
366.7      0.03080674 1          0.8956062 
366.8      0.04165023 1          0.8404449 
366.9      0.1305423  1          0.620679  
367        0.1800383  1          0.5154153 
367.1      0.1904671  1          0.4916047 
367.2      0.1709725  1          0.5619467 
367.3      0.1772481  0.991852   0.5398614 
367.4      0.2191321  0.7624092  0.4560282 
367.5      0.2431168  0.6476316  0.4083444 
367.6      0.2592846  0.592862   0.3780366 
367.7      0.2443117  0.6178535  0.4110793 
367.8      0.2214452  0.6621585  0.4779825 
367.9      0.1844232  0.7697757  0.5613096 
368        0.167736   0.8284808  0.6114697 
368.1      0.1947565  0.7430366  0.5686312 
368.2      0.1743997  0.8757449  0.635755  
368.3      0.1240716  1          0.7283438 
368.4      0.03607688 1          0.8872427 
368.5      0.006725765 1          1         
368.6      0.01428259 1          1         
368.7      0.01751607 1          1         
368.8      0.01950178 1          1         
368.9      0.02095633 1          1         
369        0.02209183 1          1         
369.1      0.02280349 1          1         
369.2      0.0169495  1          1         
369.3      0.01588131 1          1         
369.4      0.02117622 1          1         
369.5      0.02207745 1          1         
369.6      0.01984796 1          1         
369.7      0.01732361 1          1         
369.8      0.0159762  1          1         
369.9      0.01463768 1          1         
370        0.01276275 1          1         
370.1      0.01201292 1          1         
370.2      0.01968988 1          1         
370.3      0.03179689 1          1         
370.4      0.03431792 1          1         
370.5      0.0386281  1          1         
370.6      0.03827526 1          1         
370.7      0.03502553 1          1         
370.8      0.02473773 1          1         
370.9      0.02232277 1          1         
371        0.01834348 1          1         
371.1      0.01603826 1          1         
371.2      0.01854645 1          1         
371.3      0.02923881 1          1         
371.4      0.01690865 1          1         
371.5      0.01677765 1          1         
371.6      0.01173375 1          1         
371.7      0.02715738 1          1         
371.8      0.02947555 1          1         
371.9      0.02195829 1          1         
372        0.1129639  1          0.7145433 
372.1      0.1475186  1          0.6235598 
372.2      0.1354222  1          0.6610509 
372.3      0.09856132 1          0.7761781 
372.4      0.08783738 1          0.8062231 
372.5      0.09954029 1          0.8216056 
372.6      0.1306204  1          0.7708373 
372.7      0.1529257  1          0.7000583 
372.8      0.1548195  1          0.6999413 
372.9      0.08889052 1          0.8262325 
373        0.08383948 1          0.8208876 
373.1      0.08018994 1          0.7459756 
373.2      0.0935261  1          0.7131048 
373.3      0.04451679 1          0.825682  
373.4      0.03942577 1          0.8849114 
373.5      0.07370058 1          0.7895138 
373.6      0.1271465  1          0.6768335 
373.7      0.1144528  1          0.7452151 
373.8      0.0627796  1          0.8568556 
373.9      0.02620661 1          0.9473025 
374        0.05090515 1          0.8839639 
374.1      0.07348371 1          0.8244988 
374.2      0.08774231 1          0.7445825 
374.3      0.1078033  1          0.6545153 
374.4      0.1079611  1          0.5973608 
374.5      0.1429286  1          0.523352  
374.6      0.177805   1          0.5232719 
374.7      0.2168428  1          0.4795186 
374.8      0.1749577  1          0.5516402 
374.9      0.1484787  1          0.5663053 
375        0.1232069  1          0.6046461 
375.1      0.09950972 1          0.662195  
375.2      0.08660153 1          0.7245264 
375.3      0.08170529 1          0.7721615 
375.4      0.09747225 1          0.7383245 
375.5      0.09259606 1          0.7381995 
375.6      0.0384328  1          0.8434045 
375.7      0.003811537 1          0.9741412 
375.8      0.0008938343 1          1         
375.9      0.001917049 1          1         
376        0.008146833 1          1         
376.1      0.02877323 1          0.9795258 
376.2      0.02963716 1          1         
376.3      0.03755746 1          1         
376.4      0.0309719  1          1         
376.5      0.03633023 1          1         
376.6      0.02795336 1          1         
376.7      0.02088068 1          1         
376.8      0.04392489 1          0.9190281 
376.9      0.03770913 1          0.9421204 
377        0.02464774 1          1         
377.1      0.02365606 1          1         
377.2      0.01460624 1          1         
377.3      0.0127945  1          1         
377.4      0.01795805 1          0.9651015 
377.5      0.01201396 1          0.9411276 
377.6      0.02347905 1          0.9119981 
377.7      0.02207569 1          0.9705811 
377.8      0.02328589 1          0.9948769 
377.9      0.0406254  1          1         
378        0.05149134 1          1         
378.1      0.04399274 1          1         
378.2      0.04695584 1          1         
378.3      0.03495121 1          1         
378.4      0.04012867 1          1         
378.5      0.0540036  1          1         
378.6      0.0870444  1          0.8712566 
378.7      0.0935954  1          0.8025396 
378.8      0.06212895 1          0.8600778 
378.9      0.02643439 1          1         
379        0.04496329 1          1         
379.1      0.04903262 1          1         
379.2      0.03136278 1          1         
379.3      0.02874685 1          1         
379.4      0.02651951 1          1         
379.5      0.02140147 1          1         
379.6      0.02305488 1          1         
379.7      0.0245964  1          1         
379.8      0.02645256 1          1         
379.9      0.03533963 1          1         
380        0.04726704 1          1         
380.1      0.04809831 1          1         
380.2      0.03936244 1          1         
380.3      0.04651586 1          1         
380.4      0.04559482 1          1         
