~Version
 VERS              .         3.0                           : CWLS LOG ASCII STANDARD - VERSION 3.0
 WRAP              .         NO                            : ONE LINE PER DEPTH STEP
 DLM               .         SPACE                         : DELIMITING CHARACTER(SPACE TAB OR COMMA)
~Well Information
#_______________________________________________________________________________
#
#PARAMETER_NAME    .UNIT     VALUE                         : DESCRIPTION
#_______________________________________________________________________________
STRT               .M        0.7                           : First reference value
STOP               .M        858.3                         : Last reference value
STEP               .M        0.1                           : Step increment
NULL               .         -9999                         : Missing value
COMP               .         ICPetroleum                   : Company
WELL               .         1-КН                          : Well name
FLD                .         Karatobe                      : Field
LOC                .                                       : Location
SRVC               .         AFGIS OJSC"Kazpromgeophysica" : Service Company
CTRY               .         KZ                            : Country
DATE               .         22/11/2003                    : Service Date
X                  .km       466484.43                     : X or East-West coordinate
Y                  .km       5308000.04                    : Y or North South coordinate
GDAT               .                                       : Geodetic Datum
HZCS               .                                       : Horizontal Co-ordinate System
COUNTRY            .         Kazakhstan                    : 
COUNTRY            .         Kazakhstan                    : 
EREF               .m        148.6                         : 
ORIGINALWELLNAME   .         1-KN                          :
UWI                .                                       : 
~Parameter Information Block
#_______________________________________________________________________________
#
#PARAMETER_NAME    .UNIT     VALUE                         : DESCRIPTION
#_______________________________________________________________________________
SET                .         Las                           : 
TLFamily_DEPT      .         Measured Depth                : 
TLFamily_PHI_FINAL .         Porosity                      : 
TLFamily_SW_AR     .         Water Saturation              : 
TLFamily_VSH_FINAL .         Shale Volume                  : 
~Curve Information
#_______________________________________________________________________________
#
#LOGNAME           .UNIT     LOG_ID                        : DESCRIPTION
#_______________________________________________________________________________
DEPT               .M                                      : Depth curve {F}
PHI_FINAL          .m3/m3                                  : Porosity {F}
SW_AR              .m3/m3                                  :  {F}
VSH_FINAL          .unitless                               : Vshale {F}
~Ascii
# ...
835.4      0          1          0.1878295 
835.5      0          1          0.1616065 
835.6      0          1          0.1342677 
835.7      0          1          0.1153658 
835.8      0.005874939 1          0.1119063 
835.9      0          1          0.1039305 
836        0          1          0.07876188
836.1      0.0003325864 1          0.05905223
836.2      0.001694935 1          0.04710961
836.3      0.001097118 1          0.04418037
836.4      0          1          0.0432073 
836.5      0          1          0.0540304 
836.6      0          1          0.06620322
836.7      0          1          0.07875618
836.8      0          1          0.08088477
836.9      0          1          0.07981625
837        0          1          0.07663863
837.1      0          1          0.0776932 
837.2      0          1          0.07663296
837.3      0          1          0.07452641
837.4      0.002429578 1          0.06723072
837.5      0.01980497 1          0.06312568
837.6      0.03027709 1          0.06108365
837.7      0.06257585 1          0.07452641
837.8      0.07563204 1          0.111894  
837.9      0.06905226 1          0.153999  
838        0.07791439 1          0.2098145 
838.1      0.04796974 1          0.2566571 
838.2      0.01489332 1          0.299291  
838.3      0          1          0.2944116 
838.4      0.002505131 1          0.2783791 
838.5      0.01604031 1          0.2597038 
838.6      0.03287235 1          0.2566407 
838.7      0.007525854 1          0.2566407 
838.8      0          1          0.272092  
838.9      0          1          0.2895615 
839        0.008100085 1          0.3209126 
839.1      0.01367998 1          0.3503359 
839.2      0.006489456 1          0.3556523 
839.3      0          1          0.3363379 
839.4      0.003253766 1          0.3058709 
839.5      0          1          0.2799738 
839.6      0          1          0.2627665 
839.7      0          1          0.2445705 
839.8      0.007799022 1          0.2269331 
839.9      0.02680794 1          0.2197366 
840        0.005462591 1          0.218307  
840.1      0.002790853 1          0.225477  
840.2      0.01189148 1          0.209822  
840.3      0.01285137 1          0.1905334 
840.4      0          1          0.1758562 
840.5      0          1          0.1811455 
840.6      0.009081833 1          0.1798162 
840.7      0.03137636 1          0.1784974 
840.8      0.0321293  1          0.1706286 
840.9      0.0135854  1          0.1784974 
841        0          1          0.1838072 
841.1      0          1          0.1918833 
841.2      0.03470617 1          0.1946083 
841.3      0.03547071 1          0.219729  
841.4      0.04171175 1          0.2612496 
841.5      0.03933372 1          0.2944029 
841.6      0.02047562 1          0.3058709 
841.7      0.01822384 1          0.2960309 
841.8      0          1          0.2799738 
841.9      0          1          0.2551151 
842        0          1          0.2183146 
842.1      0          1          0.182471  
842.2      0.0004731603 1          0.1577811 
842.3      0          1          0.1465025 
842.4      0.005772248 1          0.1440274 
842.5      0          1          0.1514782 
842.6      0.004807603 1          0.1527403 
842.7      0.002313282 1          0.1590529 
842.8      0          1          0.1465025 
842.9      0.0005590618 1          0.1294699 
843        0.01767223 1          0.117685  
843.1      0          1          0.1200226 
843.2      0          1          0.1366984 
843.3      0          1          0.1577743 
843.4      0.02491732 1          0.1771822 
843.5      0.04356153 1          0.194601  
843.6      0.006632224 1          0.2126407 
843.7      0          1          0.2283774 
843.8      0          1          0.2505702 
843.9      0          1          0.2597038 
844        0          1          0.2551233 
844.1      0          1          0.2752357 
844.2      0          1          0.3485667 
844.3      0          1          0.6337106 
844.4      0          1          1         
844.5      0          1          1         
844.6      0          1          1         
844.7      0          1          1         
844.8      0          1          1         
844.9      0          1          1         
845        0          1          1         
845.1      0          1          1         
845.2      0          1          1         
845.3      0          1          1         
845.4      0          1          1         
845.5      0          1          1         
845.6      0          1          1         
845.7      0          1          1         
845.8      0          1          1         
845.9      0          1          1         
846        0          1          1         
846.1      0          1          1         
846.2      0          1          1         
846.3      0          1          1         
846.4      0          1          1         
846.5      0          1          1         
846.6      0          1          1         
846.7      0          1          1         
846.8      0          1          1         
846.9      0          1          1         
847        0          1          1         
847.1      0          1          1         
847.2      0          1          1         
847.3      0          1          1         
847.4      0          1          1         
847.5      0          1          1         
847.6      0          1          1         
847.7      0          1          0.976369  
847.8      0          1          0.787754  
847.9      0          1          0.6931913 
848        0          1          0.7393833 
848.1      0          1          0.8082514 
848.2      0          1          0.8231359 
848.3      0          1          0.8534913 
848.4      0          1          0.8351771 
848.5      0          1          0.8201532 
848.6      0          1          0.7505649 
848.7      0          1          0.7283468 
848.8      0          1          0.7173952 
848.9      0          1          0.7283468 
849        0          1          0.7201261 
849.1      0          1          0.6852154 
849.2      0          1          0.6852295 
849.3      0          1          0.7119401 
849.4      0          1          0.7366172 
849.5      0          1          0.7146859 
849.6      0          1          0.6878765 
849.7      0          1          0.7146713 
849.8      0          1          0.7092594 
849.9      0          1          0.7228494 
850        -9999      -9999      0.4994141 
850.1      -9999      -9999      0.575208  
850.2      -9999      -9999      0.5609028 
850.3      -9999      -9999      0.5664837 
850.4      -9999      -9999      0.5172889 
850.5      -9999      -9999      0.5225071 
850.6      -9999      -9999      0.4915032 
850.7      -9999      -9999      0.4889515 
850.8      -9999      -9999      0.5118192 
850.9      -9999      -9999      0.5329255 
851        -9999      -9999      0.5382776 
851.1      -9999      -9999      0.5519282 
851.2      -9999      -9999      0.503855  
851.3      -9999      -9999      0.5273256 
851.4      -9999      -9999      0.496101  
851.5      -9999      -9999      0.5166441 
851.6      -9999      -9999      0.4760981 
851.7      -9999      -9999      0.4984555 
851.8      -9999      -9999      0.5243416 
851.9      -9999      -9999      0.5597579 
852        -9999      -9999      0.5430866 
852.1      -9999      -9999      0.5402902 
852.2      -9999      -9999      0.4956472 
852.3      -9999      -9999      0.4684643 
852.4      -9999      -9999      0.4756811 
852.5      -9999      -9999      0.4929531 
852.6      -9999      -9999      0.5081661 
852.7      -9999      -9999      0.4658484 
852.8      -9999      -9999      0.4978281 
852.9      -9999      -9999      0.4778465 
853        -9999      -9999      0.4729362 
853.1      -9999      -9999      0.4561535 
853.2      -9999      -9999      0.515615  
853.3      -9999      -9999      0.5504974 
853.4      -9999      -9999      0.5643994 
853.5      -9999      -9999      0.5353438 
