~Version information
  VERS.                            1.20: CWLS LAS  -  VERSION 1.20
  WRAP.                              NO: One line per depth step
~Well information
# MNEM.UNIT
# ====.================================:===================
  STRT.M                           0.70: First depth in file
  STOP.M                         858.30: Last depth in file
  STEP.M                           0.10: Depth increment
  NULL.                           -9999: Null values
  COMP.                         COMPANY: TOO "C.I.O.C."
  WELL.                            WELL: 1-KN
  FLD .                           FIELD: KARATUBE
  DATE.                        LOG DATE: 22/11/2003
  SRVC.                 SERVICE COMPANY: AFGIS OJSC"Kazpromgeophysica"
  UWI.           Unique Well Identifier: 
~Parametr information block
# MNEM.UNIT
# ====.================================:===================
~Other information
# ------------------------- REMARKS  AREA ------------------
~Curve information
# MNEM.UNIT
# ====.================================:===================
  DEPT.M                               : Depth curve
LL3 .ohmm                              : Appar.resistivity,laterolog,3electrodes
MLL .ohmm                              : Microlaterolog sonde
RHOB.g/c3                              : Bulk density by DGGL
DTP .us/m                              : Interval travel time (P)
GR  .ur/h                              : Gamma Ray
NGLD.stdu                              : Neutron-gamma log
GZ3 .ohmm                              : App.resistivity by lateral A2M05N
GZ3B.ohmm                              : App.resistivity by lateral N05M2A
SP  .mv                                : Spontaneous potential
CALI.mm                                : Caliper
ILA .mmho                              : IL sonde 7l1.6, active signal
~ASCII Log Data
# ...
   223.90     3.1261     1.4790     2.0326   486.7000     4.4800     1.1265     4.1360     3.7820  -433.0000   238.6960   197.1750
   224.00     3.1046     1.4010     2.0830   486.7000     4.8720     1.1220     4.0600     3.6720  -431.9999   236.0280   197.3100
   224.10     3.0761     1.4790     2.0662   493.3000     5.0773     1.0948     4.0930     3.6280  -432.3333   234.0260   197.7610
   224.20     3.0061     1.3620     2.0516   496.7000     5.2453     1.0948     4.0600     3.6060  -431.6667   236.0280   199.1580
   224.30     3.0269     1.4400     2.0763   493.3000     5.2267     1.0585     4.0390     3.4970  -432.6666   238.0290   200.3740
   224.40     3.0269     1.4010     2.1258   490.0000     5.5440     1.0223     4.0600     3.4750  -431.6667   234.0260   201.9520
   224.50     2.9580     1.3620     2.1185   486.7000     6.4026     0.9905     4.1250     3.5410  -432.6667   234.0260   203.5290
   224.60     2.9376     1.3220     2.1767   490.0000     8.0081     0.9973     4.2340     3.6830  -434.6665   233.3590   204.2950
   224.70     3.0409     1.4010     2.2158   493.3000     9.1653     1.0019     4.4930     3.9570  -439.6667   237.3620   206.0530
   224.80     3.0903     1.4010     2.1847   493.3000     9.5200     1.0132     4.7740     4.2210  -444.3336   236.6950   207.5850
   224.90     3.0761     1.5570     2.1500   496.7000     8.9600     0.9747     5.0880     4.3850  -445.6667   241.3650   208.7110
   225.00     2.9717     1.4790     2.1371   496.7000     8.7173     0.9339     5.3470     4.5170  -446.6667   244.0340   209.5220
   225.10     2.9107     1.2830     2.0935   503.3000     8.6427     0.9248     5.4770     4.6040  -445.3333   242.0320   210.2890
   225.20     2.9376     1.3620     2.0848   503.3000     8.6613     0.9860     5.4770     4.6590  -445.6667   240.0310   212.2710
   225.30     2.9512     1.3620     2.1456   503.3000     8.8667     1.0495     5.4120     4.5930  -447.0002   236.0280   213.5330
   225.40     2.9107     1.3220     2.1347   503.3000     9.0534     1.0744     5.3040     4.6040  -447.6666   234.6930   214.0290
   225.50     2.9785     1.4010     2.1171   510.0000     9.2027     1.0608     5.2280     4.5600  -449.9999   239.3640   215.6510
   225.60     3.0479     1.4790     2.1899   510.0000     8.7733     1.0676     5.1420     4.5390  -448.0000   235.3610   216.7330
   225.70     3.0903     1.2440     2.1149   503.3000     8.7360     1.0336     4.9690     4.5500  -448.6667   232.6920   217.0480
   225.80     3.1696     1.4010     2.1065   490.0000     8.8853     1.0404     4.8500     4.5060  -447.0000   236.0280   217.4540
   225.90     3.1623     1.2830     2.0946   483.3000     9.1653     1.0313     4.7420     4.4840  -447.6666   235.3610   217.3640
   226.00     3.1117     1.4010     2.0701   483.3000     9.1467     1.0427     4.6340     4.4840  -446.6667   234.0260   216.8230
   226.10     3.0761     1.4010     2.1078   490.0000     9.0347     0.9951     4.5260     4.4290  -447.0001   234.6930   216.5530
   226.20     3.0130     1.2830     2.1722   496.7000     9.2400     0.9747     4.4170     4.3850  -446.6667   238.6960   216.3720
   226.30     2.9242     1.2050     2.1204   500.0000     9.6507     0.9543     4.3310     4.3520  -445.9999   238.6960   216.2820
   226.40     2.8054     1.3220     2.0858   500.0000     9.6320     0.9429     4.2010     4.2970  -444.6668   238.6960   215.5610
   226.50     2.7669     1.0880     2.0841   500.0000     9.1467     0.9293     4.0930     4.3190  -444.0001   235.3610   215.6960
   226.60     2.8576     1.1660     2.0658   500.0000     8.6053     0.9293     4.0170     4.2970  -442.6668   236.6950   219.2560
   226.70     2.9309     1.1660     2.0420   503.3000     8.5120     0.9361     3.9420     4.3520  -442.0000   236.0280   222.7710
   226.80     2.9648     1.2440     2.0835   503.3000     8.6800     0.9384     3.8770     4.4400  -440.0000   236.0280   225.4300
   226.90     2.9923     1.2830     2.1092   500.0000     9.0534     0.9429     3.7580     4.4950  -441.0000   233.3590   227.0980
   227.00     2.9992     1.2440     2.0986   496.7000     9.2400     0.9339     3.6930     4.5280  -438.9999   235.3610   228.4950
   227.10     2.9444     1.2050     2.1064   490.0000     9.2773     0.9339     3.7470     4.5600  -438.6667   239.3640   229.5760
   227.20     3.0269     1.3620     2.0634   496.7000     9.2213     0.9271     3.8120     4.5390  -438.3333   238.0290   229.5760
   227.30     3.0409     1.2440     2.0059   500.0000     9.2587     0.9316     3.8120     4.5820  -440.6667   240.0310   227.9990
   227.40     3.0761     1.2830     2.0364   513.3000     9.1653     0.9203     3.8660     4.6260  -443.3332   240.0310   226.0610
   227.50     3.0903     1.4400     2.0792   526.7000     9.0907     0.9407     3.9090     4.6370  -445.0001   236.6950   224.8890
   227.60     3.0549     1.3220     2.0753   540.0000     9.4640     0.9996     3.8770     4.6590  -447.0000   235.3610   222.9070
   227.70     2.9309     1.2830     2.0680   543.3000     9.8000     1.0268     3.8550     4.6590  -447.3333   238.6960   221.6000
   227.80     2.8445     1.2830     2.0938   536.7000     9.8187     1.0404     3.8440     4.6590  -449.0001   237.3620   220.7440
   227.90     2.9040     1.2830     2.1377   523.3000     9.3520     0.9815     3.8120     4.6810  -448.0001   236.6950   220.7890
   228.00     2.9648     1.0880     2.0683   513.3000     9.0720     0.9293     3.8330     4.7690  -448.6666   235.3610   220.9240
   228.10     2.9376     1.2830     2.0501   513.3000     9.0160     0.9225     3.8660     4.9000  -447.3333   230.6900   221.1040
   228.20     2.8708     1.2440     2.0357   523.3000     8.8293     0.9679     3.9310     5.0540  -449.6667   226.6870   221.6900
   228.30     2.8445     1.2440     1.9936   520.0000     8.8853     1.0177     3.9310     5.0870  -451.0002   224.0180   221.0590
   228.40     2.8379     1.1660     2.0438   503.3000     8.9227     1.0132     3.9200     5.1640  -452.3334   224.6860   218.2200
   228.50     2.8576     1.2440     2.0561   483.3000     9.0160     0.9951     3.9520     5.2290  -451.6666   224.6860   215.8770
   228.60     2.8774     1.2440     2.0902   483.3000     8.9226     1.0087     3.8770     5.2510  -450.0001   222.0170   214.2990
   228.70     2.8445     1.2830     2.1295   486.7000     8.7547     1.0155     3.7900     5.2400  -448.6667   221.3500   213.1280
   228.80     2.9785     1.0090     2.1535   486.7000     8.6800     1.0200     3.7680     5.3390  -446.9999   224.0180   215.0200
   228.90     3.3037     2.2620     2.2483   480.0000     8.5120     0.9928     3.7470     5.4820  -445.3334   220.6830   218.2200
   229.00     3.4514     1.8710     2.1832   480.0000     8.4373     0.9611     3.7470     5.6680  -445.3334   222.6840   219.1660
   229.10     3.4754     1.4790     2.0866   490.0000     8.5680     0.9543     3.8120     5.7780  -445.0000   224.6860   218.9860
   229.20     3.4198     1.4400     2.0683   503.3000     8.7733     0.9429     3.8330     5.8110  -443.0000   222.0170   217.4540
   229.30     3.3884     1.5570     2.1122   510.0000     8.9227     0.9611     3.8230     5.8550  -439.9998   223.3510   212.4520
   229.40     3.3189     1.5570     2.1191   510.0000     9.2400     0.9860     3.8010     5.7340  -439.3332   223.3510   206.7280
   229.50     3.3037     1.4790     2.1077   510.0000     9.5573     1.0223     3.7790     5.6350  -439.3333   222.6840   204.5200
   229.60     3.3189     1.3220     2.0957   510.0000     9.9120     1.0155     3.7470     5.4710  -438.3335   222.6840   203.9800
   229.70     3.4198     1.4400     2.0867   506.7000     9.7813     0.9701     3.6390     5.3500  -436.0000   225.3530   203.3490
   229.80     3.4594     1.5180     2.0649   503.3000     9.3707     0.9520     3.6280     5.3060  -435.0000   219.3480   203.1230
   229.90     3.4594     1.3620     2.0971   503.3000     8.5866     0.9429     3.6820     5.2840  -435.0000   221.3500   203.7990
   230.00     3.4514     1.4790     2.1339   503.3000     8.0080     0.9429     3.6820     5.2620  -434.6667   222.6840   202.8080
