~Version information
  VERS.                            1.20: CWLS LAS  -  VERSION 1.20
  WRAP.                              NO: One line per depth step
~Well information
# MNEM.UNIT
# ====.================================:===================
  STRT.M                           0.70: First depth in file
  STOP.M                         858.30: Last depth in file
  STEP.M                           0.10: Depth increment
  NULL.                           -9999: Null values
  COMP.                         COMPANY: TOO "C.I.O.C."
  WELL.                            WELL: 1-KN
  FLD .                           FIELD: KARATUBE
  DATE.                        LOG DATE: 22/11/2003
  SRVC.                 SERVICE COMPANY: AFGIS OJSC"Kazpromgeophysica"
  UWI.           Unique Well Identifier: 
~Parametr information block
# MNEM.UNIT
# ====.================================:===================
~Other information
# ------------------------- REMARKS  AREA ------------------
~Curve information
# MNEM.UNIT
# ====.================================:===================
  DEPT.M                               : Depth curve
LL3 .ohmm                              : Appar.resistivity,laterolog,3electrodes
MLL .ohmm                              : Microlaterolog sonde
RHOB.g/c3                              : Bulk density by DGGL
DTP .us/m                              : Interval travel time (P)
GR  .ur/h                              : Gamma Ray
NGLD.stdu                              : Neutron-gamma log
GZ3 .ohmm                              : App.resistivity by lateral A2M05N
GZ3B.ohmm                              : App.resistivity by lateral N05M2A
SP  .mv                                : Spontaneous potential
CALI.mm                                : Caliper
ILA .mmho                              : IL sonde 7l1.6, active signal
~ASCII Log Data
# ...
   850.10     5.3580     1.3220     2.0133   240.0000    10.8081     2.0672     6.2880      -9999  -555.6667   211.3420   134.9410
   850.20     5.3580     1.2050     2.0151   240.0000    10.7147     2.0649     6.3210      -9999  -554.3339   209.3410   134.5800
   850.30     5.3703     1.1270     1.9885   243.3000    10.7520     2.1669     6.2450      -9999  -553.0005   212.6760   134.4000
   850.40     5.3456     1.2440     2.0129   243.3000    10.4160     2.1601     6.2770      -9999  -554.9998   210.6750   134.1290
   850.50     5.3211     1.2830     1.9821   243.3000    10.4534     2.2191     6.2450      -9999  -556.0002   210.0080   133.9040
   850.60     5.3456     1.1270     1.9415   243.3000    10.2293     2.1579      -9999      -9999  -556.3333   210.6750   134.2200
   850.70     5.3456     1.2050     1.9410   243.3000    10.2107     2.0808      -9999      -9999  -555.3337   211.3420   134.2650
   850.80     5.3703     1.1660     1.9649   243.3000    10.3786     2.0196      -9999      -9999  -555.3334   210.6750   133.8140
   850.90     5.3456     1.2050     1.9650   240.0000    10.5280     2.0445      -9999      -9999  -556.3327   212.0090   134.0840
   851.00     5.3951     1.2440     1.9702   240.0000    10.5654     2.0649      -9999      -9999  -562.3348   209.3410   133.9940
   851.10     5.3580     1.1660     2.0069   240.0000    10.6587     2.0717      -9999      -9999  -566.6667   211.3420   133.9940
   851.20     5.3580     1.1660     1.9421   240.0000    10.3227     2.0287      -9999      -9999  -570.6667   212.0090   133.7690
   851.30     5.3951     1.2440     1.9826   240.0000    10.4907     2.0627      -9999      -9999  -572.0005   212.6760   133.8140
   851.40     5.3951     1.1660     1.9819   240.0000    10.2667     2.0513      -9999      -9999  -573.6663   209.3410   133.9940
   851.50     5.3580     1.0090     2.0031   240.0000    10.4161     2.0921      -9999      -9999  -574.3331   210.6750   133.9040
   851.60     5.3456     1.2050     2.0304   240.0000    10.1173     2.0717      -9999      -9999  -572.6667   211.3420   133.8590
   851.70     5.3951     1.2440     2.0207   240.0000    10.2853     2.0921      -9999      -9999  -572.3333   212.0090   133.9940
   851.80     5.3456     1.2440     1.9683   240.0000    10.4719     2.0559      -9999      -9999  -571.6667   212.0090   133.7240
   851.90     5.3456     1.0480     2.0070   240.0000    10.7146     2.0649      -9999      -9999  -572.0003   212.6760   133.7690
   852.00     5.3703     1.1270     2.0424   240.0000    10.6027     2.0309      -9999      -9999  -570.6666   211.3420   133.8590
   852.10     5.3580     1.1660     2.0033   240.0000    10.5840     2.0355      -9999      -9999  -569.3333   210.6750   134.0390
   852.20     5.3333     1.1660     2.0343   240.0000    10.2667     2.0400      -9999      -9999  -569.9997   209.3410   133.7240
   852.30     5.3456     1.2050     2.0637   240.0000    10.0614     2.0672      -9999      -9999  -570.3337   211.3420   133.6340
   852.40     5.3333     1.2830     1.9676   240.0000    10.1174     2.0559      -9999      -9999  -571.6669   210.0080   133.8140
   852.50     5.3703     1.1270     1.9550   240.0000    10.2480     2.0581      -9999      -9999  -571.3334   210.6750   133.7240
   852.60     5.3580     1.1660     1.9969   240.0000    10.3599     2.0287      -9999      -9999  -569.6667   210.6750   133.7690
   852.70     5.3951     1.2050     2.0029   240.0000    10.0427     2.0287      -9999      -9999  -569.0003   209.3410   133.9940
   852.80     5.3703     1.1270     1.9850   240.0000    10.2853     1.9675      -9999      -9999  -567.0000   212.6760   134.1290
   852.90     5.3827     1.1270     1.9431   240.0000    10.1360     2.0377      -9999      -9999  -568.3333   210.0080   134.2650
   853.00     5.3580     1.2050      -9999   240.0000    10.0988     2.1035      -9999      -9999  -567.6667   209.3410   134.2200
   853.10     5.3580     1.2050      -9999   240.0000     9.9681     2.1488      -9999      -9999  -568.5000   211.3420   134.4450
   853.20     5.3580     1.1660      -9999   240.0000    10.4160     2.1533      -9999      -9999      -9999   210.6750   134.2650
   853.30     5.3951     1.1660      -9999   240.0000    10.6587     2.0831      -9999      -9999      -9999   211.3420   134.1750
   853.40     5.3951     1.1270      -9999   240.0000    10.7520     2.0672      -9999      -9999      -9999   210.0080   134.2200
   853.50     5.3580     1.1660      -9999   240.0000    10.5560     2.0400      -9999      -9999      -9999   210.0080   134.0840
   853.60     5.3580     1.0480      -9999   243.3000      -9999     2.1238      -9999      -9999      -9999   210.6750   133.9040
   853.70      -9999     1.1270      -9999   246.7000      -9999     2.1488      -9999      -9999      -9999   210.0080   133.7690
   853.80      -9999     1.2050      -9999   246.7000      -9999     2.1533      -9999      -9999      -9999   211.3420   133.6340
   853.90      -9999     1.2050      -9999   243.3000      -9999     2.1193      -9999      -9999      -9999   209.3410   133.2280
   854.00      -9999     1.1660      -9999   240.0000      -9999     2.1035      -9999      -9999      -9999      -9999   133.0480
   854.10      -9999     1.2050      -9999   240.0000      -9999     2.0876      -9999      -9999      -9999      -9999   132.5070
   854.20      -9999     1.0090      -9999   240.0000      -9999     2.0944      -9999      -9999      -9999      -9999   131.4710
   854.30      -9999     1.2050      -9999   240.0000      -9999     2.1261      -9999      -9999      -9999      -9999   130.4790
   854.40      -9999     1.0880      -9999   240.0000      -9999     2.1443      -9999      -9999      -9999      -9999   130.0290
   854.50      -9999     1.1660      -9999   240.0000      -9999     2.0808      -9999      -9999      -9999      -9999   130.3890
   854.60      -9999     1.1660      -9999   240.0000      -9999     2.0423      -9999      -9999      -9999      -9999   130.7500
   854.70      -9999     1.1270      -9999   240.0000      -9999     2.0128      -9999      -9999      -9999      -9999   130.7500
   854.80      -9999     1.1270      -9999   240.0000      -9999     2.0513      -9999      -9999      -9999      -9999   130.3890
   854.90      -9999     1.0880      -9999   240.0000      -9999     2.0559      -9999      -9999      -9999      -9999   129.9840
   855.00      -9999     1.1660      -9999   240.0000      -9999     2.0513      -9999      -9999      -9999      -9999   129.0370
   855.10      -9999     1.1660      -9999   240.0000      -9999     2.0400      -9999      -9999      -9999      -9999   128.8570
   855.20      -9999     1.2830      -9999   240.0000      -9999      -9999      -9999      -9999      -9999      -9999   128.8570
   855.30      -9999     1.1270      -9999   240.0000      -9999      -9999      -9999      -9999      -9999      -9999   128.3610
   855.40      -9999     1.1270      -9999   240.0000      -9999      -9999      -9999      -9999      -9999      -9999      -9999
   855.50      -9999     1.0480      -9999   240.0000      -9999      -9999      -9999      -9999      -9999      -9999      -9999
   855.60      -9999     1.2050      -9999   240.0000      -9999      -9999      -9999      -9999      -9999      -9999      -9999
   855.70      -9999     1.1270      -9999   240.0000      -9999      -9999      -9999      -9999      -9999      -9999      -9999
   855.80      -9999      -9999      -9999   240.0000      -9999      -9999      -9999      -9999      -9999      -9999      -9999
   855.90      -9999      -9999      -9999      -9999      -9999      -9999      -9999      -9999      -9999      -9999      -9999
   856.00      -9999      -9999      -9999      -9999      -9999      -9999      -9999      -9999      -9999      -9999      -9999
   856.10      -9999      -9999      -9999      -9999      -9999      -9999      -9999      -9999      -9999      -9999      -9999
   856.20      -9999      -9999      -9999      -9999      -9999      -9999      -9999      -9999      -9999      -9999      -9999
