~Version information
  VERS.                            1.20: CWLS LAS  -  VERSION 1.20
  WRAP.                              NO: One line per depth step
~Well information
# MNEM.UNIT
# ====.================================:===================
  STRT.M                           0.70: First depth in file
  STOP.M                         858.30: Last depth in file
  STEP.M                           0.10: Depth increment
  NULL.                           -9999: Null values
  COMP.                         COMPANY: TOO "C.I.O.C."
  WELL.                            WELL: 1-KN
  FLD .                           FIELD: KARATUBE
  DATE.                        LOG DATE: 22/11/2003
  SRVC.                 SERVICE COMPANY: AFGIS OJSC"Kazpromgeophysica"
  UWI.           Unique Well Identifier: 
~Parametr information block
# MNEM.UNIT
# ====.================================:===================
~Other information
# ------------------------- REMARKS  AREA ------------------
~Curve information
# MNEM.UNIT
# ====.================================:===================
  DEPT.M                               : Depth curve
LL3 .ohmm                              : Appar.resistivity,laterolog,3electrodes
MLL .ohmm                              : Microlaterolog sonde
RHOB.g/c3                              : Bulk density by DGGL
DTP .us/m                              : Interval travel time (P)
GR  .ur/h                              : Gamma Ray
NGLD.stdu                              : Neutron-gamma log
GZ3 .ohmm                              : App.resistivity by lateral A2M05N
GZ3B.ohmm                              : App.resistivity by lateral N05M2A
SP  .mv                                : Spontaneous potential
CALI.mm                                : Caliper
ILA .mmho                              : IL sonde 7l1.6, active signal
~ASCII Log Data
# ...
   608.30     2.3281     1.8320     2.2510   393.3000     9.2212     1.0449     2.3840     2.1150  -457.0006   220.6830   276.2630
   608.40     2.3014     1.7530     2.2396   390.0000     9.3333     1.0291     2.4170     2.1040  -459.9991   219.3480   275.9030
   608.50     2.3014     1.8320     2.1996   390.0000     8.8481     1.0177     2.4380     2.1150  -464.6675   220.6830   274.7310
   608.60     2.2594     1.7140     2.2447   390.0000     8.6053     1.0608     2.4710     2.1040  -465.3333   218.6810   273.5140
   608.70     2.2182     1.6750     2.2455   390.0000     8.6240     1.0925     2.5570     2.0270  -465.3338   220.0150   272.7930
   608.80     2.1928     1.5970     2.2339   390.0000     8.7547     1.1152     2.5460     2.0270  -462.3330   220.0150   272.3880
   608.90     2.2233     1.6360     2.2606   390.0000     8.9600     1.0993     2.5250     1.9830  -463.6664   218.6810   271.6670
   609.00     2.2856     1.5970     2.3169   390.0000     9.0719     1.1039     2.5250     1.9610  -465.0008   220.0150   270.8100
   609.10     2.3121     1.6750     2.3044   390.0000     9.4454     1.0925     2.5140     1.9830  -469.3333   221.3500   267.4750
   609.20     2.3605     1.7140     2.2662   390.0000     9.2587     1.0653     2.5140     2.0050  -469.9999   220.0150   264.1410
   609.30     2.4378     1.7920     2.3410   390.0000     8.9601     1.0245     2.5140     1.9940  -471.6667   220.0150   262.7890
   609.40     2.4547     2.0670     2.3344   390.0000     8.6053     1.0155     2.5030     1.9940  -470.0001   218.6810   260.4450
   609.50     2.3335     1.8320     2.3541   390.0000     8.4747     1.0404     2.5360     1.9940  -467.6656   220.0150   260.5360
   609.60     2.1827     1.5970     2.2340   393.3000     8.8294     1.0835     2.5900     1.9830  -463.6667   218.6810   261.6620
   609.70     2.1777     1.7140     2.1660   396.7000     9.5200     1.1107     2.6220     1.9610  -461.6667   218.0140   262.7890
   609.80     2.1232     1.5970     2.2290   396.7000    10.2106     1.1333     2.6330     1.9390  -461.3333   218.6810   262.6540
   609.90     2.0797     1.6360     2.2125   396.7000    10.2666     1.1265     2.6440     1.9170  -458.3344   218.0140   263.6900
   610.00     2.0512     1.6750     2.1696   393.3000    10.0240     1.1401     2.6110     1.8630  -456.3328   216.6790   266.0780
   610.10     2.0091     1.6750     2.2433   393.3000     9.8000     1.1424     2.5570     1.8190  -452.0000   216.0120   269.0080
   610.20     2.0045     1.5180     2.2101   393.3000     9.7813     1.1583     2.4820     1.7860  -451.0007   217.3470   272.2970
   610.30     2.0230     1.6750     2.2127   393.3000     9.4267     1.1537     2.4060     1.7530  -448.6668   216.6790   273.5140
   610.40     2.0091     1.5970     2.1416   396.7000     9.1653     1.1537     2.3190     1.7420  -448.0003   219.3480   273.0640
   610.50     2.0324     1.7140     2.1523   393.3000     9.3332     1.1356     2.2870     1.7530  -444.9991   218.6810   272.5680
   610.60     1.9364     1.3620     2.1514   393.3000     9.8375     1.0971     2.2440     1.8080  -440.0000   216.6790   272.2970
   610.70     1.9055     1.4010     2.1872   393.3000     9.9307     1.0721     2.2000     1.7530  -434.3344   220.0150   272.3880
   610.80     1.8793     1.4790     2.2014   393.3000     9.8934     1.0925     2.1570     1.7530  -431.9999   220.0150   272.5230
   610.90     1.8408     1.4400     2.1642   396.7000     9.8001     1.1311     2.1030     1.7310  -430.6666   219.3480   274.0100
   611.00     1.8450     1.3620     2.1342   400.0000    10.2293     1.2036     2.0600     1.6870  -429.9994   219.3480   276.0830
   611.10     1.8535     1.3220     2.2329   403.3000    10.5841     1.2217     2.0170     1.6320  -427.3333   218.6810   277.2090
   611.20     1.8323     1.2440     2.2328   403.3000    10.6027     1.2217     1.9950     1.5990  -426.3333   220.6830   277.1190
   611.30     1.8239     1.3220     2.1648   400.0000    10.3415     1.1764     1.9080     1.4900  -427.0004   219.3480   276.6240
   611.40     1.8155     1.2830     2.1417   403.3000     9.8186     1.1651     1.8650     1.4240  -428.6664   218.6810   278.0210
   611.50     1.7906     1.5180     2.1473   406.7000     9.8746     1.1923     1.8650     1.3470  -429.6668   220.0150   279.4180
   611.60     1.7022     1.3620     2.1594   406.7000    10.2295     1.2172     1.8330     1.3030  -429.3333   222.0170   280.4990
   611.70     1.6558     0.9700     2.1519   403.3000    10.9947     1.2036     1.8220     1.2810  -428.0004   217.3470   280.7240
   611.80     1.6181     1.1660     2.1460   403.3000    11.4426     1.1673     1.8220     1.2380  -427.6668   217.3470   280.9950
   611.90     1.6634     1.0880     2.1154   403.3000    12.0774     1.1832     1.7350     1.1500  -427.9997   219.3480   283.6990
   612.00     1.7061     1.1270     2.0999   406.7000    12.5625     1.1968     1.7460     1.1280  -428.6666   219.3480   285.5010
   612.10     1.7061     1.2830     2.0752   403.3000    13.3655     1.1945     1.6490     1.0730  -428.0000   216.6790   288.3850
   612.20     1.6331     1.3620     2.0590   406.7000    13.9627     1.1515     1.6380     1.0510  -425.0008   218.6810   289.6470
   612.30     1.4859     0.9310     2.1134   406.7000    13.9068     1.1492     1.6060     1.0510  -423.3329   220.6830   288.2950
   612.40     1.4028     0.8530     2.1391   410.0000    13.3838     1.1719     1.5840     1.0400  -426.6649   216.0120   287.3490
   612.50     1.5276     0.8130     2.0980   410.0000    12.5441     1.1968     1.6380     1.0400  -429.0004   218.6810   286.4030
   612.60     1.7100     1.2440     2.1414   410.0000    11.9092     1.2399     1.5840     1.1170  -425.6667   220.0150   283.6090
   612.70     1.7620     1.3620     2.1878   410.0000    11.2933     1.2489     1.5510     1.1500  -418.6678   218.6810   278.7420
   612.80     1.7298     1.2830     2.1862   410.0000    10.3229     1.2081     1.5510     1.2050  -417.0009   221.3500   275.5870
   612.90     1.7378     1.2050     2.1347   406.7000     9.6878     1.1424     1.5840     1.2700  -419.3329   220.0150   271.8920
   613.00     1.7338     1.3220     2.1776   403.3000     9.1653     1.1039     1.6600     1.3250  -420.9999   220.0150   265.3120
   613.10     1.7906     1.2830     2.1538   403.3000     9.2774     1.0993     1.7460     1.4130  -420.6667   218.6810   258.9580
   613.20     1.7947     1.3220     2.1395   410.0000     9.5573     1.1265     1.8870     1.5230  -421.9997   222.0170   254.7220
   613.30     1.6788     1.1270     2.1675   420.0000     9.6507     1.1855     2.0380     1.5670  -422.3334   218.0140   250.3510
   613.40     1.5101     0.8130     2.0842   430.0000     9.7066     1.2603     2.1030     1.5560  -423.3333   220.0150   247.9630
   613.50     1.3900     0.8920     2.0241   436.7000     9.3147     1.2852     2.1350     1.5120  -419.6657   222.0170   245.7090
   613.60     1.3772     0.5390     2.0338   440.0000     8.7171     1.2603     2.1350     1.4790  -415.0000   223.3510   244.6280
   613.70     1.4028     0.8530     1.9938   436.7000     7.6720     1.2467     2.0810     1.3470  -410.0004   222.6840   243.5010
   613.80     1.3305     0.7350     2.0327   433.3000     6.6269     1.2467     1.9520     1.2810  -407.3330   222.6840   242.0140
   613.90     1.2853     0.5780     2.0629   433.3000     6.0666     1.2444     1.7790     1.2160  -407.0002   220.0150   244.9430
   614.00     1.2190     0.6960     2.0619   436.7000     5.7680     1.2059     1.6380     1.1720  -406.6670   221.3500   248.6840
   614.10     1.1482     0.5000     2.0637   436.7000     5.8240     1.2036     1.5410     1.1060  -406.6667   222.0170   251.4330
   614.20     1.1588     0.5390     2.0826   433.3000     5.7680     1.2104     1.4650     1.0070  -407.0000   220.0150   252.2890
   614.30     1.1324     0.6180     2.0819   433.3000     5.6001     1.2217     1.4000     1.0180  -409.3344   224.0180   247.5120
   614.40     1.0447     0.5390     2.0532   433.3000     4.9838     1.1900     1.3140     0.9200  -414.6653   221.3500   241.6080
