~Version information
  VERS.                            1.20: CWLS LAS  -  VERSION 1.20
  WRAP.                              NO: One line per depth step
~Well information
# MNEM.UNIT
# ====.================================:===================
  STRT.M                           0.70: First depth in file
  STOP.M                         858.30: Last depth in file
  STEP.M                           0.10: Depth increment
  NULL.                           -9999: Null values
  COMP.                         COMPANY: TOO "C.I.O.C."
  WELL.                            WELL: 1-KN
  FLD .                           FIELD: KARATUBE
  DATE.                        LOG DATE: 22/11/2003
  SRVC.                 SERVICE COMPANY: AFGIS OJSC"Kazpromgeophysica"
  UWI.           Unique Well Identifier: 
~Parametr information block
# MNEM.UNIT
# ====.================================:===================
~Other information
# ------------------------- REMARKS  AREA ------------------
~Curve information
# MNEM.UNIT
# ====.================================:===================
  DEPT.M                               : Depth curve
LL3 .ohmm                              : Appar.resistivity,laterolog,3electrodes
MLL .ohmm                              : Microlaterolog sonde
RHOB.g/c3                              : Bulk density by DGGL
DTP .us/m                              : Interval travel time (P)
GR  .ur/h                              : Gamma Ray
NGLD.stdu                              : Neutron-gamma log
GZ3 .ohmm                              : App.resistivity by lateral A2M05N
GZ3B.ohmm                              : App.resistivity by lateral N05M2A
SP  .mv                                : Spontaneous potential
CALI.mm                                : Caliper
ILA .mmho                              : IL sonde 7l1.6, active signal
~ASCII Log Data
# ...
   416.10     2.4044     1.0880     2.1549   483.3000    10.8640     0.9701     3.0980     3.6060  -504.0000   238.6960   239.8510
   416.20     2.3988     1.0480     2.1279   483.3000    10.4720     0.9973     3.0980     3.6830  -504.0001   228.0220   242.1040
   416.30     2.3281     1.0880     2.1730   486.7000    10.3413     1.0087     3.0980     3.8040  -503.3332   232.0250   243.7720
   416.40     2.2909     1.0480     2.2196   490.0000    10.1173     0.9928     3.1200     3.9020  -505.6667   233.3590   245.3940
   416.50     2.2961     1.0090     2.1785   490.0000    10.3227     0.9883     3.1520     3.9900  -507.3333   226.0200   245.3940
   416.60     2.3067     0.9310     2.1267   490.0000    10.3600     1.0041     3.1630     4.0450  -509.0000   217.3470   245.1230
   416.70     2.3121     1.0090     2.1225   490.0000    10.2107     1.0653     3.1200     4.0450  -508.9998   215.3450   244.9880
   416.80     2.3550     1.1270     2.1560   490.0000    10.1547     1.0948     3.1300     4.1000  -508.9998   217.3470   244.5830
   416.90     2.3714     1.0090     2.1128   490.0000    10.2106     1.0563     3.0760     4.1550  -509.3333   216.0120   243.8170
   417.00     2.4044     1.0880     2.0649   496.7000    10.5653     0.9679     3.0550     4.1440  -509.3333   216.6790   242.6900
   417.10     2.4155     1.1660     2.1503   500.0000    10.9200     0.9679     3.0220     4.1000  -509.3333   215.3450   242.2390
   417.20     2.4604     1.0090     2.1633   506.7000    10.8827     1.0427     2.9470     4.0780  -508.6666   216.6790   242.7800
   417.30     2.4946     1.0880     2.1587   503.3000    10.8453     1.1220     2.8920     4.0670  -508.3335   214.6780   244.8080
   417.40     2.6182     1.1660     2.1500   496.7000    10.3600     1.1175     2.8380     4.0120  -505.0000   215.3450   246.5660
   417.50     2.9376     1.3220     2.1841   480.0000    10.2293     1.0971     2.7740     3.9570  -504.3333   220.0150   246.6110
   417.60     3.0761     1.4010     2.1667   460.0000    10.1360     1.0835     2.7520     3.9240  -500.6667   221.3500   243.9970
   417.70     3.1189     1.4790     2.1414   446.7000    10.1547     1.0721     2.7300     3.8810  -499.6663   229.3560   240.3020
   417.80     3.1405     1.4010     2.1328   436.7000    10.0986     1.1175     2.6980     3.8260  -496.3334   224.6860   236.6060
   417.90     3.1405     1.4010     2.1510   433.3000     9.9866     1.1809     2.6550     3.7820  -495.0000   228.0220   233.5870
   418.00     3.1405     1.4400     2.1842   426.7000    10.0053     1.2399     2.7090     3.7160  -490.3333   228.0220   230.3870
   418.10     3.1189     1.4790     2.1483   420.0000    10.0053     1.1991     2.6980     3.6610  -488.6667   229.3560   227.2330
   418.20     3.0903     1.4400     2.1424   413.3000    10.2480     1.1265     2.6870     3.6170  -488.3337   226.6870   223.6280
   418.30     3.0061     1.4790     2.1704   410.0000    10.8641     1.0789     2.6870     3.5630  -490.6666   218.0140   221.3740
   418.40     2.7479     1.3220     2.2217   410.0000    11.0880     1.0631     2.7190     3.5300  -491.3333   222.0170   221.9600
   418.50     2.6002     1.1660     2.1799   420.0000    11.1253     1.0427     2.7520     3.5630  -492.3333   222.6840   225.1600
   418.60     2.5942     1.3220     2.1373   436.7000    11.1627     1.0381     2.7740     3.5950  -494.0000   226.0200   230.9730
   418.70     2.5061     1.1660     2.1431   460.0000    11.2933     1.0404     2.8490     3.6060  -498.3339   230.0230   233.7670
   418.80     2.3714     1.0480     2.1191   473.3000    11.2746     1.0177     2.9140     3.6830  -500.3331   232.6920   235.9750
   418.90     2.3227     1.0090     2.1008   480.0000    11.3866     0.9905     2.9570     3.7710  -503.3333   230.6900   239.3100
   419.00     2.3442     0.9700     2.1212   480.0000    11.9653     0.9928     3.0110     3.8920  -501.6667   230.0230   243.0510
   419.10     2.3878     1.1270     2.0957   476.7000    12.0400     1.0449     3.0870     4.0670  -502.6667   231.3570   246.2500
   419.20     2.3988     1.1660     2.0808   473.3000    11.4053     1.0812     3.1410     4.2860  -502.0002   231.3570   248.9990
   419.30     2.4155     1.0480     2.1777   470.0000    10.8080     1.1016     3.2600     4.5280  -504.6664   232.6920   249.9900
   419.40     2.4946     1.1270     2.2033   466.7000    10.6960     1.0903     3.2820     4.6810  -504.6667   230.6900   248.0530
   419.50     2.5942     1.1660     2.1660   466.7000    10.9947     1.0903     3.2710     4.7250  -504.6667   233.3590   245.6190
   419.60     2.6303     1.2440     2.1515   463.3000    11.1253     1.0563     3.2600     4.7250  -503.3333   230.6900   242.5100
   419.70     2.5942     1.1270     2.1916   466.7000    11.2747     1.0381     3.2390     4.6810  -504.0001   233.3590   238.7690
   419.80     2.5061     1.1660     2.1836   466.7000    11.0506     0.9973     3.2600     4.5390  -504.0001   233.3590   235.1640
   419.90     2.4604     1.1270     2.1795   470.0000    10.9574     1.0291     3.2820     4.1880  -504.6667   236.6950   233.8570
   420.00     2.4604     1.2440     2.1596   473.3000    10.7893     1.0699     3.3140     3.9130  -504.3333   235.3610   232.0550
   420.10     2.4378     1.0480     2.1605   476.7000    10.6027     1.0948     3.3680     3.7930  -503.3333   238.0290   230.2970
   420.20     2.4547     1.0090     2.1372   483.3000    10.6027     1.0427     3.3680     3.7710  -499.6662   234.6930   230.0270
   420.30     2.5410     1.0880     2.1468   483.3000    10.8828     0.9973     3.2930     3.7710  -499.6665   226.0200   230.9280
   420.40     2.7164     1.2440     2.1579   476.7000    11.2373     1.0381     3.1840     3.7710  -500.6667   222.6840   231.8740
   420.50     2.8119     1.3220     2.1759   463.3000    10.9200     1.0880     3.1200     3.7930  -502.3333   224.0180   231.6040
   420.60     2.7040     1.2440     2.1999   456.7000    10.4720     1.1061     3.0660     3.8260  -500.0000   223.3510   231.4690
   420.70     2.6062     1.1660     2.2140   456.7000    10.4533     1.1016     2.9790     3.8480  -499.3334   222.6840   230.3870
   420.80     2.5704     1.2830     2.1721   460.0000    10.5093     1.1197     2.9250     3.8810  -499.3332   222.6840   227.2780
   420.90     2.6607     1.2830     2.2192   453.3000    10.8080     1.1855     2.8490     3.9790  -498.0000   222.0170   223.3570
   421.00     2.9444     1.5970     2.3182   440.0000    10.9387     1.2761     2.7410     4.1110  -496.6667   239.3640   219.4820
   421.10     3.6308     2.2230     2.4648   406.7000    10.7707     1.3577     2.6870     4.5170  -498.6667   257.3770   219.3010
   421.20     5.3211     3.3980     2.5080   356.7000     9.9867     1.4484     2.6330     5.1420  -502.0003   242.0320   216.8680
   421.30     8.4918     5.5520     2.5531   300.0000     8.9039     1.4847     2.6870     6.0080  -505.9998   226.0200   213.5330
   421.40    13.0918    11.3870     2.5952   250.0000     8.1201     1.5005     2.8920     7.0170  -507.0000   230.6900   204.7910
   421.50    17.5388    13.5020     2.6293   213.3000     7.4107     1.4869     3.2600     8.1250  -508.6667   232.0250   191.9920
   421.60    14.3549    19.5720     2.6144   223.3000     6.6267     1.4235     3.6930     8.9910  -508.6667   228.6890   179.4640
   421.70     8.1470    14.4810     2.6093   266.7000     5.8800     1.3668     4.3090     9.6820  -510.6670   230.6900   167.2520
   421.80     4.2855     5.0040     2.4320   300.0000     5.9361     1.2580     5.0120    10.0770  -512.6664   238.0290   159.2750
   421.90     3.0620     1.1660     2.0711   366.7000     6.6825     1.1628     5.8020     9.8900  -513.0000   240.6980   158.8700
   422.00     2.8774     1.3620     2.1689   410.0000     8.1200     1.0857     5.9960     9.1670  -510.3333   231.3570   164.7730
   422.10     2.8576     1.3620     2.2634   473.3000     9.1467     1.0223     5.9100     8.2450  -508.6667   228.6890   171.8940
   422.20     2.8642     1.1660     2.2318   463.3000     9.5013     0.9905     5.5420     7.1930  -505.6664   228.0220   182.8890
