~Version information
  VERS.                            1.20: CWLS LAS  -  VERSION 1.20
  WRAP.                              NO: One line per depth step
~Well information
# MNEM.UNIT
# ====.================================:===================
  STRT.M                           0.70: First depth in file
  STOP.M                         858.30: Last depth in file
  STEP.M                           0.10: Depth increment
  NULL.                           -9999: Null values
  COMP.                         COMPANY: TOO "C.I.O.C."
  WELL.                            WELL: 1-KN
  FLD .                           FIELD: KARATUBE
  DATE.                        LOG DATE: 22/11/2003
  SRVC.                 SERVICE COMPANY: AFGIS OJSC"Kazpromgeophysica"
  UWI.           Unique Well Identifier: 
~Parametr information block
# MNEM.UNIT
# ====.================================:===================
~Other information
# ------------------------- REMARKS  AREA ------------------
~Curve information
# MNEM.UNIT
# ====.================================:===================
  DEPT.M                               : Depth curve
LL3 .ohmm                              : Appar.resistivity,laterolog,3electrodes
MLL .ohmm                              : Microlaterolog sonde
RHOB.g/c3                              : Bulk density by DGGL
DTP .us/m                              : Interval travel time (P)
GR  .ur/h                              : Gamma Ray
NGLD.stdu                              : Neutron-gamma log
GZ3 .ohmm                              : App.resistivity by lateral A2M05N
GZ3B.ohmm                              : App.resistivity by lateral N05M2A
SP  .mv                                : Spontaneous potential
CALI.mm                                : Caliper
ILA .mmho                              : IL sonde 7l1.6, active signal
~ASCII Log Data
# ...
   323.10     3.0974     1.3220     2.0779   426.7000     6.6453     1.0631     5.1740     6.2490  -447.3333   222.0170   193.0740
   323.20     3.0903     1.3620     2.0714   453.3000     6.5893     1.1243     5.2720     6.2270  -449.6669   220.0150   190.5950
   323.30     3.1842     1.4400     2.0497   460.0000     7.0187     1.1719     5.3150     6.1400  -451.3333   220.6830   187.7110
   323.40     3.1623     1.2440     2.0453   460.0000     7.2800     1.2172     5.1640     5.8440  -451.0000   220.0150   189.1980
   323.50     3.2734     1.3620     2.0736   460.0000     7.3920     1.2127     4.7630     5.5040  -452.0000   220.6830   191.7670
   323.60     3.3113     1.4010     2.0895   460.0000     7.6347     1.1741     4.1900     5.3610  -453.0000   218.0140   193.0740
   323.70     3.3037     1.4010     2.0875   456.7000     7.7467     1.1288     4.0170     5.4050  -454.3333   220.6830   192.8940
   323.80     3.2063     1.4010     2.0470   450.0000     7.7466     1.1016     3.9740     5.4930  -454.0001   218.6810   192.4430
   323.90     3.1915     1.3620     1.9937   450.0000     7.6720     1.1197     3.9310     5.3500  -453.3333   217.3470   190.2800
   324.00     3.2434     1.3220     1.9762   453.3000     7.6160     1.1333     3.8870     5.0540  -453.3333   219.3480   188.7480
   324.10     3.1550     1.4790     2.0725   460.0000     7.6907     1.1265     3.9090     4.7250  -453.3333   222.0170   188.6580
   324.20     3.1477     1.5180     2.0581   460.0000     7.5413     1.1696     3.8870     4.4070  -452.3331   221.3500   187.9820
   324.30     3.1696     1.4010     2.0084   456.7000     7.6907     1.2013     3.8870     4.1770  -451.3334   218.6810   187.3960
   324.40     3.2285     1.4010     2.0412   453.3000     7.9519     1.2240     3.8770     4.1110  -450.3333   218.6810   187.5310
   324.50     3.3266     1.3220     2.0948   453.3000     8.3440     1.2059     3.8660     4.0230  -450.0000   221.3500   188.0720
   324.60     3.3574     1.5570     2.1238   453.3000     8.5493     1.1787     3.8660     4.0120  -448.6667   222.0170   189.3790
   324.70     3.3343     1.4400     2.0752   453.3000     8.5867     1.1401     3.8870     4.0780  -447.9999   221.3500   191.4520
   324.80     3.2063     1.3220     2.0458   450.0000     8.5680     1.0835     3.8870     4.1220  -447.9999   222.6840   192.5780
   324.90     3.1769     1.3220     2.0067   453.3000     8.7920     1.0699     3.8870     4.0560  -446.6667   226.6870   192.2180
   325.00     3.1769     1.4400     2.0511   456.7000     8.9413     1.0925     3.8770     3.9900  -446.0000   224.6860   191.5870
   325.10     3.1405     1.3620     2.0491   460.0000     9.0533     1.0903     3.8770     3.9240  -446.3333   224.0180   191.5870
   325.20     3.1769     1.3620     2.0453   466.7000     9.0160     1.0517     3.8870     3.8590  -447.6667   236.0280   191.9920
   325.30     3.0974     1.3220     2.0394   473.3000     8.8293     1.0449     3.9200     3.8260  -447.3336   241.3650   192.5780
   325.40     3.0061     1.1660     2.0372   476.7000     8.8107     1.0812     4.0170     3.8700  -445.3333   240.0310   192.7580
   325.50     3.0269     1.1660     2.0867   470.0000     8.7360     1.1311     4.1470     4.0120  -443.3333   220.6830   192.4430
   325.60     3.2734     1.4010     2.2157   443.3000     9.0160     1.1197     4.1900     4.3190  -443.3333   218.6810   193.2090
   325.70     4.1400     1.6750     2.3416   413.3000     8.9413     1.1175     4.2550     4.7690  -444.3336   229.3560   194.3360
   325.80     6.1660     9.5070     2.3897   403.3000     9.0720     1.0948     4.4280     5.5470  -446.3332   224.6860   194.3810
   325.90     6.1944    16.9480     2.4387   426.7000     9.9492     1.0540     4.8930     6.7760  -448.6667   223.3510   190.8660
   326.00     4.1783     3.0850     2.3401   403.3000    12.0587     1.0245     5.9210     8.0700  -450.6667   223.3510   185.1880
   326.10     3.1405     1.5970     2.2135   386.7000    13.4960     1.0472     7.0780     9.0130  -452.6667   227.3540   180.9970
   326.20     3.0269     1.2050     2.1013   380.0000    13.5707     1.1379     7.7480     8.8380  -453.6668   226.0200   178.0220
   326.30     3.1117     1.5570     2.2035   416.7000    12.3199     1.2036     8.0400     8.1140  -455.3331   228.6890   176.4000
   326.40     3.1623     1.3620     2.2562   433.3000    11.0881     1.2308     7.8240     7.1050  -456.3333   228.0220   178.0670
   326.50     3.1333     1.4400     2.2510   423.3000    10.0240     1.2127     6.9700     6.1840  -455.6667   227.3540   185.8190
   326.60     3.5400     1.3220     2.2787   410.0000     9.2027     1.1537     5.4660     5.2400  -455.6667   243.3670   193.7950
   326.70     4.4978     1.9880     2.3936   386.7000     8.4747     1.1492     4.6010     4.5710  -458.0005   238.6960   198.4820
   326.80     4.8529     2.5760     2.5015   353.3000     8.0826     1.1628     4.1690     4.5710  -459.9999   228.6890   198.8420
   326.90     4.3451     1.8710     2.3932   340.0000     7.7467     1.1515     4.0390     4.7140  -460.0000   236.0280   196.6340
   327.00     3.7757     1.5570     2.3045   353.3000     7.6533     1.0585     4.0170     4.7690  -457.3333   236.0280   193.1640
   327.10     3.0974     1.7530     2.2539   396.7000     7.7467     0.9973     4.0390     4.7580  -456.3333   226.6870   188.3420
   327.20     2.6303     1.1270     2.1520   443.3000     8.1573     0.9815     4.2010     4.7250  -455.6667   224.6860   184.6020
   327.30     2.5061     1.0880     2.1606   486.7000     8.9228     1.0291     4.2340     4.5600  -454.3336   224.6860   185.7730
   327.40     2.5235     0.9310     2.1398   503.3000     9.4080     1.0744     4.1250     4.2530  -452.6667   234.6930   190.3250
   327.50     2.7227     1.0090     2.0630   503.3000     9.5947     1.1016     3.8770     4.0670  -452.0000   224.6860   196.5890
   327.60     2.9376     1.2050     2.1084   476.7000     9.4080     1.0925     3.5850     4.0120  -452.3333   228.6890   202.6730
   327.70     3.0832     1.2050     2.2015   443.3000     9.2027     1.0427     3.2490     4.0230  -452.9999   231.3570   209.3870
   327.80     3.3266     1.2050     2.2405   396.7000     9.1093     1.0336     3.0550     4.1220  -451.6668   228.6890   213.3080
   327.90     3.6813     1.4010     2.2233   353.3000     9.2400     1.0495     2.9790     4.4950  -451.0000   236.0280   212.7220
   328.00     4.1879     2.4580     2.3713   306.7000     9.0907     1.0721     3.0220     4.8460  -450.0000   230.6900   207.6300
   328.10     4.3853     2.3410     2.3801   300.0000     8.5307     1.0971     3.2060     5.2400  -449.3333   226.0200   199.8790
   328.20     4.1400     1.6360     2.3061   303.3000     7.7653     1.0993     3.5410     5.6240  -451.3336   230.6900   192.6680
   328.30     3.8282     1.5970     2.2147   320.0000     7.7654     1.0676     4.1360     5.9200  -458.6654   223.3510   185.6830
   328.40     3.4914     1.5180     2.1160   326.7000     8.3999     1.0132     4.7960     6.0520  -468.0000   219.3480   180.8160
   328.50     3.2659     1.3620     2.1050   333.3000     9.3707     1.0019     5.4990     6.0300  -474.6667   218.0140   178.6530
   328.60     3.1477     1.2830     2.1424   356.7000     9.7440     1.0381     5.8670     5.8330  -475.0000   218.0140   179.0590
   328.70     3.0200     1.2830     2.1965   370.0000     9.6693     1.0789     5.9960     5.6350  -473.9998   218.6810   181.9430
   328.80     2.8249     1.1660     2.2280   420.0000     9.3147     1.0993     5.8340     5.4490  -473.3333   218.6810   187.2610
   328.90     2.6915     1.1270     2.1301   463.3000     9.5759     1.0721     5.4660     5.2840  -474.0000   218.6810   192.5330
   329.00     2.6303     1.1660     2.0936   510.0000     9.7253     1.0721     5.2830     5.1090  -475.3333   218.0140   198.9320
   329.10     2.6485     1.0480     2.1392   513.3000     9.8560     1.0744     5.0660     4.9770  -477.0000   218.6810   205.9170
   329.20     2.6792     1.1660     2.1946   516.7000     9.7813     1.0608     4.8720     4.8570  -478.0001   221.3500   213.4430
