~Version information
  VERS.                            1.20: CWLS LAS  -  VERSION 1.20
  WRAP.                              NO: One line per depth step
~Well information
# MNEM.UNIT
# ====.================================:===================
  STRT.M                           0.70: First depth in file
  STOP.M                         858.30: Last depth in file
  STEP.M                           0.10: Depth increment
  NULL.                           -9999: Null values
  COMP.                         COMPANY: TOO "C.I.O.C."
  WELL.                            WELL: 1-KN
  FLD .                           FIELD: KARATUBE
  DATE.                        LOG DATE: 22/11/2003
  SRVC.                 SERVICE COMPANY: AFGIS OJSC"Kazpromgeophysica"
  UWI.           Unique Well Identifier: 
~Parametr information block
# MNEM.UNIT
# ====.================================:===================
~Other information
# ------------------------- REMARKS  AREA ------------------
~Curve information
# MNEM.UNIT
# ====.================================:===================
  DEPT.M                               : Depth curve
LL3 .ohmm                              : Appar.resistivity,laterolog,3electrodes
MLL .ohmm                              : Microlaterolog sonde
RHOB.g/c3                              : Bulk density by DGGL
DTP .us/m                              : Interval travel time (P)
GR  .ur/h                              : Gamma Ray
NGLD.stdu                              : Neutron-gamma log
GZ3 .ohmm                              : App.resistivity by lateral A2M05N
GZ3B.ohmm                              : App.resistivity by lateral N05M2A
SP  .mv                                : Spontaneous potential
CALI.mm                                : Caliper
ILA .mmho                              : IL sonde 7l1.6, active signal
~ASCII Log Data
# ...
   465.70     7.3282     3.0850     2.0488   440.0000     8.0640     1.0789     6.2020    12.9720  -498.9998   218.6810    96.1850
   465.80     7.3451     2.8890     2.1305   440.0000     8.1573     1.1016     6.3320    11.4590  -498.6666   218.0140    95.2390
   465.90     7.5336     3.0460     2.0538   436.7000     8.1013     1.0971     6.4180    10.3070  -499.6667   220.6830    94.3370
   466.00     7.7625     3.0460     2.0647   430.0000     8.1387     1.0789     6.5050     9.4520  -497.6667   220.0150    94.0670
   466.10     8.1846     3.1630     2.1104   416.7000     7.7653     1.0925     6.6340     8.7720  -495.3333   222.0170    93.9320
   466.20     8.7297     3.5940     2.0233   406.7000     7.8213     1.1288     6.7640     8.2670  -493.6669   219.3480    93.2560
   466.30     9.2897     3.6330     2.0187   400.0000     8.1387     1.1696     6.9370     7.8830  -494.9998   220.0150    94.3830
   466.40     9.5280     3.4370     1.9989   400.0000     8.1760     1.1923     7.1430     7.6310  -495.6667   219.3480    96.1400
   466.50     9.6605     3.7900     1.9795   400.0000     7.8027     1.1651     7.3700     7.5760  -496.0000   219.3480    99.0690
   466.60     9.3756     3.9460     2.0284   403.3000     7.4853     1.1492     7.7050     7.5320  -495.6667   219.3480   102.4490
   466.70     9.3972     3.4760     2.1172   413.3000     7.3547     1.1379     8.1380     7.5220  -495.6666   220.6830   107.3610
   466.80     9.7499     3.4760     2.1073   423.3000     7.2613     1.1401     8.7970     7.5220  -495.0000   221.3500   112.5890
   466.90    10.2094     4.0640     2.1313   430.0000     7.0374     1.1356     9.7810     7.5540  -495.6667   221.3500   117.2300
   467.00    10.0462     4.3770     2.0814   436.7000     6.9440     1.1333    10.9930     7.5980  -498.0000   221.3500   121.2860
   467.10     9.3756     3.6330     2.0525   443.3000     7.2053     1.1424    12.0960     7.7190  -500.0000   222.6840   125.3870
   467.20     9.3111     3.3590     2.0670   440.0000     7.4853     1.1333    13.2200     7.6420  -500.9999   224.0180   129.5780
   467.30     9.0573     3.5940     2.0763   433.3000     7.6533     1.1129    14.2370     7.5320  -500.3334   224.0180   133.3180
   467.40     8.6099     3.3590     2.0910   423.3000     7.6160     1.1197    15.1450     7.4230  -500.6667   218.0140   137.7350
   467.50     7.2611     3.5940     2.0569   416.7000     7.5973     1.0925    15.9670     7.2800  -501.6667   219.3480   143.5030
   467.60     5.4325     3.8290     2.2626   403.3000     7.4667     1.0880    17.0060     7.1270  -503.0000   217.3470   149.7670
   467.70     3.9355     2.0270     2.2813   390.0000     7.3360     1.0676    17.8600     6.8740  -502.9999   218.0140   155.6250
   467.80     3.4041     1.6750     2.2135   376.7000     7.7094     1.0653    18.7250     6.6110  -501.6669   220.0150   163.4210
   467.90     3.1550     1.5180     2.1606   373.3000     8.4186     1.0540    19.2980     6.1730  -501.3333   222.6840   175.2280
   468.00     2.8445     1.5570     2.0800   380.0000     9.2400     1.0291    19.1140     5.6570  -503.6667   220.6830   188.2520
   468.10     2.5351     1.1270     2.0819   406.7000     9.5573     1.0132    18.2710     5.1640  -507.6667   221.3500   203.5290
   468.20     2.3714     1.0480     2.2097   436.7000     9.6693     0.9996    16.5300     4.5710  -510.6668   219.3480   218.2650
   468.30     2.3121     0.8920     2.2195   466.7000     9.8374     0.9724    13.5120     3.8370  -512.3332   219.3480   231.3790
   468.40     2.3227     0.9310     2.1491   486.7000    10.2106     0.9996    11.1010     3.3210  -515.3333   221.3500   238.5890
   468.50     2.3823     0.9310     2.1960   500.0000    10.6400     1.0177     9.3920     3.1130  -518.3333   220.6830   242.7800
   468.60     2.3768     0.8130     2.1857   506.7000    10.6773     1.0381     8.0190     2.9700  -521.0000   220.0150   244.9430
   468.70     2.3121     0.9310     2.1977   510.0000    10.3787     1.0472     6.7970     2.8940  -521.6667   220.0150   244.4930
   468.80     2.2909     0.9700     2.1527   506.7000    10.2480     1.0495     6.0180     2.9370  -522.0000   216.6790   243.2760
   468.90     2.4434     0.8530     2.1208   500.0000    10.1173     1.0563     5.5530     3.0800  -520.3333   217.3470   242.9150
   469.00     2.8642     1.1660     2.1104   486.7000    10.3973     1.0427     5.3800     3.2660  -518.6667   216.0120   240.0310
   469.10     3.5810     1.5180     2.1388   470.0000    10.3787     1.0880     5.2610     3.5410  -517.6667   218.0140   232.2350
   469.20     4.0272     1.9490     2.1602   453.3000    10.2480     1.0903     5.2610     3.8590  -515.6664   215.3450   226.9170
   469.30     4.1591     2.0670     2.1640   443.3000     9.6506     1.0789     5.3150     4.1550  -513.6671   216.0120   221.5100
   469.40     4.2267     1.9880     2.1879   440.0000     9.0721     1.0971     5.3800     4.4070  -510.6667   219.3480   216.2820
   469.50     4.2658     2.4190     2.1365   440.0000     9.0160     1.1197     5.5750     4.6590  -508.6667   219.3480   208.5760
   469.60     3.9811     2.4970     2.1745   440.0000     9.1093     1.1265     5.8990     4.9330  -506.0000   218.6810   200.3740
   469.70     3.5563     2.0270     2.2095   440.0000     9.5200     1.0404     6.0940     4.8790  -503.6666   217.3470   194.5160
   469.80     3.5075     1.6750     2.1402   440.0000     9.8747     1.0132     6.2670     4.7250  -503.0000   219.3480   193.2990
   469.90     3.8282     1.6750     2.1660   440.0000     9.8000     1.0585     6.3320     4.5600  -502.6667   218.6810   194.6960
   470.00     4.1976     2.2620     2.1102   440.0000     9.7067     1.1175     6.2670     4.4730  -501.6667   218.0140   196.8590
   470.10     4.2658     2.3800     2.0990   436.7000     9.4080     1.1356     6.2450     4.4180  -500.6667   219.3480   197.7610
   470.20     4.1400     2.1450     2.1181   433.3000     9.4827     1.1061     6.2230     4.4070  -501.0002   215.3450   196.1830
   470.30     4.0087     2.0670     2.1013   433.3000     9.2213     1.0835     6.2130     4.3960  -500.0002   216.0120   194.8310
   470.40     3.9811     2.1450     2.0543   436.7000     8.9227     1.0812     6.1150     4.3850  -499.0000   218.6810   193.4340
   470.50     3.9264     1.9880     2.0934   440.0000     9.0533     1.0608     6.0610     4.3850  -497.6667   223.3510   192.6680
   470.60     3.8282     2.0270     2.1504   436.7000     9.5013     1.0563     5.9530     4.3190  -498.6667   224.6860   194.7860
   470.70     3.6392     1.9880     2.1163   433.3000    10.0427     1.0449     5.7480     4.1660  -498.6666   221.3500   197.1750
   470.80     3.4754     1.7140     2.1220   426.7000    10.4347     1.0699     5.4340     4.0890  -497.6669   219.3480   200.4190
   470.90     3.3574     1.7530     2.1668   420.0000    10.3787     1.0608     5.0880     3.9460  -497.6667   224.0180   204.2950
   471.00     3.1333     1.5570     2.1794   410.0000    10.2853     1.0608     4.8280     3.8370  -498.0000   219.3480   208.1710
   471.10     3.0690     1.5570     2.2049   406.7000    10.0240     0.9792     4.5260     3.7930  -498.0000   220.0150   211.9560
   471.20     2.9376     1.4790     2.2417   413.3000    10.2853     0.9157     4.3090     3.7820  -499.3336   219.3480   213.7590
   471.30     2.7861     1.4790     2.0681   436.7000    10.1733     0.8432     4.1470     3.8260  -505.9989   219.3480   214.6150
   471.40     2.7669     1.1270     1.8074   463.3000     9.9681     0.8137     3.9850     3.8920  -515.0000   222.6840   216.3720
   471.50     3.1405     1.6360     1.6038   486.7000     9.2027     0.8319     3.8660     3.9790  -523.3333   225.3530   218.4450
   471.60     3.6983     2.6540     1.3957   490.0000     8.5493     0.8364     3.8870     4.2860  -528.0000   223.3510   219.8420
   471.70     3.5237     2.2230     1.3136   483.3000     7.3733     0.8523     4.0820     4.7250  -522.3322   227.3540   217.5440
   471.80     3.1696     1.3220     1.4252   476.7000     6.1225     0.8364     4.3740     5.0320  -515.3345   226.6870   215.4260
