~Version information
  VERS.                            1.20: CWLS LAS  -  VERSION 1.20
  WRAP.                              NO: One line per depth step
~Well information
# MNEM.UNIT
# ====.================================:===================
  STRT.M                           0.70: First depth in file
  STOP.M                         858.30: Last depth in file
  STEP.M                           0.10: Depth increment
  NULL.                           -9999: Null values
  COMP.                         COMPANY: TOO "C.I.O.C."
  WELL.                            WELL: 1-KN
  FLD .                           FIELD: KARATUBE
  DATE.                        LOG DATE: 22/11/2003
  SRVC.                 SERVICE COMPANY: AFGIS OJSC"Kazpromgeophysica"
  UWI.           Unique Well Identifier: 
~Parametr information block
# MNEM.UNIT
# ====.================================:===================
~Other information
# ------------------------- REMARKS  AREA ------------------
~Curve information
# MNEM.UNIT
# ====.================================:===================
  DEPT.M                               : Depth curve
LL3 .ohmm                              : Appar.resistivity,laterolog,3electrodes
MLL .ohmm                              : Microlaterolog sonde
RHOB.g/c3                              : Bulk density by DGGL
DTP .us/m                              : Interval travel time (P)
GR  .ur/h                              : Gamma Ray
NGLD.stdu                              : Neutron-gamma log
GZ3 .ohmm                              : App.resistivity by lateral A2M05N
GZ3B.ohmm                              : App.resistivity by lateral N05M2A
SP  .mv                                : Spontaneous potential
CALI.mm                                : Caliper
ILA .mmho                              : IL sonde 7l1.6, active signal
~ASCII Log Data
# ...
   707.50     3.6898     2.4970     2.4478   270.0000     5.8428     1.3260     3.0550     3.2550  -496.3335   239.3640   220.9240
   707.60     3.1046     2.2620     2.4507   273.3000     5.7494     1.3283     3.2280     3.3320  -496.3333   225.3530   217.9040
   707.70     2.3067     0.8920     2.3254   290.0000     5.8987     1.2534     3.5090     3.4200  -493.6678   226.0200   214.1640
   707.80     2.0230     0.7740     2.2502   323.3000     6.3466     1.1877     3.7470     3.3870  -489.3322   229.3560   215.6060
   707.90     2.0749     0.9310     2.2598   343.3000     6.5520     1.1605     3.8120     3.2010  -483.0010   230.0230   220.1130
   708.00     2.1380     0.9700     2.2930   356.7000     6.7760     1.2308     3.6930     3.0030  -476.9984   237.3620   224.7090
   708.10     2.0941     1.0090     2.2711   360.0000     6.9814     1.3124     3.5200     2.8280  -471.3333   230.6900   234.8040
   708.20     2.0749     0.8920     2.2930   370.0000     7.0933     1.3283     3.3140     2.6740  -470.6660   226.6870   246.4300
   708.30     2.0941     1.0090     2.3120   373.3000     7.2986     1.3033     2.9900     2.6630  -473.0008   231.3570   255.4880
   708.40     2.3933     1.7530     2.3879   363.3000     7.2987     1.2965     3.0550     2.7840  -473.3340   222.6840   257.5160
   708.50     2.6792     1.7140     2.3728   330.0000     7.1121     1.3124     3.1740     3.0030  -470.9992   234.0260   254.4970
   708.60     2.4889     1.0880     2.3326   306.7000     6.8133     1.2784     3.3580     3.2440  -469.0000   228.6890   250.5310
   708.70     2.1928     1.2050     2.3490   310.0000     6.6640     1.1922     3.4870     3.3980  -471.6657   233.3590   247.7820
   708.80     1.9409     0.8130     2.2181   330.0000     7.0372     1.1424     3.5850     3.5410  -474.6674   243.3670   243.9520
   708.90     1.8880     0.7350     2.1762   363.3000     7.4854     1.1537     3.7040     3.4750  -477.9997   231.3570   241.3380
   709.00     1.9634     0.8130     2.2895   376.7000     7.8400     1.1809     3.7250     3.3650  -475.3325   224.6860   240.0310
   709.10     2.0324     0.8530     2.3433   380.0000     7.6346     1.2104     3.5520     3.2340  -473.3333   224.0180   241.6080
   709.20     2.2029     1.2440     2.4201   363.3000     7.1680     1.2059     3.4660     3.1460  -469.0002   225.3530   245.6190
   709.30     2.1979     1.0090     2.2964   346.7000     6.7014     1.2013     3.3580     3.1240  -472.0007   221.3500   249.4050
   709.40     2.0370     1.0880     2.2104   350.0000     6.5520     1.1651     3.2600     3.0470  -475.6651   220.6830   251.8830
   709.50     1.8113     0.8130     2.1461   373.3000     6.8879     1.1560     3.1840     2.9920  -483.6680   220.6830   250.1710
   709.60     1.6904     0.6960     2.1367   400.0000     7.1868     1.1877     3.1840     2.9700  -485.3333   220.6830   249.7200
   709.70     1.8113     0.8920     2.2196   416.7000     7.2987     1.2104     3.0760     2.9050  -485.0010   220.6830   251.3870
   709.80     2.1135     1.4790     2.2337   413.3000     6.9068     1.2421     2.9790     2.8280  -478.9990   221.3500   253.5960
   709.90     2.4434     1.4010     2.2968   393.3000     6.4773     1.2512     2.8820     2.7730  -476.6672   222.6840   256.5250
   710.00     2.6669     1.8710     2.2658   373.3000     6.1601     1.2920     2.8170     2.7730  -477.6678   223.3510   260.5360
   710.10     2.8054     2.0270     2.2764   353.3000     6.3468     1.3237     2.7410     2.7840  -481.6667   224.0180   262.6540
   710.20     2.7861     1.7920     2.3217   343.3000     6.4027     1.3328     2.6220     2.8610  -485.9995   230.6900   259.6790
   710.30     2.8119     1.5970     2.3700   333.3000     6.5334     1.3577     2.6220     2.8610  -489.0008   224.0180   253.5050
   710.40     2.9174     1.7530     2.2961   326.7000     5.9359     1.3827     2.6440     2.8830  -491.3330   221.3500   247.0160
   710.50     3.0690     2.1840     2.3207   320.0000     5.5814     1.4167     2.5680     2.8940  -491.3329   222.0170   239.5810
   710.60     3.1550     2.1450     2.4565   310.0000     5.3200     1.3963     2.6010     2.8940  -490.6667   220.6830   233.7670
   710.70     3.1477     2.0670     2.5405   300.0000     5.3573     1.3396     2.6440     2.8940  -490.3331   219.3480   231.1990
   710.80     3.1189     2.0670     2.4765   286.7000     5.5253     1.3079     2.6870     2.9050  -489.9997   220.0150   230.2520
   710.90     3.0269     2.1840     2.4170   286.7000     5.6374     1.2943     2.7950     2.9480  -490.0000   220.6830   230.8830
   711.00     2.5823     2.0670     2.4200   290.0000     5.7867     1.3056     2.9680     2.9480  -490.6672   226.6870   232.5500
   711.10     2.2594     1.3620     2.2721   303.3000     5.6933     1.2807     3.1200     2.9050  -492.6667   238.6960   234.9390
   711.20     2.3227     2.0270     2.2593   320.0000     5.4880     1.2467     3.2600     2.8610  -493.3333   238.0290   238.5440
   711.30     2.2909     1.4400     2.3531   333.3000     5.6932     1.2603     3.3360     2.8280  -492.6664   215.3450   241.8340
   711.40     2.2029     1.4790     2.3418   346.7000     6.2162     1.2965     3.3680     2.7730  -492.3333   220.6830   247.8720
   711.50     2.2751     1.7140     2.3682   350.0000     6.9439     1.3192     3.2600     2.7620  -491.3332   221.3500   254.4970
   711.60     2.3281     1.5570     2.2466   350.0000     7.2800     1.2829     3.1200     2.6300  -491.6667   220.0150   260.0400
   711.70     2.2646     1.7920     2.2980   340.0000     7.1867     1.2263     3.0010     2.6410  -491.6664   218.6810   264.0960
   711.80     2.1184     1.5180     2.3786   336.7000     6.9068     1.2149     2.9470     2.6080  -491.6665   219.3480   265.5830
   711.90     1.8493     1.1270     2.3644   346.7000     6.8134     1.2172     2.8060     2.5860  -491.3335   220.0150   264.1860
   712.00     1.7022     0.8530     2.2791   360.0000     6.9626     1.2580     2.7630     2.5860  -490.6668   222.0170   263.0590
   712.10     1.9275     1.2050     2.3149   366.7000     7.0746     1.2829     2.6760     2.5430  -491.0000   221.3500   264.4560
   712.20     2.5823     2.1840     2.3638   360.0000     6.8133     1.3033     2.5680     2.5430  -491.0000   219.3480   263.7800
   712.30     2.9040     2.0270     2.2771   353.3000     6.2161     1.2807     2.5140     2.7400  -487.6656   221.3500   263.0140
   712.40     2.7227     2.1840     2.1860   346.7000     5.6932     1.2489     2.5460     2.8280  -484.3344   218.0140   267.0700
   712.50     2.5177     1.9490     2.2458   346.7000     5.2640     1.2739     2.6220     2.9050  -477.3322   219.3480   270.1340
   712.60     2.4322     2.0670     2.2350   350.0000     5.3014     1.3305     2.7090     2.9370  -471.3333   220.6830   269.3680
   712.70     2.3496     1.9490     2.2185   346.7000     5.2080     1.3668     2.7840     2.9050  -463.6679   221.3500   268.1970
   712.80     2.3335     1.7140     2.1955   343.3000     5.3387     1.3169     2.7410     2.8170  -457.6656   218.6810   268.7370
   712.90     2.3067     1.9880     2.2443   343.3000     5.6188     1.2557     2.6760     2.6190  -454.3338   219.3480   270.9910
   713.00     2.2803     1.8320     2.2699   350.0000     5.8240     1.2444     2.5900     2.4440  -452.3333   216.6790   274.9560
   713.10     2.2542     1.6360     2.2633   356.7000     5.8426     1.2897     2.4920     2.3230  -450.6667   218.6810   280.0940
   713.20     2.2909     1.8320     2.2740   360.0000     5.4693     1.3033     2.3950     2.2570  -446.0013   221.3500   284.1040
   713.30     2.3659     2.0270     2.3175   356.7000     5.5253     1.3056     2.2980     2.2030  -440.9990   222.6840   286.3120
   713.40     2.4491     2.1060     2.3420   350.0000     5.4880     1.2943     2.2760     2.1480  -435.6675   221.3500   285.7270
   713.50     2.4889     2.1060     2.3837   343.3000     5.3574     1.3124     2.2220     2.1480  -433.6663   218.6810   284.1040
   713.60     2.5351     1.9490     2.3278   336.7000     5.0213     1.3305     2.1570     2.1040  -433.3333   218.0140   283.1130
