~Version information
  VERS.                            1.20: CWLS LAS  -  VERSION 1.20
  WRAP.                              NO: One line per depth step
~Well information
# MNEM.UNIT
# ====.================================:===================
  STRT.M                           0.70: First depth in file
  STOP.M                         858.30: Last depth in file
  STEP.M                           0.10: Depth increment
  NULL.                           -9999: Null values
  COMP.                         COMPANY: TOO "C.I.O.C."
  WELL.                            WELL: 1-KN
  FLD .                           FIELD: KARATUBE
  DATE.                        LOG DATE: 22/11/2003
  SRVC.                 SERVICE COMPANY: AFGIS OJSC"Kazpromgeophysica"
  UWI.           Unique Well Identifier: 
~Parametr information block
# MNEM.UNIT
# ====.================================:===================
~Other information
# ------------------------- REMARKS  AREA ------------------
~Curve information
# MNEM.UNIT
# ====.================================:===================
  DEPT.M                               : Depth curve
LL3 .ohmm                              : Appar.resistivity,laterolog,3electrodes
MLL .ohmm                              : Microlaterolog sonde
RHOB.g/c3                              : Bulk density by DGGL
DTP .us/m                              : Interval travel time (P)
GR  .ur/h                              : Gamma Ray
NGLD.stdu                              : Neutron-gamma log
GZ3 .ohmm                              : App.resistivity by lateral A2M05N
GZ3B.ohmm                              : App.resistivity by lateral N05M2A
SP  .mv                                : Spontaneous potential
CALI.mm                                : Caliper
ILA .mmho                              : IL sonde 7l1.6, active signal
~ASCII Log Data
# ...
   180.50     5.6624     1.9490     2.0078   503.3000     7.9893     0.9384     9.1650    10.3730  -482.0001   218.6810   121.3310
   180.60     5.5590     1.9490     2.0638   506.7000     8.0080     0.9384     9.0140    10.1320  -483.0001   218.6810   124.3500
   180.70     5.5590     1.8320     2.1045   510.0000     8.3067     0.9475     8.8730     9.9010  -482.6667   219.3480   125.2520
   180.80     5.4702     1.8710     2.0812   506.7000     8.4187     0.9565     8.9050     9.6490  -483.3334   216.6790   125.3870
   180.90     5.4702     1.5970     2.0551   503.3000     8.3440     0.9905     8.9270     9.3860  -485.3332   219.3480   125.8830
   181.00     5.5976     1.8320     2.0911   503.3000     8.3253     1.0109     8.9160     9.1450  -485.3333   219.3480   126.9640
   181.10     5.7280     2.0270     2.0621   506.7000     8.3627     0.9905     8.9160     8.9580  -485.0001   219.3480   127.6850
   181.20     5.7412     1.7530     2.0569   510.0000     8.6426     0.9792     8.9490     8.8920  -484.0000   218.0140   128.0010
   181.30     5.6105     1.7140     2.0853   510.0000     9.2400     0.9837     9.0030     8.7940  -485.0001   218.0140   126.9190
   181.40     5.5719     1.7920     2.0411   510.0000     9.4453     0.9860     9.0140     8.7060  -487.6665   217.3470   124.7110
   181.50     5.5208     1.6360     2.0352   506.7000     9.1654     0.9905     9.1540     8.6290  -490.0002   218.0140   124.8010
   181.60     5.5976     1.7920     2.0402   506.7000     8.7920     1.0268     9.2520     8.5190  -491.0001   218.6810   124.9360
   181.70     5.6624     1.7140     2.0539   503.3000     8.4747     1.0812     9.2950     8.3660  -489.3333   217.3470   127.0990
   181.80     5.7412     1.9490     2.1106   500.0000     8.7733     1.0835     9.2840     8.2230  -488.3333   216.0120   129.5330
   181.90     5.6624     1.7920     2.0832   493.3000     8.8667     1.0359     9.2840     8.2340  -487.6667   218.6810   130.3440
   182.00     5.5847     1.6360     2.0441   490.0000     8.7174     0.9973     9.4140     8.3440  -486.9999   217.3470   131.1100
   182.10     5.5463     1.7920     2.0883   493.3000     8.1200     0.9588     9.5980     8.3110  -486.6666   218.6810   131.8310
   182.20     5.4325     1.9490     2.0140   496.7000     7.7280     0.9520     9.6950     8.2450  -488.0000   220.6830   132.5070
   182.30     5.3456     1.6360     1.9844   500.0000     7.8213     0.9429     9.7490     8.1360  -489.6667   220.6830   133.4990
   182.40     5.2360     1.5970     1.9630   503.3000     7.8587     0.9520     9.7600     7.9600  -489.6667   218.0140   133.3180
   182.50     5.1523     1.5180     1.9373   506.7000     7.6347     0.9452     9.7380     7.7740  -487.6665   220.0150   133.9940
   182.60     5.0699     1.5970     2.0303   513.3000     7.4107     0.9361     9.6620     7.5870  -485.6668   219.3480   137.2840
   182.70     4.9659     1.7530     2.1721   513.3000     7.5786     0.9679     9.7170     7.5220  -483.6667   221.3500   141.6100
   182.80     4.8641     1.6360     2.1420   513.3000     8.1013     1.0132     9.7490     7.5760  -483.0000   220.6830   147.7840
   182.90     4.8529     1.5970     2.1508   510.0000     8.6427     1.0381     9.8030     7.6750  -482.3333   220.6830   149.5420
   183.00     4.8306     1.5970     2.0880   510.0000     9.0533     1.0041     9.9440     7.8180  -480.6665   217.3470   151.3890
   183.10     4.8195     1.7140     2.0424   510.0000     9.3147     0.9633    10.0520     7.9160  -479.6667   216.0120   151.8400
   183.20     4.7863     1.5570     2.0632   510.0000     9.0534     0.9316    10.0300     7.9380  -479.3333   216.6790   151.8850
   183.30     4.7753     1.6750     2.0458   510.0000     8.8107     0.9475     9.8570     7.8510  -480.3333   216.6790   152.1550
   183.40     4.7206     1.6750     2.0635   513.3000     8.5120     0.9475     9.6520     7.6970  -479.3334   219.3480   151.8400
   183.50     4.5186     1.4400     2.0855   516.7000     8.4747     0.9384     9.3380     7.5540  -477.9999   216.6790   150.0370
   183.60     4.5709     1.5180     2.0472   520.0000     8.6613     0.9293     9.1220     7.4670  -477.6666   221.3500   146.9730
   183.70     4.4771     1.4400     2.0324   516.7000     8.5307     0.9747     9.0350     7.5110  -479.3333   220.0150   146.8380
   183.80     4.5920     1.2830     2.0233   513.3000     8.6240     1.0087     8.9380     7.4780  -481.0001   220.0150   147.6490
   183.90     4.6881     1.5570     2.0520   510.0000     8.1200     1.0245     8.7650     7.3130  -481.6667   217.3470   148.6400
   184.00     4.6345     1.4790     2.0752   506.7000     8.1947     1.0064     8.4840     7.1600  -481.6667   216.6790   151.2540
   184.10     4.6132     1.5180     2.0424   510.0000     8.5307     1.0359     8.2670     7.1600  -482.9999   219.3480   154.2730
   184.20     4.7424     1.6360     2.0959   513.3000     9.0906     1.0177     7.9860     7.2800  -485.3333   222.0170   155.0840
   184.30     4.7315     1.5970     2.1245   520.0000     8.9787     0.9860     7.8240     7.3680  -487.0000   222.0170   153.8680
   184.40     4.7315     1.6360     2.1127   520.0000     8.4000     0.9429     7.9540     7.5000  -488.0000   224.0180   153.0120
   184.50     4.7863     1.7140     2.0850   520.0000     7.8400     0.9316     8.1380     7.7300  -488.0000   219.3480   152.4710
   184.60     4.6881     1.6750     2.0181   520.0000     8.0454     0.9747     8.2020     7.8610  -487.0001   224.0180   152.3360
   184.70     4.6452     1.5570     2.0121   516.7000     8.1573     1.0223     8.1380     7.8290  -483.0000   226.0200   152.5610
   184.80     4.6881     1.5970     1.9834   513.3000     8.3253     1.0449     8.0290     7.7410  -482.3334   225.3530   151.9300
   184.90     4.6881     1.6360     2.0804   510.0000     8.1387     1.0087     7.8350     7.6310  -484.9996   223.3510   149.8570
   185.00     4.6452     1.7530     2.1394   513.3000     8.3626     0.9588     7.6400     7.5220  -487.3333   218.0140   147.6940
   185.10     4.6026     1.6750     2.1664   520.0000     8.5867     0.9452     7.5430     7.4670  -486.6669   220.6830   148.2800
   185.20     4.5186     1.6360     2.1300   526.7000     8.5307     0.9520     7.4780     7.3790  -483.3333   223.3510   148.3700
   185.30     4.2954     1.5570     2.1639   526.7000     8.3067     0.9520     7.4670     7.3680  -482.6666   222.6840   150.4430
   185.40     4.1687     1.5970     2.1530   520.0000     8.1573     0.9271     7.5640     7.4120  -481.6667   228.6890   154.3180
   185.50     4.2462     1.5970     2.1463   506.7000     8.2693     0.9293     7.7050     7.4890  -480.3332   223.3510   157.6980
   185.60     4.5394     1.4400     2.1422   496.7000     8.1573     0.9452     7.7050     7.5980  -478.0002   220.0150   158.9150
   185.70     4.7534     2.2230     2.2213   490.0000     8.1947     0.9883     7.6620     7.7960  -476.6667   220.6830   159.8610
   185.80     4.7206     1.7920     2.1302   496.7000     8.1013     1.0041     7.5210     7.9490  -476.6667   216.6790   159.8610
   185.90     4.5290     1.4400     2.0360   503.3000     7.7653     0.9837     7.4670     7.9820  -476.3334   217.3470   158.8250
   186.00     4.3551     1.3220     2.0439   510.0000     7.5040     1.0132     7.2940     7.8180  -475.9999   218.0140   157.2030
   186.10     4.3053     1.3620     1.9929   510.0000     7.3920     1.0087     7.0990     7.5870  -475.3333   218.6810   155.0390
   186.20     4.3053     1.3620     1.9598   510.0000     7.8213     1.0245     6.9370     7.3460  -476.3333   219.3480   151.4790
   186.30     4.1976     1.4010     1.9720   506.7000     7.8027     0.9769     6.8720     7.3130  -476.6667   219.3480   148.1450
   186.40     4.3152     1.3620     2.0228   506.7000     7.8027     0.9203     6.7750     6.8640  -478.6665   220.0150   148.0990
   186.50     4.4875     1.4400     2.0581   506.7000     7.8027     0.8749     6.3750     6.5130  -480.6668   221.3500   148.5500
   186.60     4.5499     1.7920     2.0811   510.0000     7.9333     0.8885     6.2990     6.4910  -481.6667   218.0140   150.0820
