~Version information
  VERS.                            1.20: CWLS LAS  -  VERSION 1.20
  WRAP.                              NO: One line per depth step
~Well information
# MNEM.UNIT
# ====.================================:===================
  STRT.M                           0.70: First depth in file
  STOP.M                         858.30: Last depth in file
  STEP.M                           0.10: Depth increment
  NULL.                           -9999: Null values
  COMP.                         COMPANY: TOO "C.I.O.C."
  WELL.                            WELL: 1-KN
  FLD .                           FIELD: KARATUBE
  DATE.                        LOG DATE: 22/11/2003
  SRVC.                 SERVICE COMPANY: AFGIS OJSC"Kazpromgeophysica"
  UWI.           Unique Well Identifier: 
~Parametr information block
# MNEM.UNIT
# ====.================================:===================
~Other information
# ------------------------- REMARKS  AREA ------------------
~Curve information
# MNEM.UNIT
# ====.================================:===================
  DEPT.M                               : Depth curve
LL3 .ohmm                              : Appar.resistivity,laterolog,3electrodes
MLL .ohmm                              : Microlaterolog sonde
RHOB.g/c3                              : Bulk density by DGGL
DTP .us/m                              : Interval travel time (P)
GR  .ur/h                              : Gamma Ray
NGLD.stdu                              : Neutron-gamma log
GZ3 .ohmm                              : App.resistivity by lateral A2M05N
GZ3B.ohmm                              : App.resistivity by lateral N05M2A
SP  .mv                                : Spontaneous potential
CALI.mm                                : Caliper
ILA .mmho                              : IL sonde 7l1.6, active signal
~ASCII Log Data
# ...
   657.90     3.1405     2.1060     2.2338   396.7000    10.4347     1.1016     3.7470     3.7820  -463.6668   220.0150   255.1280
   658.00     3.1046     2.0270     2.2111   386.7000    10.5653     1.1243     4.1470     3.7600  -461.3326   224.0180   253.2350
   658.10     3.1333     2.3020     2.2221   383.3000    11.0508     1.1379     4.3310     3.6390  -455.6667   223.3510   250.5760
   658.20     3.0974     2.1840     2.2453   383.3000    11.0693     1.1673     4.4820     3.5300  -449.6679   222.0170   246.3400
   658.30     3.1261     2.1060     2.2685   386.7000    10.6216     1.2217     4.6120     3.4420  -445.9999   223.3510   241.2030
   658.40     3.3806     2.0670     2.2537   383.3000    10.0800     1.2693     4.6660     3.3540  -445.9998   222.6840   237.0570
   658.50     3.8107     2.8890     2.3127   376.7000     9.7067     1.2240     4.6340     3.3210  -445.3330   220.0150   231.7390
   658.60     3.8726     3.1240     2.3188   366.7000     9.9120     1.1741     4.6120     3.3760  -443.6667   219.3480   227.1430
   658.70     3.4754     2.0670     2.3026   363.3000     9.6507     1.1537     4.6120     3.4530  -442.3333   219.3480   221.7800
   658.80     3.2810     3.0850     2.3177   366.7000     9.7254     1.1809     4.6120     3.4640  -444.0007   225.3530   217.6790
   658.90     3.0690     2.4970     2.2964   370.0000     9.3146     1.1923     4.5900     3.3760  -444.9999   225.3530   213.3530
   659.00     2.8119     1.9490     2.3548   380.0000     9.4640     1.1809     4.5150     3.2880  -448.3338   224.0180   210.3790
   659.10     2.6607     1.5570     2.2859   383.3000     9.7442     1.1334     4.4170     3.2120  -449.3333   222.0170   213.8940
   659.20     2.7990     1.6750     2.2488   390.0000    10.2853     1.1084     4.2770     3.0250  -452.0001   220.6830   222.0500
   659.30     3.1046     2.3800     2.3030   390.0000    10.4160     1.1515     3.8980     2.9260  -453.3340   221.3500   229.1260
   659.40     3.1915     2.4190     2.2829   390.0000    10.1172     1.2059     3.6600     2.9590  -455.6660   222.6840   234.4430
   659.50     3.1989     2.0670     2.2106   390.0000     9.9307     1.2535     3.4660     3.1020  -459.0005   220.6830   237.4170
   659.60     3.6308     2.3410     2.3478   383.3000     9.8747     1.2467     3.4010     3.3540  -457.6667   221.3500   237.3270
   659.70     4.5709     2.7320     2.4355   360.0000     9.8373     1.2535     3.4440     3.7490  -456.0009   222.0170   233.0460
   659.80     5.7148     3.6720     2.4232   333.3000     9.7440     1.2580     3.6500     4.3740  -452.3331   219.3480   225.0250
   659.90     5.7280     7.4320     2.3216   313.3000     9.3333     1.2467     4.0930     5.3170  -452.3333   222.0170   214.8400
   660.00     4.6989     4.2600     2.3421   313.3000     8.9415     1.2693     4.8930     5.8870  -453.0004   221.3500   205.8720
   660.10     4.0179     2.6150     2.3198   320.0000     8.9041     1.2648     5.5420     6.2490  -453.0000   222.0170   198.1210
   660.20     4.0087     2.5370     2.3070   336.7000     9.4453     1.2648     6.0500     6.3370  -451.0008   219.3480   192.4880
   660.30     3.7757     3.2810     2.3010   353.3000    10.0240     1.2489     6.2880     6.1620  -449.6667   222.6840   190.7310
   660.40     3.4198     2.3410     2.2734   363.3000     9.9305     1.1991     6.2340     5.7670  -446.0007   228.0220   193.5700
   660.50     3.4995     2.0670     2.2846   366.7000     9.7253     1.1832     5.8340     5.1640  -445.6662   231.3570   200.1490
   660.60     3.7068     2.6540     2.2223   366.7000     9.5760     1.1560     5.2720     4.5280  -443.0000   228.6890   208.7110
   660.70     3.7068     2.3800     2.2200   370.0000     9.5013     1.2081     4.5900     4.2970  -442.6674   230.6900   212.9020
   660.80     3.7757     2.6150     2.2803   366.7000     9.2960     1.1945     4.2120     4.1220  -440.9998   233.3590   216.2820
   660.90     4.1115     2.7720     2.2882   366.7000     9.2400     1.2263     3.9740     4.0560  -440.9996   229.3560   218.3100
   661.00     4.3551     3.1630     2.3360   356.7000     9.6132     1.2149     3.8230     4.0780  -443.3338   230.6900   217.9950
   661.10     3.8637     3.3980     2.3504   350.0000    10.1175     1.2104     3.7470     4.1440  -444.0000   229.3560   216.3720
   661.20     3.0832     2.3020     2.4913   336.7000    10.1733     1.1719     3.7790     4.2100  -443.0006   228.6890   215.2010
   661.30     2.6977     1.5970     2.4452   336.7000    10.2294     1.1673     3.8660     4.1220  -443.3337   225.3530   216.0570
   661.40     2.5003     1.5570     2.3848   343.3000     9.9120     1.1537     3.8440     3.9900  -447.3318   226.6870   218.8060
   661.50     2.4044     1.4790     2.3256   356.7000    10.0054     1.1310     3.7140     3.7270  -456.6688   228.0220   223.1770
   661.60     2.4155     1.4010     2.3600   366.7000     9.5759     1.0699     3.5630     3.4530  -463.6667   228.0220   230.1170
   661.70     2.4155     1.3620     2.3592   373.3000     8.9973     1.0789     3.2390     3.1900  -469.6662   225.3530   239.1300
   661.80     2.4266     1.4790     2.3400   376.7000     8.6427     1.0948     2.9250     2.9810  -473.3344   227.3540   246.1600
   661.90     2.4322     1.4790     2.3104   380.0000     8.6241     1.1107     2.6550     2.8170  -478.3323   228.6890   250.6210
   662.00     2.5061     1.4790     2.2771   383.3000     8.9040     1.1061     2.4920     2.7840  -481.0002   224.6860   254.5420
   662.10     2.6669     1.7530     2.3300   383.3000     9.1654     1.1288     2.4600     2.7400  -481.3333   224.6860   256.7500
   662.20     2.7542     1.7920     2.3487   376.7000     9.3520     1.1809     2.4920     2.7840  -480.3334   224.6860   257.1560
   662.30     2.7542     1.9100     2.4125   366.7000     9.1468     1.2285     2.6220     2.8500  -480.3334   224.0180   257.1110
   662.40     2.7227     1.7920     2.3754   360.0000     9.0533     1.2512     2.7630     2.9150  -480.3333   221.3500   256.4800
   662.50     2.8184     1.9100     2.3974   363.3000     8.9039     1.2285     2.9250     2.9590  -479.6664   222.0170   255.5330
   662.60     2.8576     1.5570     2.4110   366.7000     8.9413     1.1923     3.0980     3.0800  -479.6667   222.6840   253.7760
   662.70     2.8708     1.8710     2.3866   373.3000     8.9040     1.1923     3.2280     3.1460  -479.0000   220.6830   252.7840
   662.80     2.8445     2.0670     2.3432   373.3000     8.7920     1.1855     3.2710     3.1790  -478.6663   224.0180   252.8300
   662.90     2.9309     1.7140     2.3091   373.3000     9.1094     1.1809     3.2930     3.1680  -477.3334   222.6840   253.3250
   663.00     3.0690     2.1840     2.3057   370.0000     8.9787     1.1197     3.2390     3.1680  -473.9991   222.0170   254.3620
   663.10     3.2584     2.3020     2.3960   366.7000     9.2400     1.0903     3.1950     3.1900  -471.3333   218.6810   255.4880
   663.20     3.4356     2.2620     2.4180   360.0000     9.3333     1.1039     3.1630     3.2660  -468.9998   219.3480   256.7050
   663.30     3.5400     2.4190     2.4511   353.3000     9.4640     1.1719     3.1740     3.3650  -469.6668   219.3480   256.4350
   663.40     3.3574     2.5760     2.4046   353.3000     9.1839     1.1900     3.2170     3.4970  -467.0009   217.3470   255.0830
   663.50     3.0761     2.4970     2.3531   356.7000     8.8107     1.1650     3.2490     3.5840  -464.3325   218.6810   253.5050
   663.60     2.9376     2.0270     2.3130   363.3000     8.8294     1.0903     3.3470     3.6170  -461.6667   217.3470   251.9280
   663.70     2.9107     2.0270     2.3221   366.7000     8.9973     1.0540     3.3900     3.6280  -461.6668   220.6830   250.7110
   663.80     2.9376     2.1840     2.2930   370.0000     9.0534     1.0653     3.4010     3.6720  -459.9995   220.0150   250.0360
   663.90     2.9512     2.1840     2.2572   370.0000     9.1467     1.0767     3.3360     3.7710  -459.3334   218.6810   250.2610
   664.00     2.8973     2.4190     2.3575   370.0000     9.3892     1.1175     3.2280     3.8260  -458.3334   219.3480   253.0100
