~Version information
  VERS.                            1.20: CWLS LAS  -  VERSION 1.20
  WRAP.                              NO: One line per depth step
~Well information
# MNEM.UNIT
# ====.================================:===================
  STRT.M                           0.70: First depth in file
  STOP.M                         858.30: Last depth in file
  STEP.M                           0.10: Depth increment
  NULL.                           -9999: Null values
  COMP.                         COMPANY: TOO "C.I.O.C."
  WELL.                            WELL: 1-KN
  FLD .                           FIELD: KARATUBE
  DATE.                        LOG DATE: 22/11/2003
  SRVC.                 SERVICE COMPANY: AFGIS OJSC"Kazpromgeophysica"
  UWI.           Unique Well Identifier: 
~Parametr information block
# MNEM.UNIT
# ====.================================:===================
~Other information
# ------------------------- REMARKS  AREA ------------------
~Curve information
# MNEM.UNIT
# ====.================================:===================
  DEPT.M                               : Depth curve
LL3 .ohmm                              : Appar.resistivity,laterolog,3electrodes
MLL .ohmm                              : Microlaterolog sonde
RHOB.g/c3                              : Bulk density by DGGL
DTP .us/m                              : Interval travel time (P)
GR  .ur/h                              : Gamma Ray
NGLD.stdu                              : Neutron-gamma log
GZ3 .ohmm                              : App.resistivity by lateral A2M05N
GZ3B.ohmm                              : App.resistivity by lateral N05M2A
SP  .mv                                : Spontaneous potential
CALI.mm                                : Caliper
ILA .mmho                              : IL sonde 7l1.6, active signal
~ASCII Log Data
# ...
   130.90      -9999      -9999      -9999      -9999     4.0133     0.8523     0.0050     0.1080  -613.3333   229.3560      -9999
   131.00      -9999      -9999      -9999      -9999     3.9573     0.8613    -0.0170     0.1190  -614.3333   225.3530      -9999
   131.10      -9999      -9999      -9999      -9999     3.9200     0.8704    -0.0060     0.0860  -612.6665   225.3530      -9999
   131.20      -9999      -9999      -9999      -9999     4.0507     0.8749    -0.0170     0.1080  -605.6667   228.6890      -9999
   131.30      -9999      -9999      -9999   190.0000     4.0693     0.8523     0.0160     0.0750  -600.3333   228.6890      -9999
   131.40      -9999      -9999      -9999   190.0000     3.8453     0.8069    -0.0380     0.1300  -599.0000   226.0200      -9999
   131.50      -9999      -9999      -9999   193.3000     3.5840     0.7593    -0.0380     0.1410  -598.6666   226.6870      -9999
   131.60      -9999      -9999      -9999   200.0000     3.8267     0.7571    -0.0060     0.1300  -599.6666   228.6890      -9999
   131.70      -9999      -9999      -9999   203.3000     4.1253     0.8001    -0.0270     0.1190  -597.3333   229.3560      -9999
   131.80      -9999      -9999      -9999   203.3000     4.2373     0.8409    -0.0060     0.0860  -595.6667   226.0200      -9999
   131.90      -9999      -9999      -9999   200.0000     4.1067     0.8228     0.0050     0.1410  -593.6667   226.0200      -9999
   132.00      -9999      -9999      -9999   200.0000     3.8827     0.8024     0.0270     0.1410  -590.0001   228.0220      -9999
   132.10      -9999      -9999      -9999   200.0000     3.8080     0.7865     0.0050     0.1410  -589.3333   227.3540      -9999
   132.20      -9999      -9999      -9999   200.0000     3.7147     0.8160     0.0050     0.1410  -590.3333   228.6890      -9999
   132.30      -9999      -9999      -9999   196.7000     3.8640     0.8296     0.0050     0.1080  -590.6667   226.0200      -9999
   132.40      -9999      -9999      -9999   193.3000     3.8827     0.8160     0.0270     0.0860  -586.6667   226.0200      -9999
   132.50      -9999      -9999      -9999   190.0000     3.8453     0.7888     0.0270     0.1410  -581.6667   226.6870      -9999
   132.60      -9999      -9999      -9999   190.0000     3.8267     0.8092     0.0370     0.1190  -583.3335   224.6860      -9999
   132.70      -9999      -9999      -9999   190.0000     4.0693     0.8251    -0.0060     0.0970  -587.6667   226.0200      -9999
   132.80      -9999      -9999      -9999   190.0000     4.1627     0.8432     0.0160     0.1300  -589.6667   229.3560      -9999
   132.90      -9999      -9999      -9999   190.0000     4.1253     0.8341    -0.0060     0.0970  -587.0000   227.3540      -9999
   133.00      -9999      -9999      -9999   186.7000     3.9013     0.8545    -0.0170     0.0860  -586.0000   228.0220      -9999
   133.10      -9999      -9999      -9999   186.7000     3.8267     0.8409     0.0160     0.1300  -586.0001   227.3540      -9999
   133.20      -9999      -9999      -9999   190.0000     3.7147     0.8364     0.0050     0.1300  -586.6667   226.6870      -9999
   133.30      -9999      -9999      -9999   193.3000     3.6027     0.8228     0.0050     0.0860  -583.0000   225.3530      -9999
   133.40      -9999      -9999      -9999   190.0000     3.6400     0.8636     0.0160     0.1300  -581.0001   226.0200      -9999
   133.50      -9999      -9999      -9999   186.7000     3.7707     0.8523    -0.0060     0.1080  -578.6666   228.0220      -9999
   133.60      -9999      -9999      -9999   190.0000     3.9573     0.8296     0.0270     0.0970  -577.3335   225.3530      -9999
   133.70      -9999      -9999      -9999   196.7000     3.9013     0.7843     0.0370     0.0860  -575.0000   228.6890      -9999
   133.80      -9999      -9999      -9999   190.0000     3.6960     0.7661     0.0160     0.1190  -575.3334   227.3540      -9999
   133.90      -9999      -9999      -9999   180.0000     3.4907     0.7593    -0.0270     0.1190  -577.6665   228.6890      -9999
   134.00      -9999      -9999      -9999   170.0000     3.6213     0.7707    -0.0270     0.0860  -576.3331   228.6890      -9999
   134.10      -9999      -9999      -9999   176.7000     3.8453     0.7933    -0.0060     0.1190  -572.3337   228.0220      -9999
   134.20      -9999      -9999      -9999   190.0000     3.8640     0.7979     0.0270     0.0750  -568.3333   228.6890      -9999
   134.30      -9999      -9999      -9999   200.0000     3.5840     0.7820     0.0050     0.0970  -569.0002   228.6890      -9999
   134.40      -9999      -9999      -9999   203.3000     3.3227     0.7661     0.0050     0.0860  -570.0000   226.6870      -9999
   134.50      -9999      -9999      -9999   203.3000     3.3040     0.7933    -0.0060     0.0970  -568.9998   228.6890      -9999
   134.60      -9999      -9999      -9999   206.7000     3.2667     0.7775     0.0050     0.1300  -565.0002   225.3530      -9999
   134.70      -9999      -9999      -9999   203.3000     3.4160     0.8069     0.0160     0.1190  -562.6667   226.0200      -9999
   134.80      -9999      -9999      -9999   196.7000     3.5840     0.7820    -0.0060     0.0970  -559.3333   229.3560      -9999
   134.90      -9999      -9999      -9999   190.0000     3.9387     0.8251    -0.0170     0.0750  -558.0001   226.6870      -9999
   135.00      -9999      -9999      -9999   193.3000     3.8640     0.8341    -0.0270     0.1520  -554.3332   228.6890      -9999
   135.10      -9999      -9999      -9999   193.3000     3.6213     0.8681     0.0160     0.1300  -552.0002   226.0200      -9999
   135.20      -9999      -9999      -9999   193.3000     3.4907     0.8817     0.0050     0.1410  -550.0000   224.0180      -9999
   135.30      -9999      -9999      -9999   190.0000     3.6027     0.8681    -0.0270     0.1190  -546.9998   224.6860      -9999
   135.40      -9999      -9999      -9999   186.7000     3.6773     0.8545    -0.0270     0.1080  -544.3336   227.3540      -9999
   135.50      -9999      -9999      -9999   186.7000     3.6773     0.8273     0.0270     0.1300  -538.9998   226.6870      -9999
   135.60      -9999      -9999      -9999   190.0000     3.7147     0.8251    -0.0170     0.1300  -535.6669   228.0220      -9999
   135.70      -9999      -9999      -9999   193.3000     3.7893     0.8160     0.0050     0.0860  -531.0000   227.3540      -9999
   135.80      -9999      -9999      -9999   196.7000     4.0320     0.7888     0.0160     0.1190  -525.9997   225.3530      -9999
   135.90      -9999      -9999      -9999   193.3000     4.4800     0.7548     0.0160     0.0860  -521.6669   228.0220      -9999
   136.00      -9999      -9999      -9999   196.7000     5.1333     0.7344     0.0270     0.0860  -521.3335   228.6890      -9999
   136.10      -9999      -9999      -9999   193.3000     5.5253     0.7684     0.0160     0.1410  -525.6663   226.6870      -9999
   136.20      -9999      -9999      -9999   200.0000     5.8800     0.8228    -0.0060     0.1080  -527.6667   228.0220      -9999
   136.30      -9999      -9999      -9999   203.3000     6.2160     0.8477     0.0370     0.1190  -527.3331   228.0220      -9999
   136.40      -9999      -9999      -9999   206.7000     6.5520     0.8455     0.0370     0.1300  -528.3331   226.0200      -9999
   136.50      -9999      -9999      -9999   203.3000     6.6827     0.8183    -0.0170     0.0970  -533.6671   224.0180      -9999
   136.60      -9999      -9999      -9999   200.0000     6.4586     0.8273     0.0050     0.1190  -537.0000   224.0180      -9999
   136.70      -9999      -9999      -9999   210.0000     6.1227     0.8432    -0.0170     0.0970  -538.6667   228.6890      -9999
   136.80      -9999      -9999      -9999   240.0000     5.6933     0.8772    -0.0060     0.1080  -544.6673   228.6890      -9999
   136.90      -9999      -9999      -9999   273.3000     5.2080     0.8659    -0.0170     0.0970  -555.9993   230.0230      -9999
   137.00      -9999      -9999      -9999   283.3000     4.8160     0.8727    -0.0490     0.1190  -572.0007   229.3560      -9999
