~Version information
  VERS.                            1.20: CWLS LAS  -  VERSION 1.20
  WRAP.                              NO: One line per depth step
~Well information
# MNEM.UNIT
# ====.================================:===================
  STRT.M                           0.70: First depth in file
  STOP.M                         858.30: Last depth in file
  STEP.M                           0.10: Depth increment
  NULL.                           -9999: Null values
  COMP.                         COMPANY: TOO "C.I.O.C."
  WELL.                            WELL: 1-KN
  FLD .                           FIELD: KARATUBE
  DATE.                        LOG DATE: 22/11/2003
  SRVC.                 SERVICE COMPANY: AFGIS OJSC"Kazpromgeophysica"
  UWI.           Unique Well Identifier: 
~Parametr information block
# MNEM.UNIT
# ====.================================:===================
~Other information
# ------------------------- REMARKS  AREA ------------------
~Curve information
# MNEM.UNIT
# ====.================================:===================
  DEPT.M                               : Depth curve
LL3 .ohmm                              : Appar.resistivity,laterolog,3electrodes
MLL .ohmm                              : Microlaterolog sonde
RHOB.g/c3                              : Bulk density by DGGL
DTP .us/m                              : Interval travel time (P)
GR  .ur/h                              : Gamma Ray
NGLD.stdu                              : Neutron-gamma log
GZ3 .ohmm                              : App.resistivity by lateral A2M05N
GZ3B.ohmm                              : App.resistivity by lateral N05M2A
SP  .mv                                : Spontaneous potential
CALI.mm                                : Caliper
ILA .mmho                              : IL sonde 7l1.6, active signal
~ASCII Log Data
# ...
   273.50     4.7973     1.8710     2.0583   470.0000     8.5307     1.0427     8.2670    12.1390  -433.6667   220.0150   137.5090
   273.60     4.7315     1.7140     2.0623   466.7000     8.8853     1.0359     7.9320    12.1060  -432.6667   217.3470   136.3830
   273.70     4.6132     1.5570     2.0987   466.7000     9.4267     1.0585     7.6180    12.1390  -434.0003   220.0150   134.9410
   273.80     4.6559     1.5970     2.0446   466.7000    10.0241     1.0903     7.6510    12.2700  -435.9998   219.3480   132.3720
   273.90     4.7098     1.6750     2.0406   466.7000    10.4906     1.1084     7.6400    12.4570  -437.6667   220.6830   132.0110
   274.00     4.7098     1.7920     2.0650   463.3000    10.4907     1.1401     7.5540    12.6650  -436.6667   223.3510   132.5970
   274.10     4.6559     1.5970     2.0763   456.7000    10.5280     1.1243     7.3700    12.9500  -435.6667   227.3540   133.8140
   274.20     4.6774     1.5180     2.0701   456.7000    10.5280     1.1288     7.1970    13.2790  -434.6668   231.3570   133.4990
   274.30     4.8529     1.6750     2.0403   453.3000    10.6960     1.0993     6.9590    13.7180  -437.9995   234.0260   132.0570
   274.40     5.1404     1.6750     2.0083   456.7000    10.6960     1.0767     6.7320    14.5290  -442.0000   230.0230   129.5780
   274.50     5.3703     1.9880     2.0094   456.7000    10.6773     1.0585     6.6130    15.7470  -441.3333   228.6890   126.1080
   274.60     5.7016     2.0270     2.0248   456.7000    10.6587     1.0699     6.5480    17.0080  -438.6667   226.0200   122.1870
   274.70     6.2806     2.1450     2.0482   453.3000    10.8080     1.0971     6.5480    18.3680  -436.3336   224.0180   117.5010
   274.80     7.2111     2.3020     2.0609   450.0000    11.2934     1.1288     6.7210    20.0350  -438.6664   226.6870   111.3720
   274.90     8.7297     2.9670     2.0816   453.3000    11.8346     1.1401     7.1320    21.8880  -431.6667   222.0170   103.0800
   275.00    10.2565     3.5550     2.0794   463.3000    11.9653     1.1424     7.5750    24.4320  -422.6667   224.6860    93.9770
   275.10    10.6905     3.6330     2.0056   476.7000    11.5173     1.0971     8.1270    26.6260  -413.0000   224.0180    88.2540
   275.20    10.5925     3.0850     1.9687   486.7000    10.9200     1.0789     8.6240    28.0400  -410.9998   224.6860    80.4580
   275.30    10.1859     3.2020     1.9948   486.7000    10.4906     1.0948     9.1540    29.0050  -408.6670   223.3510    76.4920
   275.40     9.5940     3.1240     2.0072   480.0000    10.6773     1.1424     9.8250    29.6410  -407.0000   231.3570    72.2110
   275.50     9.0157     3.3590     2.0120   473.3000    11.2747     1.1401    10.2140    29.7730  -406.6667   230.0230    68.2000
   275.60     8.3368     2.5760     2.0513   470.0000    12.2453     1.1583    10.4630    29.2030  -407.6667   230.6900    64.8650
   275.70     8.3560     2.4190     2.1002   470.0000    12.7307     1.1741    10.5930    28.6870  -405.9997   227.3540    64.4600
   275.80     8.8512     2.8110     2.0758   470.0000    12.4132     1.1583    10.6470    28.4900  -403.0005   225.3530    65.6760
   275.90     9.2683     2.7720     2.0215   476.7000    11.6668     1.1288    10.5380    28.4460  -400.0000   226.6870    66.6230
   276.00     9.4842     2.7320     2.0586   486.7000    11.2373     1.0812    10.4740    28.5340  -398.0000   224.6860    66.6680
   276.10     9.7275     3.2020     2.0473   493.3000    11.4427     1.1084    10.3440    28.6540  -397.6667   220.6830    63.6480
   276.20    10.1625     2.9670     2.0069   493.3000    11.9840     1.1152    10.2460    29.0270  -397.0001   225.3530    61.8460
   276.30    10.7399     2.7720     2.0282   493.3000    12.6561     1.1447    10.2140    29.5540  -397.3334   226.6870    60.4490
   276.40    11.3240     3.0060     2.0587   496.7000    13.5146     1.1311    10.2790    30.2450  -397.0000   242.0320    60.9900
   276.50    11.8032     3.0060     1.9953   500.0000    13.7760     1.1379    10.5600    31.1880  -399.0000   236.0280    61.5300
   276.60    12.6765     3.7900     1.9861   500.0000    13.9813     1.1424    10.8520    32.3830  -400.6667   236.0280    60.4040
   276.70    13.0918     4.0250     2.0655   493.3000    13.5893     1.1515    11.0360    33.2610  -402.6667   234.0260    58.6910
   276.80    13.2130     3.5160     2.0244   486.7000    13.8320     1.1220    11.4470    34.4670  -403.3332   232.0250    57.5650
   276.90    13.2434     3.4370     2.0316   486.7000    14.1679     1.0857    11.9770    34.9490  -403.6667   238.0290    55.8970
   277.00    13.3045     3.7510     2.0534   483.3000    14.7840     1.0744    12.4850    35.3330  -404.0000   230.6900    51.9320
   277.10    13.0918     3.7510     2.0104   476.7000    15.4560     1.1016    13.2420    35.5850  -403.6667   229.3560    50.1740
   277.20    12.8233     3.6330     1.9272   466.7000    15.0453     1.1537    14.2260    35.7720  -403.6666   233.3590    50.8950
   277.30    12.6474     3.0460     1.9757   463.3000    13.9811     1.1832    14.8320    35.4430  -403.0001   227.3540    53.9150
   277.40    12.7350     2.2230     2.0278   460.0000    12.8241     1.1877    15.4700    34.7300  -403.0000   231.3570    54.9510
   277.50    12.5026     2.2230     2.0376   463.3000    12.4507     1.1492    16.2160    33.9400  -403.3333   238.6960    54.1400
   277.60    11.8850     1.8320     1.9777   470.0000    13.0667     1.1560    17.0920    32.9420  -403.3333   242.0320    53.8240
   277.70    11.4288     1.5180     1.9433   483.3000    13.4587     1.1673    17.9790    31.9990  -402.6666   228.0220    54.0500
   277.80    12.0504     1.8710     1.9834   486.7000    13.8507     1.1696    18.4110    31.2430  -402.3333   228.6890    51.8870
   277.90    12.4451     2.6930     2.0939   483.3000    14.0000     1.1265    18.8220    30.8480  -401.6667   227.3540    49.8590
   278.00    12.0504     3.0460     2.0612   473.3000    14.6720     1.0925    19.3090    31.1990  -400.3333   225.3530    49.5430
   278.10    11.5080     2.8110     1.9744   470.0000    15.5307     1.0835    19.7530    31.3740  -398.0000   240.6980    52.9680
   278.20    11.0408     3.3590     1.9825   476.7000    15.8480     1.0857    20.1090    31.4070  -396.6666   244.0340    55.8520
   278.30    10.2802     3.1240     1.9287   493.3000    15.3999     1.1311    20.3690    31.2860  -395.3334   258.7120    54.7710
   278.40     9.7051     1.7530     1.8918   506.7000    14.6347     1.1855    20.6610    31.0010  -393.0000   259.3790    53.5990
   278.50    10.7647     1.9100     1.9715   523.3000    14.6720     1.2331    20.3040    29.9380  -390.6667   252.7070    55.2210
   278.60    12.5603     2.9670     1.9630   536.7000    15.3067     1.2127    19.7420    29.4990  -389.6667   226.0200    53.9150
   278.70    13.6144     3.0460     1.9536   550.0000    16.2773     1.1945    19.2330    30.4860  -390.0001   246.7030    51.5260
   278.80    14.5211     3.2810     2.0606   553.3000    16.4640     1.1628    19.3090    31.8900  -390.0001   278.7270    52.6080
   278.90    15.1356     3.3980     2.0698   540.0000    16.4454     1.1764    19.9580    33.4360  -389.0000   289.4020    54.5450
   279.00    15.7036     3.5160     2.0236   526.7000    15.7547     1.2013    21.1480    35.7170  -388.3333   284.7320    54.4550
   279.10    15.7036     3.7110     1.9775   520.0000    15.1573     1.2104    22.7270    37.8780  -388.0000   268.7200    52.1120
   279.20    15.7398     3.3590     1.9291   463.3000    15.0827     1.2036    23.8190    38.0530  -388.3334   266.0510    50.3540
   279.30    16.0325     2.4190     1.7675   370.0000    15.4188     1.1900    24.5110    37.7790  -388.9999   260.7130    47.2000
   279.40    17.3380     1.7920     1.8137   276.7000    16.4826     1.1515    25.2570    37.4060  -389.0000   278.7270    46.7490
   279.50    16.0694     2.6930     1.8965   246.7000    17.3600     1.1492    26.0570    37.2300  -388.0000   298.7430    44.8120
   279.60    13.5519     1.9100     1.7385   266.7000    18.0133     1.1243    27.3550    37.8880  -387.0000   295.4070    41.6120
