~Version information
  VERS.                            1.20: CWLS LAS  -  VERSION 1.20
  WRAP.                              NO: One line per depth step
~Well information
# MNEM.UNIT
# ====.================================:===================
  STRT.M                           0.70: First depth in file
  STOP.M                         858.30: Last depth in file
  STEP.M                           0.10: Depth increment
  NULL.                           -9999: Null values
  COMP.                         COMPANY: TOO "C.I.O.C."
  WELL.                            WELL: 1-KN
  FLD .                           FIELD: KARATUBE
  DATE.                        LOG DATE: 22/11/2003
  SRVC.                 SERVICE COMPANY: AFGIS OJSC"Kazpromgeophysica"
  UWI.           Unique Well Identifier: 
~Parametr information block
# MNEM.UNIT
# ====.================================:===================
~Other information
# ------------------------- REMARKS  AREA ------------------
~Curve information
# MNEM.UNIT
# ====.================================:===================
  DEPT.M                               : Depth curve
LL3 .ohmm                              : Appar.resistivity,laterolog,3electrodes
MLL .ohmm                              : Microlaterolog sonde
RHOB.g/c3                              : Bulk density by DGGL
DTP .us/m                              : Interval travel time (P)
GR  .ur/h                              : Gamma Ray
NGLD.stdu                              : Neutron-gamma log
GZ3 .ohmm                              : App.resistivity by lateral A2M05N
GZ3B.ohmm                              : App.resistivity by lateral N05M2A
SP  .mv                                : Spontaneous potential
CALI.mm                                : Caliper
ILA .mmho                              : IL sonde 7l1.6, active signal
~ASCII Log Data
# ...
   372.70     2.6546     1.1660     2.0686   483.3000     9.2400     1.0019     4.0600     3.9020  -497.6667   218.6810   205.5120
   372.80     2.6853     1.1660     2.0486   486.7000     9.2400     1.0313     3.9420     3.9350  -497.9999   218.6810   210.0630
   372.90     2.6915     1.2830     2.0842   476.7000     9.7253     1.0699     3.8010     4.0230  -498.6667   218.6810   213.8040
   373.00     2.7479     1.1660     2.0978   470.0000     9.7067     1.0744     3.6820     4.0780  -499.3333   221.3500   215.5160
   373.10     2.9309     1.2830     2.1861   456.7000     9.4267     1.1016     3.6060     4.1110  -498.0000   220.0150   215.1100
   373.20     3.1046     1.4790     2.1673   453.3000     9.2960     1.1220     3.5740     4.1550  -497.9999   217.3470   212.5420
   373.30     3.1989     1.4400     2.1794   450.0000     9.7254     1.1356     3.4980     4.2210  -496.9999   219.3480   210.4240
   373.40     3.1915     1.4400     2.1255   453.3000     9.9307     1.1107     3.6280     4.3410  -497.6667   218.6810   206.1430
   373.50     3.1769     1.3220     2.1612   456.7000     9.5947     1.0676     3.7140     4.4180  -496.0000   226.0200   202.4920
   373.60     3.2584     1.3220     2.1411   460.0000     9.1467     1.0381     3.8120     4.4400  -496.0000   229.3560   199.6080
   373.70     3.1915     1.2440     2.0823   463.3000     9.4267     1.0517     3.9200     4.4180  -495.0000   225.3530   196.8140
   373.80     3.0061     1.2830     2.1130   466.7000     9.8374     1.0903     4.0170     4.4400  -495.6667   222.0170   194.4710
   373.90     3.1333     1.3220     2.1458   466.7000    10.1360     1.1039     4.2010     4.4510  -493.0000   218.6810   193.7950
   374.00     3.1915     1.4010     2.0905   460.0000     9.9307     1.0993     4.3520     4.4070  -491.3333   220.0150   194.5160
   374.10     3.1550     1.4400     2.0805   453.3000     9.7253     1.0767     4.4820     4.3630  -489.0000   218.0140   196.8590
   374.20     3.0620     1.3620     2.1178   443.3000     9.4267     1.1265     4.5690     4.1880  -487.9998   220.0150   200.3290
   374.30     3.2734     1.2830     2.1330   423.3000     9.0533     1.1220     4.6010     4.0010  -485.6670   218.6810   204.5650
   374.40     3.3037     3.2020     2.1401   390.0000     8.7920     1.0993     4.5800     3.8040  -482.6667   220.0150   207.4950
   374.50     3.4119    11.1910     2.1865   410.0000     8.4187     1.0744     4.4070     3.5730  -482.0000   221.3500   210.3340
   374.60     3.3037     1.4790     2.0956   436.7000     8.4187     1.0903     4.2230     3.3430  -483.6667   220.0150   212.2710
   374.70     2.9648     1.3620     2.0977   480.0000     8.1760     1.0993     4.0820     3.2340  -485.6668   221.3500   213.7130
   374.80     2.7416     1.3220     2.1305   473.3000     8.5680     1.1243     3.9420     3.1570  -486.3334   218.6810   215.5160
   374.90     2.6546     1.1270     2.1902   466.7000     8.6426     1.1492     3.8230     3.1130  -487.3333   218.0140   217.4540
   375.00     2.6002     1.2050     2.2123   460.0000     8.8293     1.1651     3.7580     3.1020  -490.6667   222.6840   221.5550
   375.10     2.6182     1.1660     2.2107   453.3000     9.0907     1.1492     3.7790     3.1460  -494.3333   220.0150   224.8890
   375.20     2.6977     1.3620     2.1851   456.7000     9.3520     1.1220     3.8120     3.2120  -497.6669   218.6810   228.6750
   375.30     2.6546     1.2830     2.1344   456.7000     9.5386     1.1152     3.8120     3.2230  -498.3333   218.6810   231.5140
   375.40     2.6792     1.1660     2.1394   456.7000     9.4080     1.0767     3.7790     3.2340  -499.0000   222.6840   233.7670
   375.50     2.7353     1.3220     2.1576   450.0000     9.4080     1.0517     3.7470     3.2660  -498.6667   222.6840   236.1110
   375.60     2.7606     1.2050     2.1921   436.7000     9.8000     1.0449     3.7360     3.3320  -499.6667   222.6840   236.1110
   375.70     2.7416     1.3220     2.2643   426.7000    10.2293     1.0427     3.7680     3.3540  -500.3334   229.3560   234.4430
   375.80     2.6546     1.2050     2.2760   423.3000    10.6027     1.0427     3.7900     3.3540  -501.0000   220.0150   233.4970
   375.90     2.4889     1.2050     2.1923   433.3000    10.6214     1.0835     3.8870     3.3760  -503.0000   219.3480   233.3620
   376.00     2.4210     1.0480     2.1624   453.3000    10.4907     1.1288     3.9630     3.4310  -504.6667   222.0170   233.3620
   376.10     2.3550     1.0480     2.0784   473.3000    10.2480     1.1197     4.0060     3.4530  -505.3333   218.6810   234.0380
   376.20     2.3067     0.9700     2.1220   490.0000    10.6400     1.0744     4.0060     3.4310  -503.6665   219.3480   235.6600
   376.30     2.3281     0.9310     2.0918   496.7000    10.7707     1.0721     4.0170     3.4090  -503.3332   220.6830   237.8680
   376.40     2.4210     1.1660     2.1328   496.7000    10.7521     1.0812     4.0600     3.3980  -503.6667   218.0140   241.0680
   376.50     2.5235     1.2050     2.0695   490.0000    10.6027     1.0585     4.0390     3.3540  -503.6667   222.0170   243.1410
   376.60     2.5882     1.1270     2.1351   486.7000    10.5280     1.0291     3.9740     3.3540  -503.3333   220.0150   243.0050
   376.70     2.5586     1.0480     2.1905   490.0000    10.3600     1.0427     3.8770     3.3320  -503.6668   220.6830   241.2480
   376.80     2.5235     1.0480     2.1863   493.3000    10.0613     1.0676     3.7580     3.2990  -503.3335   226.6870   240.4370
   376.90     2.5177     1.0480     2.1878   493.3000    10.1359     1.0563     3.6820     3.2660  -501.3333   232.0250   237.5530
   377.00     2.5586     1.2050     2.1468   486.7000    10.5093     1.0653     3.6170     3.2440  -499.3333   221.3500   236.2460
   377.10     2.6303     1.2830     2.1430   483.3000    10.7520     1.0631     3.5410     3.1790  -498.6667   224.0180   236.0660
   377.20     2.8774     1.3620     2.1662   473.3000    10.6960     1.0789     3.4760     3.0910  -499.3334   222.0170   236.4710
   377.30     2.8774     1.3620     2.1654   463.3000    10.5466     1.0563     3.4010     3.0250  -499.9999   222.6840   237.3720
   377.40     2.7797     1.2440     2.1434   450.0000    10.2107     1.0812     3.2710     2.9700  -502.0000   222.0170   239.3100
   377.50     2.6182     1.2050     2.2226   453.3000    10.1360     1.0789     3.2600     2.8500  -505.3333   227.3540   240.0310
   377.60     2.4889     1.0090     2.2331   463.3000    10.0427     1.0653     3.3030     2.7840  -507.0000   219.3480   239.6260
   377.70     2.3714     1.0480     2.2270   480.0000    10.2293     1.0268     3.3360     2.6960  -507.3331   225.3530   240.1660
   377.80     2.3014     0.9310     2.1849   486.7000    10.3040     0.9973     3.3580     2.6080  -506.6666   228.6890   240.8870
   377.90     2.2387     0.9310     2.1103   500.0000    10.5467     0.9928     3.4010     2.5320  -507.6667   221.3500   243.5460
   378.00     2.2751     0.9310     2.0946   503.3000    10.5653     0.9588     3.3360     2.4330  -509.3333   226.6870   247.1510
   378.10     2.2699     0.9310     2.1382   506.7000    10.3787     0.9588     3.3580     2.4110  -509.6667   228.6890   251.1170
   378.20     2.3659     0.9700     2.1033   500.0000    10.4160     0.9633     3.3250     2.3450  -509.3332   226.6870   254.9480
   378.30     2.3714     1.2050     2.1630   500.0000    10.6587     0.9679     3.2820     2.3560  -508.0001   232.0250   258.6880
   378.40     2.4547     1.0880     2.1572   500.0000    10.9013     0.9429     3.2600     2.3670  -507.6667   226.6870   260.7160
   378.50     2.4547     1.0090     2.0998   500.0000    10.4720     0.9361     3.2710     2.3560  -508.3333   234.0260   261.3920
   378.60     2.3768     1.1270     2.1212   500.0000     9.9120     0.9883     3.2390     2.3780  -508.6667   225.3530   259.5440
   378.70     2.3768     1.0480     2.1694   500.0000     9.6693     1.0449     3.2600     2.3560  -508.9999   222.0170   254.4970
   378.80     2.3281     0.9700     2.2099   503.3000     9.8747     1.0789     3.2710     2.3560  -508.3333   230.6900   252.3340
