~Version information
  VERS.                            1.20: CWLS LAS  -  VERSION 1.20
  WRAP.                              NO: One line per depth step
~Well information
# MNEM.UNIT
# ====.================================:===================
  STRT.M                           0.70: First depth in file
  STOP.M                         858.30: Last depth in file
  STEP.M                           0.10: Depth increment
  NULL.                           -9999: Null values
  COMP.                         COMPANY: TOO "C.I.O.C."
  WELL.                            WELL: 1-KN
  FLD .                           FIELD: KARATUBE
  DATE.                        LOG DATE: 22/11/2003
  SRVC.                 SERVICE COMPANY: AFGIS OJSC"Kazpromgeophysica"
  UWI.           Unique Well Identifier: 
~Parametr information block
# MNEM.UNIT
# ====.================================:===================
~Other information
# ------------------------- REMARKS  AREA ------------------
~Curve information
# MNEM.UNIT
# ====.================================:===================
  DEPT.M                               : Depth curve
LL3 .ohmm                              : Appar.resistivity,laterolog,3electrodes
MLL .ohmm                              : Microlaterolog sonde
RHOB.g/c3                              : Bulk density by DGGL
DTP .us/m                              : Interval travel time (P)
GR  .ur/h                              : Gamma Ray
NGLD.stdu                              : Neutron-gamma log
GZ3 .ohmm                              : App.resistivity by lateral A2M05N
GZ3B.ohmm                              : App.resistivity by lateral N05M2A
SP  .mv                                : Spontaneous potential
CALI.mm                                : Caliper
ILA .mmho                              : IL sonde 7l1.6, active signal
~ASCII Log Data
# ...
   800.50     2.3014     0.9700     2.3565   300.0000     5.2827     1.5323     5.6390     2.5760  -530.6667   222.6840   234.8040
   800.60     2.3442     1.0880     2.3632   306.7000     5.0026     1.5504     4.6550     2.5320  -530.3333   225.3530   249.1790
   800.70     2.3335     0.8920     2.3582   316.7000     4.9467     1.5867     4.0820     2.5970  -529.3336   227.3540   257.8320
   800.80     2.3227     1.0480     2.4589   323.3000     4.9840     1.6184     3.6930     2.6740  -529.3336   228.0220   261.8420
   800.90     2.4434     1.4400     2.4472   320.0000     4.9839     1.6819     3.5850     2.7290  -529.9997   228.0220   263.0140
   801.00     2.6424     1.7140     2.5299   310.0000     4.6294     1.7272     3.4980     2.8390  -531.6669   220.6830   260.5360
   801.10     2.7925     1.5570     2.4355   293.3000     4.4240     1.7272     3.5090     2.9920  -529.0000   220.6830   256.7500
   801.20     2.7925     1.0880     2.3777   280.0000     4.1813     1.7317     3.5740     3.1460  -526.0011   225.3530   252.8300
   801.30     2.7416     1.0480     2.4610   273.3000     3.9201     1.7272     3.6820     3.2770  -521.6664   226.6870   249.5850
   801.40     2.6122     1.1270     2.3992   276.7000     3.7520     1.7227     3.8440     3.3430  -517.6678   224.0180   246.2050
   801.50     2.5235     1.0480     2.4489   283.3000     3.8452     1.6637     4.0280     3.3320  -516.3331   224.6860   243.7720
   801.60     2.4889     1.0880     2.5247   286.7000     4.2001     1.6071     4.0170     3.2550  -515.6667   222.0170   242.6000
   801.70     2.4434     1.0090     2.4596   286.7000     4.2560     1.6071     3.9740     3.1900  -518.3333   222.0170   241.6990
   801.80     2.3335     1.1270     2.4164   290.0000     4.2187     1.6365     3.9090     3.1350  -517.6664   221.3500   242.6900
   801.90     2.2751     0.9700     2.3981   300.0000     4.1814     1.6977     3.7900     3.0800  -518.0000   221.3500   244.8530
   802.00     2.1979     0.7740     2.4405   316.7000     4.1254     1.6977     3.6600     3.0140  -519.6675   222.0170   246.5200
   802.10     2.1627     1.0090     2.4491   336.7000     3.9946     1.6932     3.6390     3.0030  -520.3333   222.6840   248.5480
   802.20     2.1928     0.8130     2.3518   346.7000     3.7520     1.6796     3.5090     2.9260  -521.3336   221.3500   250.8470
   802.30     2.2491     0.9310     2.4314   356.7000     3.9199     1.7589     3.4660     2.8940  -520.3336   220.6830   252.9200
   802.40     2.3281     0.9700     2.4596   353.3000     3.9574     1.7589     3.4010     2.8940  -521.9999   221.3500   255.3530
   802.50     2.3768     1.0480     2.3774   353.3000     4.0507     1.7068     3.3030     2.9050  -522.3336   220.6830   256.3450
   802.60     2.4155     1.2050     2.3624   350.0000     3.9200     1.6433     3.1630     2.9150  -524.0000   220.0150   256.0740
   802.70     2.4378     1.1660     2.4145   346.7000     4.1253     1.6207     3.0660     2.9810  -524.9997   222.0170   255.0830
   802.80     2.4547     1.1660     2.5005   330.0000     4.3306     1.5935     3.0220     3.0360  -524.6663   223.3510   253.0550
   802.90     2.5468     1.2830     2.4574   310.0000     4.7601     1.5753     3.0010     3.1130  -522.0008   223.3510   249.4950
   803.00     2.6424     1.0880     2.5186   296.7000     4.8906     1.5912     2.9360     3.1680  -517.9992   223.3510   246.5660
   803.10     2.6242     1.1660     2.3649   293.3000     4.9653     1.6139     2.9030     3.2550  -515.6667   222.0170   244.2220
   803.20     2.6182     1.4400     2.3993   293.3000     4.9653     1.6184     2.9030     3.3430  -515.3330   223.3510   242.4650
   803.30     2.6915     1.1660     2.4609   290.0000     5.1333     1.6343     2.9250     3.3760  -516.3336   224.0180   240.3470
   803.40     2.7164     1.2050     2.4398   286.7000     5.3200     1.6932     2.9360     3.4310  -516.3336   222.0170   238.3190
   803.50     2.7416     1.0880     2.5275   280.0000     5.2081     1.7091     2.9360     3.4530  -516.6667   221.3500   235.3900
   803.60     2.7669     1.1660     2.5942   270.0000     4.9279     1.6660     3.0440     3.4750  -520.0000   220.6830   233.1810
   803.70     2.8249     1.0880     2.6181   263.3000     4.7973     1.6411     3.0550     3.4750  -524.3323   222.0170   231.0630
   803.80     2.8445     1.2050     2.5312   263.3000     4.8906     1.5776     3.0660     3.5190  -528.6671   219.3480   229.2160
   803.90     2.8184     1.3220     2.5052   270.0000     5.0960     1.5731     3.1090     3.5630  -529.9997   219.3480   228.1790
   804.00     2.8379     1.2830     2.5093   276.7000     5.3386     1.5617     3.1300     3.5950  -533.6675   220.0150   227.9090
   804.10     2.8379     1.0880     2.4175   283.3000     5.6934     1.5912     3.1090     3.6280  -539.0000   221.3500   227.3680
   804.20     2.8314     1.1660     2.4451   290.0000     6.0107     1.6003     3.1090     3.6830  -541.9999   222.0170   226.8270
   804.30     2.7669     1.0880     2.3959   296.7000     5.8055     1.5640     3.1840     3.6500  -545.0001   224.0180   227.2780
   804.40     2.6424     1.3220     2.3687   300.0000     5.2638     1.4960     3.1740     3.6830  -544.9993   224.0180   228.5850
   804.50     2.5410     1.0480     2.4113   296.7000     4.7600     1.4439     3.1840     3.6610  -548.3336   224.6860   230.0270
   804.60     2.4774     1.0090     2.4309   293.3000     4.5173     1.4778     3.1090     3.6280  -547.3333   222.0170   232.2800
   804.70     2.4434     1.1270     2.4179   290.0000     4.4053     1.5436     3.0440     3.6060  -545.3342   222.0170   235.0740
   804.80     2.4491     1.2050     2.4793   293.3000     4.4240     1.6116     2.9680     3.6170  -540.6658   224.0180   238.7240
   804.90     2.4547     1.1270     2.4278   296.7000     4.4427     1.6207     2.8710     3.5950  -535.0013   220.6830   242.1040
   805.00     2.5003     1.1660     2.4640   300.0000     4.3307     1.6637     2.8170     3.5950  -532.9999   222.6840   245.8900
   805.10     2.5704     1.0880     2.4893   303.3000     4.3120     1.6660     2.7410     3.6170  -533.6667   222.0170   249.1790
   805.20     2.6062     1.3620     2.4380   306.7000     4.3680     1.6660     2.6980     3.6830  -535.6667   223.3510   250.8920
   805.30     2.5351     1.4790     2.4053   306.7000     4.5174     1.6456     2.6760     3.7930  -536.6667   222.0170   251.2970
   805.40     2.5061     1.1270     2.4018   303.3000     4.4800     1.6433     2.6760     3.9020  -534.6669   220.0150   251.9280
   805.50     2.4547     0.8530     2.4082   303.3000     4.5173     1.5935     2.6980     3.9790  -531.9988   224.0180   252.0630
   805.60     2.3988     0.8530     2.4539   306.7000     4.7787     1.5527     2.7190     4.1220  -527.3333   220.6830   251.9280
   805.70     2.3281     0.9310     2.3814   310.0000     4.8347     1.5187     2.7630     4.1440  -524.6669   221.3500   252.2440
   805.80     2.2594     0.9700     2.3954   306.7000     4.8161     1.5391     2.7090     4.0450  -525.3337   220.6830   253.9110
   805.90     2.2182     1.0480     2.4031   303.3000     4.6106     1.5640     2.7190     3.9900  -525.9998   222.6840   256.1190
   806.00     2.2284     0.9700     2.4263   303.3000     4.5920     1.5595     2.6440     3.9460  -524.6658   221.3500   258.1470
   806.10     2.2336     1.0480     2.4414   303.3000     4.6107     1.4983     2.5680     3.9020  -522.6667   221.3500   259.4540
   806.20     2.1979     0.9700     2.4512   300.0000     4.7040     1.4733     2.5250     3.8480  -520.6667   220.6830   259.7690
   806.30     2.1979     0.8530     2.4362   296.7000     4.8160     1.4915     2.4920     3.8260  -519.3327   216.0120   259.9050
   806.40     2.2080     1.0480     2.3220   293.3000     4.9280     1.5028     2.4060     3.8700  -518.6667   220.6830   260.2650
   806.50     2.2491     0.9310     2.3828   293.3000     4.9840     1.5096     2.3840     3.9680  -518.3336   221.3500   259.4090
   806.60     2.3067     1.2440     2.4862   286.7000     5.0027     1.4847     2.3520     4.1220  -518.6667   216.6790   258.5980
