~Version information
  VERS.                            1.20: CWLS LAS  -  VERSION 1.20
  WRAP.                              NO: One line per depth step
~Well information
# MNEM.UNIT
# ====.================================:===================
  STRT.M                           0.70: First depth in file
  STOP.M                         858.30: Last depth in file
  STEP.M                           0.10: Depth increment
  NULL.                           -9999: Null values
  COMP.                         COMPANY: TOO "C.I.O.C."
  WELL.                            WELL: 1-KN
  FLD .                           FIELD: KARATUBE
  DATE.                        LOG DATE: 22/11/2003
  SRVC.                 SERVICE COMPANY: AFGIS OJSC"Kazpromgeophysica"
  UWI.           Unique Well Identifier: 
~Parametr information block
# MNEM.UNIT
# ====.================================:===================
~Other information
# ------------------------- REMARKS  AREA ------------------
~Curve information
# MNEM.UNIT
# ====.================================:===================
  DEPT.M                               : Depth curve
LL3 .ohmm                              : Appar.resistivity,laterolog,3electrodes
MLL .ohmm                              : Microlaterolog sonde
RHOB.g/c3                              : Bulk density by DGGL
DTP .us/m                              : Interval travel time (P)
GR  .ur/h                              : Gamma Ray
NGLD.stdu                              : Neutron-gamma log
GZ3 .ohmm                              : App.resistivity by lateral A2M05N
GZ3B.ohmm                              : App.resistivity by lateral N05M2A
SP  .mv                                : Spontaneous potential
CALI.mm                                : Caliper
ILA .mmho                              : IL sonde 7l1.6, active signal
~ASCII Log Data
# ...
   564.90     1.9364     1.0090     2.1306   436.7000    10.9573     1.0789     2.0170     2.0820  -543.9996   219.3480   270.2240
   565.00     1.8836     1.0880     2.0894   436.7000    10.5281     1.1084     2.0270     2.0380  -547.6679   218.6810   269.5480
   565.10     1.9011     1.0880     2.1146   436.7000    10.4720     1.1265     2.0270     2.0380  -549.6667   218.6810   269.6390
   565.20     1.8880     1.0090     2.1198   440.0000    10.4160     1.0744     2.0060     1.9500  -548.6677   221.3500   268.8270
   565.30     1.8880     0.9700     2.1646   440.0000    10.8266     1.0495     1.9620     1.9940  -546.6667   221.3500   267.3400
   565.40     1.8967     1.1660     2.1979   440.0000    10.8640     1.0313     1.9730     1.9500  -543.6672   220.6830   266.7090
   565.50     1.9055     1.1660     2.1510   440.0000    10.7334     1.0517     1.9950     1.9500  -541.3322   220.6830   269.2330
   565.60     1.8664     1.0480     2.0578   440.0000    10.4907     1.0404     2.0060     1.9830  -539.3333   218.6810   269.9990
   565.70     1.8578     1.0480     2.1017   440.0000    10.7520     1.0495     2.0170     1.9720  -540.3328   217.3470   271.0360
   565.80     1.9187     1.0880     2.1359   436.7000    11.1439     1.0971     2.0270     1.9500  -543.0003   220.0150   271.2160
   565.90     1.9011     1.1270     2.0549   433.3000    10.8638     1.1356     2.0380     1.8960  -542.3336   218.0140   269.9540
   566.00     1.9187     1.1270     2.1158   430.0000    10.5841     1.1515     2.0060     1.9500  -543.3333   218.0140   274.4150
   566.10     1.9187     1.0880     2.1756   430.0000    10.6215     1.1220     1.9950     1.9500  -543.0000   220.0150   279.1470
   566.20     1.9011     1.0880     2.1662   430.0000    11.1440     1.1016     2.0170     1.9720  -544.0002   221.3500   277.7950
   566.30     1.8793     1.0480     2.1137   430.0000    11.2561     1.0517     2.0600     2.0160  -545.0004   221.3500   274.5060
   566.40     1.8578     1.1270     2.1102   430.0000    11.2934     1.0200     2.1030     2.0600  -542.6673   221.3500   271.2610
   566.50     1.8664     1.0090     2.1969   430.0000    11.5172     1.0155     2.1460     2.0490  -540.9990   220.0150   265.6280
   566.60     1.8664     1.0090     2.1990   430.0000    11.4986     1.0835     2.1030     2.1040  -536.6667   218.6810   262.7890
   566.70     1.8493     1.0480     2.1665   433.3000    11.1440     1.1447     2.1140     2.1590  -537.3333   220.6830   265.7630
   566.80     1.8239     1.1270     2.1435   433.3000    10.7893     1.1379     2.1350     2.2140  -538.3339   219.3480   265.4480
   566.90     1.8072     1.1270     2.0289   433.3000    10.7520     1.1197     2.1460     2.2360  -539.3334   214.6780   264.7270
   567.00     1.7947     1.2050     2.0102   426.7000    10.4535     1.1129     2.2110     2.2030  -535.6653   216.6790   264.9070
   567.10     1.7660     1.2440     2.0433   423.3000    10.3226     1.1152     2.2650     2.1590  -530.6667   218.6810   261.3020
   567.20     1.6331     1.1270     2.0661   420.0000    10.3600     1.1311     2.2110     2.0160  -520.3354   218.0140   263.2390
   567.30     1.5346     0.9310     2.0193   426.7000    10.3041     1.1152     2.1350     1.9280  -510.3305   218.6810   269.1430
   567.40     1.5171     0.9700     2.0422   433.3000     9.8745     1.1537     2.0380     1.7860  -497.3354   219.3480   276.6240
   567.50     1.5560     0.9700     2.0548   440.0000     9.2587     1.1469     1.9080     1.6540  -488.9984   219.3480   284.5100
   567.60     1.5631     0.9700     2.0448   436.7000     9.1653     1.1673     1.7030     1.5670  -480.0000   220.6830   288.4310
   567.70     1.5382     1.0880     1.9713   433.3000     9.1840     1.1583     1.5950     1.5670  -473.6681   216.6790   292.7120
   567.80     1.5346     0.9700     1.9827   430.0000     9.1280     1.1537     1.5300     1.5010  -468.6663   220.6830   301.4090
   567.90     1.4859     0.9310     2.0033   433.3000     9.2587     1.1447     1.4540     1.4790  -467.6667   219.3480   305.7350
   568.00     1.4622     0.8920     2.0315   436.7000     8.8667     1.1673     1.4220     1.4680  -466.9999   214.6780   308.4390
   568.10     1.4622     1.0090     2.0169   440.0000     8.8106     1.1628     1.4110     1.4570  -465.6667   216.6790   309.8810
   568.20     1.4622     0.8530     2.0311   440.0000     8.4747     1.1152     1.3890     1.4570  -463.6671   214.6780   311.9540
   568.30     1.4825     1.0480     1.9851   436.7000     8.5680     1.0699     1.3460     1.4460  -461.6664   216.0120   320.4260
   568.40     1.4655     0.9310     1.9596   436.7000     8.4373     1.0721     1.3350     1.4570  -461.0001   217.3470   324.9330
   568.50     1.4158     0.8530     1.9486   440.0000     8.3440     1.1152     1.3030     1.5670  -461.6671   216.6790   322.8600
   568.60     1.4894     0.8130     1.8692   446.7000     8.4374     1.1243     1.3030     1.6100  -466.0000   216.0120   320.6970
   568.70     1.6482     1.0090     1.9129   446.7000     8.7920     1.1016     1.3240     1.6760  -471.9985   214.6780   314.2530
   568.80     1.8450     1.2050     2.0434   440.0000     9.5385     1.0721     1.3780     1.7860  -482.0021   218.0140   303.0310
   568.90     1.9099     1.2050     2.0548   430.0000    10.0241     1.0676     1.4540     1.9390  -493.3305   217.3470   296.3170
   569.00     1.9320     1.2050     2.0936   423.3000    10.2667     1.0948     1.6270     2.1040  -506.6692   218.0140   294.4690
   569.10     1.9364     1.2050     2.0627   423.3000    10.2667     1.0948     1.7250     2.1590  -514.3333   214.6780   288.3400
   569.20     1.9275     1.2050     2.1172   423.3000    10.3787     1.1084     1.8220     2.1370  -515.6675   216.6790   282.6620
   569.30     1.8664     1.2050     2.1430   426.7000    10.8266     1.1175     1.8650     2.0930  -512.9994   218.0140   281.1300
   569.40     1.8880     1.1660     2.1073   426.7000    11.0881     1.1288     1.8870     2.0600  -512.6661   214.6780   278.5610
   569.50     1.8967     1.3220     2.0852   430.0000    10.9948     1.1333     1.8760     2.0710  -516.3345   217.3470   275.2720
   569.60     1.8707     1.2440     2.0746   430.0000    10.3038     1.0971     1.8650     2.0380  -519.0000   216.6790   274.7760
   569.70     1.9055     1.2050     2.0722   426.7000    10.1920     1.0812     1.8330     2.0270  -518.3342   216.0120   277.8850
   569.80     1.9231     1.2050     2.0847   426.7000    10.1919     1.0971     1.8330     2.0710  -518.0002   219.3480   278.7420
   569.90     1.9143     1.2440     2.1221   430.0000    10.0985     1.1175     1.8110     2.0710  -520.3321   219.3480   279.1920
   570.00     1.9231     1.2050     2.1277   436.7000     9.8000     1.1288     1.8000     2.0820  -523.3336   219.3480   278.9670
   570.10     1.8578     1.2440     2.1500   440.0000    10.1362     1.0971     1.8110     2.1040  -524.0000   216.0120   275.9480
   570.20     1.8578     1.1270     2.0858   440.0000    10.7893     1.0721     1.8110     2.0380  -524.9994   217.3470   273.6040
   570.30     1.8535     1.0880     2.0896   440.0000    11.3679     1.0835     1.7890     1.9940  -528.3344   216.6790   274.7310
   570.40     1.8578     1.1660     2.1433   440.0000    11.4427     1.0993     1.7570     1.9940  -530.0001   223.3510   276.3980
   570.50     1.8793     1.0880     2.1811   443.3000    11.2935     1.1084     1.6810     1.9500  -527.3321   222.0170   276.7140
   570.60     1.8836     1.1660     2.1561   443.3000    11.0506     1.0676     1.6600     1.9280  -522.0000   221.3500   277.7500
   570.70     1.8750     1.1270     2.1473   443.3000    11.0693     1.0495     1.6700     1.9390  -519.3334   222.6840   277.6150
   570.80     1.8707     1.1660     2.1391   440.0000    11.2746     1.0449     1.6920     1.8960  -520.0006   225.3530   276.5330
   570.90     1.8967     1.2050     2.1782   436.7000    11.2186     1.0744     1.6380     1.8740  -524.3323   222.6840   279.3270
   571.00     1.9275     1.2050     2.1621   430.0000    10.9014     1.0835     1.6060     1.9390  -530.6683   226.0200   283.9240
