~Version information
  VERS.                            1.20: CWLS LAS  -  VERSION 1.20
  WRAP.                              NO: One line per depth step
~Well information
# MNEM.UNIT
# ====.================================:===================
  STRT.M                           0.70: First depth in file
  STOP.M                         858.30: Last depth in file
  STEP.M                           0.10: Depth increment
  NULL.                           -9999: Null values
  COMP.                         COMPANY: TOO "C.I.O.C."
  WELL.                            WELL: 1-KN
  FLD .                           FIELD: KARATUBE
  DATE.                        LOG DATE: 22/11/2003
  SRVC.                 SERVICE COMPANY: AFGIS OJSC"Kazpromgeophysica"
  UWI.           Unique Well Identifier: 
~Parametr information block
# MNEM.UNIT
# ====.================================:===================
~Other information
# ------------------------- REMARKS  AREA ------------------
~Curve information
# MNEM.UNIT
# ====.================================:===================
  DEPT.M                               : Depth curve
LL3 .ohmm                              : Appar.resistivity,laterolog,3electrodes
MLL .ohmm                              : Microlaterolog sonde
RHOB.g/c3                              : Bulk density by DGGL
DTP .us/m                              : Interval travel time (P)
GR  .ur/h                              : Gamma Ray
NGLD.stdu                              : Neutron-gamma log
GZ3 .ohmm                              : App.resistivity by lateral A2M05N
GZ3B.ohmm                              : App.resistivity by lateral N05M2A
SP  .mv                                : Spontaneous potential
CALI.mm                                : Caliper
ILA .mmho                              : IL sonde 7l1.6, active signal
~ASCII Log Data
# ...
   757.10     3.7154     2.5370     2.4428   283.3000     6.6641     1.4212     2.5250     3.0580  -496.3333   250.7060   239.6710
   757.20     3.2359     2.4970     2.5054   250.0000     6.9627     1.4212     2.6440     3.2660  -496.6666   250.0380   239.3100
   757.30     2.5823     1.7920     2.3691   213.3000     7.4292     1.3895     2.8490     3.5080  -498.6672   248.7040   236.7410
   757.40     2.2080     1.2440     2.4128   216.7000     8.0269     1.3781     3.0330     3.7490  -501.9990   242.7000   233.8120
   757.50     1.9724     1.0090     2.3943   253.3000     8.8105     1.3872     3.3030     3.7930  -505.6673   242.7000   232.3700
   757.60     1.7783     0.7350     2.3306   333.3000     9.3147     1.3827     3.3790     3.7380  -508.0000   224.6860   233.8570
   757.70     1.8030     0.7350     2.3229   396.7000     9.1840     1.3532     3.3470     3.5630  -506.3340   229.3560   240.3920
   757.80     1.7989     0.6180     2.3173   436.7000     8.8481     1.3328     3.1630     3.3320  -499.9980   250.7060   250.2160
   757.90     1.8030     0.6570     2.2944   420.0000     8.4186     1.3691     2.9030     3.1020  -492.3350   242.7000   257.5610
   758.00     1.8578     0.8130     2.3067   393.3000     8.0081     1.3645     2.6110     2.9050  -486.6663   242.7000   264.8620
   758.10     1.9770     0.7350     2.3659   376.7000     7.4852     1.3260     2.2650     2.6410  -483.6667   228.0220   271.0360
   758.20     2.0941     0.9310     2.3462   370.0000     7.2240     1.2920     1.9730     2.5970  -484.3330   251.3730   274.2350
   758.30     2.2131     1.0480     2.3779   333.3000     7.0933     1.3147     2.0060     2.5970  -484.3338   258.0450   273.0640
   758.40     2.3768     0.9700     2.3992   330.0000     7.0746     1.3623     2.0170     2.7070  -486.6668   268.0520   270.2700
   758.50     2.5293     1.5570     2.4452   296.7000     6.7200     1.3668     2.1030     2.8940  -487.0004   256.7100   264.9070
   758.60     2.2961     0.8920     2.3697   306.7000     6.5520     1.3668     2.2220     3.0800  -489.3333   261.3810   256.6600
   758.70     2.1281     0.8130     2.3958   293.3000     6.6080     1.3827     2.3630     3.2230  -491.9994   269.3870   252.5590
   758.80     2.1478     0.8530     2.5170   313.3000     6.8692     1.3849     2.4920     3.1570  -494.3337   234.0260   249.6300
   758.90     2.2491     0.8920     2.4436   320.0000     7.0934     1.3328     2.6330     3.1350  -494.3336   239.3640   247.3320
   759.00     2.2387     0.9700     2.3304   320.0000     6.9814     1.2943     2.6980     3.1020  -492.9995   221.3500   245.2140
   759.10     2.0606     0.9310     2.3604   323.3000     6.7199     1.2739     2.6980     3.0470  -491.6667   220.6830   243.5010
   759.20     1.9953     0.6570     2.3246   330.0000     6.6267     1.2943     2.6110     2.9370  -491.3333   233.3590   244.8530
   759.30     2.0137     0.6570     2.3493   336.7000     6.9066     1.3011     2.5250     2.7950  -492.0001   236.0280   246.6110
   759.40     2.0324     0.8920     2.3895   346.7000     7.1680     1.3260     2.4600     2.6960  -491.6667   235.3610   246.3400
   759.50     1.9770     0.6960     2.4199   366.7000     7.3173     1.3396     2.4380     2.6740  -492.6668   241.3650   247.5120
   759.60     1.8923     0.6180     2.3126   376.7000     7.1680     1.3283     2.5030     2.5430  -494.0000   244.7010   252.1080
   759.70     1.9543     0.7740     2.3015   386.7000     6.9627     1.3169     2.4710     2.5430  -495.3332   229.3560   256.7500
   759.80     2.1478     1.0480     2.3673   373.3000     6.6827     1.3169     2.4920     2.5650  -493.3324   227.3540   259.2740
   759.90     2.3768     1.2050     2.4409   353.3000     6.5893     1.3419     2.5570     2.5970  -491.3337   225.3530   259.7690
   760.00     2.3878     1.0480     2.4423   323.3000     6.7199     1.3464     2.6110     2.6740  -492.0009   234.0260   259.1840
   760.10     2.2233     1.1660     2.4007   310.0000     6.5519     1.3555     2.6550     2.7950  -495.6667   235.3610   257.8770
   760.20     2.0654     0.9310     2.4706   316.7000     6.5147     1.3305     2.7840     2.8720  -497.9999   230.6900   255.8490
   760.30     1.9999     0.7350     2.4385   333.3000     6.5705     1.3441     2.9030     2.9590  -498.3332   223.3510   253.2800
   760.40     2.0464     0.9310     2.2854   353.3000     7.0748     1.3849     2.9030     2.9590  -496.3338   231.3570   251.7480
   760.50     2.1330     0.9310     2.3578   370.0000     7.2613     1.4099     2.7950     2.9050  -492.9990   236.6950   250.7570
   760.60     2.2646     0.8920     2.4447   370.0000     7.0186     1.4076     2.6760     2.8390  -489.6667   246.7030   251.2970
   760.70     2.4322     1.0480     2.4322   350.0000     6.6827     1.3623     2.5680     2.8280  -487.0003   251.3730   254.3620
   760.80     2.5586     1.4010     2.4334   326.7000     6.6453     1.3305     2.5250     2.9370  -488.3337   242.7000   257.1560
   760.90     2.4660     1.0090     2.4761   313.3000     6.8321     1.3033     2.5790     3.1020  -489.3327   248.7040   256.5250
   761.00     2.4266     0.9700     2.4866   310.0000     6.9627     1.2693     2.6330     3.1350  -491.3332   240.6980   256.5250
   761.10     2.5293     1.1270     2.5731   310.0000     6.6452     1.2557     2.8280     3.1790  -491.6667   239.3640   254.2720
   761.20     2.4434     1.1660     2.5536   303.3000     6.4587     1.2467     2.9360     3.2340  -492.9996   249.3710   249.7200
   761.30     2.2387     1.0090     2.4182   300.0000     6.1973     1.2376     2.9570     3.2230  -494.3335   227.3540   247.7370
   761.40     2.0797     0.8920     2.3737   310.0000     6.2906     1.1923     2.9570     3.1240  -496.9994   210.6750   247.5570
   761.50     1.9055     0.6960     2.4151   330.0000     6.4586     1.1923     2.9570     3.0470  -497.0000   230.0230   247.4670
   761.60     1.7498     0.6180     2.2883   350.0000     6.9815     1.1855     2.9470     2.8830  -495.6667   233.3590   250.3510
   761.70     1.7906     0.6960     2.2710   356.7000     7.2427     1.2081     2.9250     2.7510  -491.3340   234.0260   256.2090
   761.80     1.8578     0.8530     2.3260   363.3000     7.2427     1.1968     2.7520     2.5760  -490.6669   236.0280   260.8960
   761.90     1.7947     0.8130     2.2835   373.3000     7.4481     1.1945     2.5900     2.5320  -491.9993   248.7040   262.4730
   762.00     1.6672     0.6570     2.2779   390.0000     7.8025     1.2195     2.4380     2.5100  -493.3332   235.3610   267.1600
   762.10     1.6032     0.6180     2.3544   410.0000     8.1573     1.2172     2.3730     2.4990  -491.0000   226.6870   272.5230
   762.20     1.7100     0.6960     2.3734   416.7000     8.0453     1.2693     2.3300     2.5540  -487.3341   229.3560   276.8490
   762.30     1.9231     0.7740     2.3947   410.0000     8.1013     1.3124     2.2870     2.5540  -486.0002   232.6920   281.3550
   762.40     2.1281     0.8530     2.4181   386.7000     8.1947     1.3441     2.2650     2.6520  -489.3321   230.0230   282.6170
   762.50     2.2336     0.8530     2.3917   366.7000     8.3440     1.3419     2.2650     2.7950  -493.6676   230.0230   281.4910
   762.60     2.2080     1.0480     2.3935   350.0000     8.3253     1.3351     2.2650     2.9150  -497.6667   232.6920   277.5250
   762.70     2.2080     1.0090     2.3488   343.3000     8.1947     1.3713     2.2650     2.9810  -501.3323   229.3560   270.9910
   762.80     2.2646     1.1270     2.3916   340.0000     8.2133     1.3985     2.2760     2.9920  -505.3343   236.0280   263.0140
   762.90     2.4155     1.2440     2.4479   340.0000     8.1387     1.4688     2.2980     2.9810  -508.3331   250.0380   256.4350
   763.00     2.4660     1.0880     2.4407   340.0000     8.2507     1.4915     2.3190     3.0140  -508.3331   256.0430   250.8020
   763.10     2.5119     1.1270     2.4985   333.3000     8.0826     1.4824     2.3520     3.0360  -507.3333   257.3770   246.2950
   763.20     2.7164     1.4400     2.4462   313.3000     8.2693     1.4076     2.4270     3.1240  -507.9996   244.0340   241.1130
