~Version information
  VERS.                            1.20: CWLS LAS  -  VERSION 1.20
  WRAP.                              NO: One line per depth step
~Well information
# MNEM.UNIT
# ====.================================:===================
  STRT.M                           0.70: First depth in file
  STOP.M                         858.30: Last depth in file
  STEP.M                           0.10: Depth increment
  NULL.                           -9999: Null values
  COMP.                         COMPANY: TOO "C.I.O.C."
  WELL.                            WELL: 1-KN
  FLD .                           FIELD: KARATUBE
  DATE.                        LOG DATE: 22/11/2003
  SRVC.                 SERVICE COMPANY: AFGIS OJSC"Kazpromgeophysica"
  UWI.           Unique Well Identifier: 
~Parametr information block
# MNEM.UNIT
# ====.================================:===================
~Other information
# ------------------------- REMARKS  AREA ------------------
~Curve information
# MNEM.UNIT
# ====.================================:===================
  DEPT.M                               : Depth curve
LL3 .ohmm                              : Appar.resistivity,laterolog,3electrodes
MLL .ohmm                              : Microlaterolog sonde
RHOB.g/c3                              : Bulk density by DGGL
DTP .us/m                              : Interval travel time (P)
GR  .ur/h                              : Gamma Ray
NGLD.stdu                              : Neutron-gamma log
GZ3 .ohmm                              : App.resistivity by lateral A2M05N
GZ3B.ohmm                              : App.resistivity by lateral N05M2A
SP  .mv                                : Spontaneous potential
CALI.mm                                : Caliper
ILA .mmho                              : IL sonde 7l1.6, active signal
~ASCII Log Data
# ...
   515.30     2.5410    17.8100     1.8343   333.3000     7.5601     0.9543     1.4760     2.8830  -444.3328   218.6810   282.9780
   515.40     1.9953     1.3220     1.7279   373.3000     7.8028     0.9203     1.5620     3.1020  -451.6667   216.6790   275.4520
   515.50     1.6904     0.8920     1.8491   440.0000     8.3811     0.8976     1.7140     3.2770  -461.6667   217.3470   271.5760
   515.60     1.8578     0.9700     1.8959   486.7000     9.4455     0.9520     1.8430     3.2990  -474.6667   218.0140   267.3400
   515.70     2.0941     1.3220     1.9229   503.3000    10.1547     1.0359     1.9520     3.2660  -486.6679   218.6810   260.8960
   515.80     2.1577     1.2830     2.0906   486.7000    10.4160     1.1039     2.0710     3.3760  -494.3330   218.6810   256.0290
   515.90     2.1928     1.3220     2.1447   466.7000    10.4533     1.1492     2.1680     3.2660  -495.0000   220.0150   256.9750
   516.00     2.2029     1.3220     2.1345   453.3000     9.7442     1.1560     2.1140     3.1240  -489.3333   220.0150   259.7690
   516.10     2.2131     1.3220     2.1794   443.3000     9.0718     1.1424     2.1030     2.9810  -481.0000   217.3470   262.0680
   516.20     2.2387     1.2830     2.1772   440.0000     8.5680     1.1537     2.1030     2.8060  -471.9991   220.0150   264.4110
   516.30     2.1528     1.2830     2.1888   440.0000     8.6426     1.1855     2.0710     2.6300  -463.3341   216.6790   267.9260
   516.40     2.2131     1.4010     2.1817   436.7000     8.9414     1.1968     1.8650     2.4660  -457.0000   218.0140   271.2160
   516.50     2.2080     1.3620     2.1712   436.7000     8.8667     1.1379     1.6920     2.3890  -453.6667   218.6810   273.6490
   516.60     2.2029     1.4400     2.2067   436.7000     9.0720     1.1061     1.6060     2.2790  -452.6667   218.6810   274.1000
   516.70     2.2182     1.4010     2.1794   443.3000     9.3893     1.1084     1.5730     2.2250  -453.6667   216.6790   274.0550
   516.80     2.2491     1.3220     2.1811   443.3000     9.5387     1.1333     1.5510     2.2250  -453.3333   217.3470   275.0910
   516.90     2.2751     1.4010     2.1924   443.3000     9.5199     1.1243     1.5190     2.2360  -453.6667   220.6830   275.4290
   517.00     2.3281     1.5180     2.1530   440.0000     9.6505     1.1016     1.5620     2.2460  -454.6667   222.6840   275.7670
   517.10     2.4099     1.5570     2.1426   440.0000    10.1735     1.0517     1.6060     2.3010  -455.6667   219.3480   273.3340
   517.20     2.4831     1.5570     2.1830   436.7000    10.4160     1.0449     1.6490     2.3670  -460.3338   222.0170   268.4220
   517.30     2.5293     1.4790     2.2152   433.3000    10.3414     1.0381     1.7250     2.5100  -461.9996   220.6830   263.9150
   517.40     2.6122     1.6360     2.2615   426.7000    10.0053     1.0177     1.8330     2.6410  -465.6667   220.6830   258.5530
   517.50     2.5293     2.1840     2.2784   423.3000     9.8560     1.0223     1.9840     2.9150  -465.3336   223.3510   252.7840
   517.60     2.3659     1.4400     2.2483   426.7000     9.5573     1.0630     2.1790     3.1570  -469.6667   220.6830   248.7290
   517.70     2.2961     1.5180     2.2181   433.3000     9.8187     1.0880     2.4600     3.3320  -472.3324   224.0180   245.0330
   517.80     2.2491     1.4400     2.1484   440.0000    10.5651     1.0381     2.6650     3.3430  -480.6682   225.3530   242.0140
   517.90     2.3442     1.5180     2.1328   443.3000    11.1254     0.9384     2.8060     3.3100  -483.3324   226.6870   243.2310
   518.00     2.3933     1.6360     2.0980   450.0000    11.2001     0.8908     2.8280     3.2120  -486.9995   224.0180   245.4840
   518.10     2.3823     1.5180     1.9133   466.7000    10.5279     0.8681     2.6870     3.0580  -487.0000   218.0140   248.1430
   518.20     2.4210     1.3620     1.5640   483.3000     9.6320     0.8545     2.5030     2.9920  -489.3328   218.0140   252.0180
   518.30     2.4946     1.3220     1.3798   496.7000     8.2510     0.8795     2.4170     3.0470  -493.6675   217.3470   252.8300
   518.40     2.6792     1.4790     1.3730   493.3000     6.8691     0.9180     2.4490     3.2010  -499.9981   219.3480   249.7650
   518.50     2.8119     1.9880     1.3794   486.7000     5.9548     0.9701     2.4920     3.3320  -504.0004   214.6780   244.8980
   518.60     2.7164     1.9100     1.4961   480.0000     5.5439     0.9883     2.5790     3.5950  -507.3333   218.0140   240.5720
   518.70     2.3605     1.7140     1.6514   476.7000     5.6373     0.9905     2.6760     3.6610  -507.9991   217.3470   237.5080
   518.80     2.2182     1.1660     1.9227   470.0000     6.4211     1.0381     2.7740     3.6610  -505.9988   219.3480   236.5610
   518.90     2.2751     1.2050     2.1319   463.3000     7.8964     1.0585     2.8280     3.5300  -502.0015   218.0140   234.5330
   519.00     2.3067     1.5970     2.1317   453.3000     9.0532     1.0744     2.8380     3.3100  -499.3340   218.6810   233.9930
   519.10     2.2131     1.3620     2.1769   443.3000     9.7254     1.0449     2.6550     3.0690  -497.0000   217.3470   240.2570
   519.20     2.0797     1.4010     2.1262   436.7000     9.5760     1.0517     2.4710     2.6960  -488.6699   220.0150   251.3870
   519.30     2.0324     1.3620     2.1192   433.3000     9.5014     1.0925     2.2760     2.4110  -474.6638   215.3450   261.0760
   519.40     2.0230     1.3220     2.0769   436.7000     9.3147     1.1039     2.1250     2.2460  -462.0020   215.3450   269.5030
   519.50     2.0417     1.3220     2.0514   436.7000     9.2960     1.1220     1.9840     2.0930  -453.6651   218.0140   276.6240
   519.60     2.0606     1.3620     2.0735   440.0000     9.3520     1.0857     1.8540     2.0050  -446.0000   218.0140   279.1470
   519.70     1.9679     1.4010     2.0315   440.0000     9.5013     1.1084     1.7570     1.9610  -443.3336   216.0120   281.8510
   519.80     1.9364     1.2830     2.0244   440.0000     9.4640     1.1107     1.6810     1.9720  -442.6673   218.0140   285.7270
   519.90     1.9099     1.2830     2.0861   440.0000     8.9972     1.1152     1.6700     1.9720  -444.3333   218.0140   288.5660
   520.00     1.8967     1.2830     2.0889   440.0000     8.7360     1.0835     1.7140     1.9610  -441.6657   216.0120   290.5940
   520.10     1.8880     1.2440     2.1192   440.0000     8.6241     1.0495     1.7790     1.9390  -438.0000   216.6790   293.2070
   520.20     1.9187     1.2050     2.1013   440.0000     9.0533     1.0472     1.8000     1.9390  -435.0001   217.3470   295.2800
   520.30     2.0045     1.2440     2.1309   440.0000     9.1466     1.0631     1.7460     1.9500  -435.3336   216.0120   295.3250
   520.40     2.0941     1.4400     2.1767   440.0000     9.1093     1.0903     1.6810     2.0050  -439.6654   217.3470   296.9480
   520.50     2.2029     1.4790     2.1960   436.7000     9.3706     1.1061     1.7350     2.1920  -444.0011   216.0120   298.5250
   520.60     2.2387     1.4790     2.1979   433.3000    10.0616     1.1152     1.8000     2.3340  -451.3333   216.6790   297.4880
   520.70     2.2594     1.4790     2.1410   430.0000    10.5840     1.1288     1.9410     2.4220  -455.9987   214.6780   290.5040
   520.80     2.3281     1.5570     2.1502   433.3000    10.4162     1.1197     2.0710     2.5210  -460.6670   216.6790   281.6710
   520.90     2.2909     1.6360     2.1509   433.3000     9.8186     1.1220     2.1790     2.6300  -461.0001   220.0150   274.6860
   521.00     2.2542     1.4400     2.1615   433.3000     9.4081     1.0835     2.3520     2.7070  -462.6671   216.0120   269.5480
   521.10     2.2284     1.4790     2.1284   430.0000     9.3893     1.0812     2.5460     2.7070  -464.0000   215.3450   264.4560
   521.20     2.2491     1.4400     2.1999   430.0000     9.3147     1.1107     2.6010     2.6960  -466.0000   218.0140   261.8880
   521.30     2.2336     1.4790     2.2115   433.3000     9.6880     1.1356     2.5900     2.6520  -463.9994   218.6810   263.1940
   521.40     2.2439     1.5180     2.1773   433.3000     9.7627     1.1673     2.5680     2.6520  -464.3332   216.6790   267.2950
