~Version
 VERS              .         3.0                           : CWLS LOG ASCII STANDARD - VERSION 3.0
 WRAP              .         NO                            : ONE LINE PER DEPTH STEP
 DLM               .         SPACE                         : DELIMITING CHARACTER(SPACE TAB OR COMMA)
~Well Information
#_______________________________________________________________________________
#
#PARAMETER_NAME    .UNIT     VALUE                         : DESCRIPTION
#_______________________________________________________________________________
STRT               .m        0                             : First reference value
STOP               .m        964.2                         : Last reference value
STEP               .m        0.1                           : Step increment
NULL               .         -9999                         : Missing value
COMP               .         ICPetroleum                   : Company
WELL               .         318                           : Well name
FLD                .         Karatobe                      : Field
LOC                .                                       : Location
SRVC               .                                       : Service Company
CTRY               .         KZ                            : Country
DATE               .         21.12.2021                    : Service Date
LATI               .         0                             : Latitude
LONG               .         0                             : Longitude
GDAT               .         WGS 84                        : Geodetic Datum
CNTY               .                                       : 
COORDIN            .                                       : Grid System
COUNTRY            .         Kazakhstan                    : 
COUNTRY            .         Kazakhstan                    : 
EREF               .m        142.1                         : 
KB                 .         141.1                         : KB Elevation
ORIGINALWELLNAME   .         318                           : 
PROV               .                                       : Province
RWS                .         -999                          : Def_Rw
UWI                .                                       : Уникальный идентификатор скважины
WST                .         -999                          : Def_Rwt
X                  .km       466859.39                     : 
XCOORD             .                                       : X or East-West Coordinate
Y                  .km       5307894.01                    : 
YCOORD             .                                       : Y or North-South Coordinate
~Parameter Information Block
#_______________________________________________________________________________
#
#PARAMETER_NAME    .UNIT     VALUE                         : DESCRIPTION
#_______________________________________________________________________________
SET                .         Las                           : 
TLFamily_DEPT      .         Measured Depth                : 
TLFamily_PHI_FINAL .         Porosity                      : 
TLFamily_SW_AR     .         Water Saturation              : 
TLFamily_VSH_FINAL .         Shale Volume                  : 
~Curve Information
#_______________________________________________________________________________
#
#LOGNAME           .UNIT     LOG_ID                        : DESCRIPTION
#_______________________________________________________________________________
DEPT               .m                                      :  {F}
PHI_FINAL          .m3/m3                                  : Porosity {F}
SW_AR              .m3/m3                                  :  {F}
VSH_FINAL          .unitless                               : Vshale {F}
~Ascii
# ...
696.9000000000001 0.2787357  1          0.1268464 
697        0.2812698  1          0.1148695 
697.1      0.268856   1          0.1395082 
697.2      0.2692681  1          0.1330588 
697.3000000000001 0.2609417  1          0.1461068 
697.4000000000001 0.2551984  1          0.1460921 
697.5      0.2615106  1          0.1394527 
697.6      0.2638321  1          0.1394388 
697.7      0.2710027  1          0.1394249 
697.8000000000001 0.2698325  1          0.1394111 
697.9000000000001 0.2692548  1          0.1460185 
698        0.2740175  1          0.1460038 
698.1      0.2787869  1          0.1329412 
698.2      0.2769434  1          0.1266865 
698.3000000000001 0.2727568  1          0.1393418 
698.4000000000001 0.2728513  1          0.1329021 
698.5      0.2717974  1          0.1393141 
698.6      0.2684771  1          0.1459157 
698.7      0.2720808  1          0.1328629 
698.8000000000001 0.2737255  1          0.114674  
698.9000000000001 0.2729667  1          0.1146632 
699        0.2788959  1          0.1146523 
699.1      0.2760884  1          0.1146415 
699.2      0.2839673  1          0.09799302
699.3000000000001 0.2751039  1          0.1033676 
699.4000000000001 0.2755219  1          0.1033581 
699.5      0.2693533  1          0.1204751 
699.6      0.270001   1          0.1265146 
699.7      0.2658617  1          0.1327326 
699.8000000000001 0.2704995  1          0.1264901 
699.9000000000001 0.2659855  1          0.1327066 
700        0.2755549  1          0.1264656 
700.1      0.2920355  1          0.1145332 
700.2      0.2963279  1          0.1145224 
700.3000000000001 0.3008883  1          0.09789503
700.4000000000001 0.3031194  1          0.09266452
700.5      0.3008856  1          0.08758588
700.6      0.3027914  1          0.0926479 
700.7      0.3046436  1          0.09785943
700.8000000000001 0.307097   1          0.1032249 
700.9000000000001 0.3061301  1          0.09784166
701        0.3096563  1          0.09261464
701.1      0.315325   1          0.09260635
701.2      0.3233446  1          0.07783306
701.3000000000001 0.3149555  1          0.07782633
701.4000000000001 0.3233195  1          0.07318018
701.5      0.3183345  1          0.07781291
701.6      0.3154073  1          0.06866302
701.7      0.3190325  1          0.06865726
701.8000000000001 0.3218125  1          0.0642776 
701.9000000000001 0.3137589  1          0.07314903
702        0.3150071  1          0.07314282
702.1      0.3098011  1          0.08254644
702.2      0.3139225  1          0.07776596
702.3000000000001 0.3139692  1          0.08253202
702.4000000000001 0.3101213  1          0.07775255
702.5      0.3092464  1          0.08251762
702.6      0.3058368  1          0.07773915
702.7      0.3007797  1          0.08250319
702.8000000000001 0.2950561  1          0.09246534
702.9000000000001 0.3030892  1          0.09245706
703        0.295591   1          0.0976553 
703.1      0.3009375  1          0.0924405 
703.2      0.3009593  1          0.0824672 
703.3000000000001 0.2972585  1          0.08246002
703.4000000000001 0.3114648  1          0.06419246
703.5      0.3151798  1          0.05994651
703.6      0.3109627  1          0.05994162
703.7      0.3107232  1          0.05581903
703.8000000000001 0.306612   1          0.04793239
703.9000000000001 0.3057731  1          0.04415736
704        0.3032751  1          0.04049161
704.1      0.3065433  1          0.02686528
704.2      0.3083338  1          0.02686333
704.3000000000001 0.3112841  1          0.03011886
704.4000000000001 0.3083102  1          0.03011666
704.5      0.3058147  1          0.03011445
704.6      0.3085618  1          0.02369266
704.7      0.3114597  1          0.02369098
704.8000000000001 0.3089179  1          0.02685169
704.9000000000001 0.3100848  1          0.0236876 
705        0.3170048  1          0.02061503
705.1      0.3173492  1          0.01763131
705.2      0.324755   1          0.01192101
705.3000000000001 0.3293442  1          0.009188497
705.4000000000001 0.3305357  1          0.006534973
705.5      0.3266343  1          0.009187279
705.6      0.3324856  1          0.00653412
705.7      0.3329603  1          0.001455702
705.8000000000001 0.3354188  1          0.00145561
705.9000000000001 0.3394408  1          0         
706        0.3370678  1          0.001455425
706.1      0.3397577  1          0.001455333
706.2      0.3402772  1          0.00145524
706.3000000000001 0.3430092  1          0         
706.4000000000001 0.3454374  1          0.00395585
706.5      0.3513579  1          0.00918119
706.6      0.3443402  1          0.01190979
706.7      0.339293   1          0.01190899
706.8000000000001 0.3400275  1          0.0147178 
706.9000000000001 0.3375347  1          0.02058756
707        0.340082   1          0.01760815
707.1      0.3406378  1          0.01760694
707.2      0.3332455  1          0.01760572
707.3000000000001 0.3314831  1          0.01471279
707.4000000000001 0.322196   1          0.02058035
707.5      0.3156773  1          0.02364383
707.6      0.3068525  1          0.03004624
707.7      0.2954004  1          0.03004405
707.8000000000001 0.2935804  1          0.02679365
707.9000000000001 0.2959033  1          0.02057314
708        0.2937447  1          0.02363543
708.1      0.2773005  1          0.03337872
708.2      0.267851   1          0.03681832
708.3000000000001 0.2650158  1          0.04400748
708.4000000000001 0.2660615  1          0.03337131
708.5      0.2591124  1          0.03336884
708.6      0.2566073  1          0.03680726
708.7      0.2573633  1          0.04034683
708.8000000000001 0.2632833  1          0.04034377
708.9000000000001 0.2622138  1          0.05160655
709        0.264233   1          0.05160246
709.1      0.2721685  1          0.05557711
709.2      0.2755235  1          0.04773015
709.3000000000001 0.2796268  1          0.06388038
709.4000000000001 0.2809157  1          0.08202337
709.5      0.2773452  1          0.09191364
709.6      0.2748045  1          0.08688524
709.7      0.2826731  1          0.09189727
709.8000000000001 0.2819183  1          0.08199489
709.9000000000001 0.2754689  1          0.0638488 
710        0.271977   1          0.04394984
710.1      0.2450045  1          0.02674932
710.2      0.2271748  1          0.01756929
710.3000000000001 0.2166502  1          0.00651411
710.4000000000001 0.2157488  1          0.003945689
710.5      0.2182505  1          0.006513261
710.6      0.2169942  1          0.009156315
710.7      0.2228794  1          0.01187706
710.8000000000001 0.2175405  1          0.01467778
710.9000000000001 0.2162183  1          0.02052998
711        0.2128707  1          0.02358516
711.1      0.2127972  1          0.02673009
711.2      0.2053369  1          0.02996741
711.3000000000001 0.2070533  1          0.03329981
711.4000000000001 0.2078838  1          0.04026412
711.5      0.2119911  1          0.04764453
711.6      0.2172639  1          0.05149641
711.7      0.2234594  1          0.06375427
711.8000000000001 0.2221312  1          0.08671749
711.9000000000001 0.2277623  1          0.1076448 
712        0.1561877  1          0.2607531 
712.1      0.1549807  1          0.3122304 
712.2      0.1458056  1          0.3779836 
712.3000000000001 0.1430625  1          0.4396762 
712.4000000000001 0.1510612  1          0.4725101 
712.5      0.1597433  1          0.4614128 
712.6      0.1511974  1          0.4504688 
712.7      0.1401042  1          0.4081857 
712.8000000000001 0.1206925  1          0.4081857 
712.9000000000001 0.1136948  1          0.3979779 
713        0.117749   1          0.3681934 
713.1      0.1282357  1          0.3585385 
713.2      0.128095   1          0.3490172 
713.3000000000001 0.1204479  1          0.3490172 
713.4000000000001 0.1102684  1          0.3396275 
713.5      0.1145011  1          0.3212359 
713.6      0.105933   1          0.3303677 
713.7      0.106471   1          0.3585385 
713.8000000000001 0.1242196  1          0.3681934 
713.9000000000001 0.1319283  1          0.3779836 
