~Version
 VERS              .         3.0                           : CWLS LOG ASCII STANDARD - VERSION 3.0
 WRAP              .         NO                            : ONE LINE PER DEPTH STEP
 DLM               .         SPACE                         : DELIMITING CHARACTER(SPACE TAB OR COMMA)
~Well Information
#_______________________________________________________________________________
#
#PARAMETER_NAME    .UNIT     VALUE                         : DESCRIPTION
#_______________________________________________________________________________
STRT               .m        0                             : First reference value
STOP               .m        964.2                         : Last reference value
STEP               .m        0.1                           : Step increment
NULL               .         -9999                         : Missing value
COMP               .         ICPetroleum                   : Company
WELL               .         318                           : Well name
FLD                .         Karatobe                      : Field
LOC                .                                       : Location
SRVC               .                                       : Service Company
CTRY               .         KZ                            : Country
DATE               .         21.12.2021                    : Service Date
LATI               .         0                             : Latitude
LONG               .         0                             : Longitude
GDAT               .         WGS 84                        : Geodetic Datum
CNTY               .                                       : 
COORDIN            .                                       : Grid System
COUNTRY            .         Kazakhstan                    : 
COUNTRY            .         Kazakhstan                    : 
EREF               .m        142.1                         : 
KB                 .         141.1                         : KB Elevation
ORIGINALWELLNAME   .         318                           : 
PROV               .                                       : Province
RWS                .         -999                          : Def_Rw
UWI                .                                       : Уникальный идентификатор скважины
WST                .         -999                          : Def_Rwt
X                  .km       466859.39                     : 
XCOORD             .                                       : X or East-West Coordinate
Y                  .km       5307894.01                    : 
YCOORD             .                                       : Y or North-South Coordinate
~Parameter Information Block
#_______________________________________________________________________________
#
#PARAMETER_NAME    .UNIT     VALUE                         : DESCRIPTION
#_______________________________________________________________________________
SET                .         Las                           : 
TLFamily_DEPT      .         Measured Depth                : 
TLFamily_PHI_FINAL .         Porosity                      : 
TLFamily_SW_AR     .         Water Saturation              : 
TLFamily_VSH_FINAL .         Shale Volume                  : 
~Curve Information
#_______________________________________________________________________________
#
#LOGNAME           .UNIT     LOG_ID                        : DESCRIPTION
#_______________________________________________________________________________
DEPT               .m                                      :  {F}
PHI_FINAL          .m3/m3                                  : Porosity {F}
SW_AR              .m3/m3                                  :  {F}
VSH_FINAL          .unitless                               : Vshale {F}
~Ascii
# ...
558.5      0.2530865  1          0.2886814 
558.6      0.2527133  1          0.2886428 
558.7      0.2610842  1          0.2654479 
558.8000000000001 0.2611153  1          0.2543838 
558.9      0.2703145  1          0.2333321 
559        0.2722999  1          0.2436415 
559.1      0.2559033  1          0.3005901 
559.2      0.2613936  1          0.2766569 
559.3000000000001 0.2620809  1          0.2883725 
559.4      0.2645859  1          0.288334  
559.5      0.2650894  1          0.3004274 
559.6      0.2635372  1          0.3129129 
559.7      0.2572336  1          0.339159  
559.8000000000001 0.2565778  1          0.3529009 
559.9      0.2716436  1          0.3390638 
560        0.288828   1          0.3127415 
560.1      0.2893231  1          0.3527506 
560.2      0.2752464  1          0.4124678 
560.3000000000001 0.2515149  1          0.4987561 
560.4      0.1935875  1          0.6453944 
560.5      0.1488758  1          0.7189791 
560.6      0.1079359  1          0.7999856 
560.7      0.08660402 1          0.8286632 
560.8000000000001 0.07951606 1          0.828512  
560.9      0.04003306 1          0.9205537 
561        0.02861784 1          0.953131  
561.1      0.08465803 1          0.771378  
561.2      0.08422723 1          0.7712401 
561.3000000000001 0.1426372  1          0.6214218 
561.4      0.2131564  1          0.4445472 
561.5      0.2488602  1          0.3383043 
561.6      0.2633992  0.9876016  0.2995755 
561.7      0.2480699  1          0.312015  
561.8000000000001 0.2155075  1          0.3519014 
561.9      0.1996291  1          0.3806837 
562        0.2025563  1          0.3806285 
562.1      0.1878862  1          0.4113054 
562.2      0.1786106  1          0.4440075 
562.3000000000001 0.1919219  1          0.3955768 
562.4      0.1879333  1          0.3955188 
562.5      0.1810109  1          0.4110614 
562.6      0.1748862  1          0.4271068 
562.7      0.1568566  1          0.4785708 
562.8000000000001 0.1436294  1          0.4968009 
562.9      0.1147395  1          0.5760881 
563        0.09087929 1          0.6425557 
563.1      0.07618291 1          0.6905052 
563.2      0.04745005 1          0.7684906 
563.3000000000001 0.03884515 1          0.7960972 
563.4      0.008381193 1          0.9162402 
563.5      0.0006333283 1          1         
563.6      0          1          1         
563.7      0          1          1         
563.8000000000001 0          1          1         
563.9      0          1          1         
564        0          1          1         
564.1      0          1          1         
564.2      0          1          1         
564.3000000000001 0.0004313232 1          1         
564.4      0.0006333283 1          1         
564.5      0.001138388 1          1         
564.6      0.001037383 1          1         
564.7      0.0007343532 1          1         
564.8000000000001 0.0008353582 1          1         
564.9      0.001340393 1          1         
565        0.003158588 1          1         
565.1      0.008344418 1          0.9457529 
565.2      0.006390919 1          1         
565.3000000000001 0.007097984 1          1         
565.4      0.0134287  1          0.9452169 
565.5      0.01073435 1          1         
565.6      0.01818952 1          0.9783009 
565.7      0.04661241 1          0.8809418 
565.8000000000001 0.08745398 1          0.7925251 
565.9      0.07695698 1          0.820857  
566        0.07163604 1          0.8501023 
566.1      0.07082843 1          0.8499466 
566.2      0.0221929  1          1         
566.3000000000001 0.01701829 1          0.9436113 
566.4      0.003663628 1          1         
566.5      0.002653528 1          1         
566.6      0.01654402 1          0.9107674 
566.7      0.02051087 1          0.8793128 
566.8000000000001 0.006860444 1          0.9427214 
566.9      0          1          1         
567        0          1          1         
567.1      0          1          1         
567.2      0.0000273  1          1         
567.3000000000001 0.007130085 1          0.9418328 
567.4      0.01994697 1          0.8781755 
567.5      0.03454374 1          0.8184798 
567.6      0.04853897 1          0.7899696 
567.7      0.07534309 1          0.7100025 
567.8000000000001 0.08123758 1          0.6849328 
567.9      0.07208191 1          0.709756  
568        0.06709173 1          0.7353779 
568.1      0.09343505 1          0.6604345 
568.2      0.1030892  1          0.6369416 
568.3000000000001 0.100268   1          0.66021   
568.4      0.1145234  1          0.6140921 
568.5      0.1255106  1          0.5920708 
568.6      0.1443512  1          0.5501906 
568.7      0.1070622  1          0.6597613 
568.8000000000001 0.117914   1          0.6362991 
568.9      0.1118233  1          0.6595371 
569        0.1473408  1          0.5703766 
569.1      0.1170239  1          0.6593131 
569.2      0.1177192  1          0.6592011 
569.3000000000001 0.1121388  1          0.6831704 
569.4      0.092058   1          0.7335749 
569.5      0.08667827 1          0.7334464 
569.6      0.07091989 1          0.7871462 
569.7      0.05024298 1          0.8443702 
569.8000000000001 0.04103305 1          0.8742949 
569.9      0.01630322 1          0.9703276 
570        0.01609182 1          0.9701433 
570.1      0.01543466 1          0.9699592 
570.2      0.02823829 1          0.9046752 
570.3000000000001 0.04991624 1          0.8434467 
570.4      0.04685264 1          0.843293  
570.5      0.05414785 1          0.8140534 
570.6      0.07487135 1          0.7584597 
570.7      0.08909688 1          0.7319072 
570.8000000000001 0.08955946 1          0.7317792 
570.9      0.1125158  1          0.6573026 
571        0.08896777 1          0.7315234 
571.1      0.09165525 1          0.7313954 
571.2      0.130328   1          0.6337405 
571.3000000000001 0.1373898  1          0.6111405 
571.4      0.1235168  1          0.656746  
571.5      0.1409915  1          0.6109378 
571.6      0.1518892  1          0.5890625 
571.7      0.1346038  1          0.6332098 
571.8000000000001 0.1335646  1          0.6331036 
571.9      0.1578252  1          0.5676953 
572        0.1525147  1          0.5676032 
572.1      0.1365864  1          0.6103306 
572.2      0.1272858  1          0.6326796 
572.3000000000001 0.1140963  1          0.6796686 
572.4      0.1243551  1          0.6556352 
572.5      0.1185487  1          0.6794363 
572.6      0.1231376  1          0.6554133 
572.7      0.1376159  1          0.6097243 
572.8000000000001 0.1171336  1          0.6551917 
572.9      0.1152149  1          0.655081  
573        0.1321675  1          0.6094216 
573.1      0.1131773  1          0.6548594 
573.2      0.08889467 1          0.7032723 
573.3000000000001 0.1103866  1          0.6315161 
573.4      0.1075253  1          0.6314105 
573.5      0.1105706  1          0.631305  
573.6      0.1073372  1          0.6311995 
573.7      0.05344828 1          0.781411  
573.8000000000001 0.08409679 1          0.7025446 
573.9      0.08452078 1          0.7024235 
574        0.0827548  1          0.7023024 
574.1      0.05984615 1          0.7537915 
574.2      0.1207602  1          0.5865595 
574.3000000000001 0.1400706  1          0.5451789 
574.4      0.1262301  1          0.5863677 
574.5      0.09818032 1          0.6533127 
574.6      0.08550584 1          0.7015763 
574.7      0.06891232 1          0.7529963 
574.8000000000001 0.046636   1          0.807778  
574.9      0.01512554 1          0.9284942 
575        0.007401019 1          1         
575.1      0.005481819 1          1         
575.2      0.004875758 1          1         
575.3000000000001 0.005279794 1          1         
575.4      0.007603024 1          1         
575.5      0.007906054 1          1         
575.6      0.007805054 1          1         
575.7      0.01123939 1          1         
575.8000000000001 0.01257263 1          1         
575.9      0.0163615  1          1         
576        0.05831963 1          0.8644003 
