~Version
 VERS              .         3.0                           : CWLS LOG ASCII STANDARD - VERSION 3.0
 WRAP              .         NO                            : ONE LINE PER DEPTH STEP
 DLM               .         SPACE                         : DELIMITING CHARACTER(SPACE TAB OR COMMA)
~Well Information
#_______________________________________________________________________________
#
#PARAMETER_NAME    .UNIT     VALUE                         : DESCRIPTION
#_______________________________________________________________________________
STRT               .m        0                             : First reference value
STOP               .m        964.2                         : Last reference value
STEP               .m        0.1                           : Step increment
NULL               .         -9999                         : Missing value
COMP               .         ICPetroleum                   : Company
WELL               .         318                           : Well name
FLD                .         Karatobe                      : Field
LOC                .                                       : Location
SRVC               .                                       : Service Company
CTRY               .         KZ                            : Country
DATE               .         21.12.2021                    : Service Date
LATI               .         0                             : Latitude
LONG               .         0                             : Longitude
GDAT               .         WGS 84                        : Geodetic Datum
CNTY               .                                       : 
COORDIN            .                                       : Grid System
COUNTRY            .         Kazakhstan                    : 
COUNTRY            .         Kazakhstan                    : 
EREF               .m        142.1                         : 
KB                 .         141.1                         : KB Elevation
ORIGINALWELLNAME   .         318                           : 
PROV               .                                       : Province
RWS                .         -999                          : Def_Rw
UWI                .                                       : Уникальный идентификатор скважины
WST                .         -999                          : Def_Rwt
X                  .km       466859.39                     : 
XCOORD             .                                       : X or East-West Coordinate
Y                  .km       5307894.01                    : 
YCOORD             .                                       : Y or North-South Coordinate
~Parameter Information Block
#_______________________________________________________________________________
#
#PARAMETER_NAME    .UNIT     VALUE                         : DESCRIPTION
#_______________________________________________________________________________
SET                .         Las                           : 
TLFamily_DEPT      .         Measured Depth                : 
TLFamily_PHI_FINAL .         Porosity                      : 
TLFamily_SW_AR     .         Water Saturation              : 
TLFamily_VSH_FINAL .         Shale Volume                  : 
~Curve Information
#_______________________________________________________________________________
#
#LOGNAME           .UNIT     LOG_ID                        : DESCRIPTION
#_______________________________________________________________________________
DEPT               .m                                      :  {F}
PHI_FINAL          .m3/m3                                  : Porosity {F}
SW_AR              .m3/m3                                  :  {F}
VSH_FINAL          .unitless                               : Vshale {F}
~Ascii
# ...
953.4000000000001 0.01800111 1          0         
953.5      0.01591319 1          0         
953.6      0.01415169 1          0         
953.7      0.0132092  1          0         
953.8000000000001 0.01259005 1          0         
953.9000000000001 0.01227587 1          0         
954        0.01281553 1          0         
954.1      0.01322728 1          0         
954.2      0.01339367 1          0         
954.3000000000001 0.01449236 1          0         
954.4000000000001 0.01389641 1          0         
954.5      0.01411021 1          0         
954.6      0.01434676 1          0         
954.7      0.01330968 1          0         
954.8000000000001 0.01283864 1          0         
954.9000000000001 0.01299444 1          0         
955        0.01122728 1          0         
955.1      0.009956944 1          0         
955.2      0.01076279 1          0         
955.3000000000001 0.01041379 1          0.003779318
955.4000000000001 0.01217013 1          0.003779318
955.5      0.01592259 1          0         
955.6      0.01652029 1          0         
955.7      0.01708907 1          0         
955.8000000000001 0.01638594 1          0         
955.9000000000001 0.01764584 1          0         
956        0.0174172  1          0         
956.1      0.01832047 1          0         
956.2      0.01819449 1          0         
956.3000000000001 0.01737336 1          0         
956.4000000000001 0.0176884  1          0         
956.5      0.01723073 1          0         
956.6      0.01492748 1          0         
956.7      0.01545046 1          0         
956.8000000000001 0.01643185 1          0         
956.9000000000001 0.01726593 1          0         
957        0.01747138 1          0         
957.1      0.01734381 1          0         
957.2      0.01743452 1          0         
957.3000000000001 0.2519075  0.5611899  0         
957.4000000000001 0.246542   0.582182   0         
957.5      0.2511368  0.5559261  0         
957.6      0.2552495  0.5337741  0         
957.7      0.2608528  0.5238729  0.003779318
957.8000000000001 0.2712403  0.4948879  0.003779318
957.9000000000001 0.273883   0.4980762  0         
958        -9999      -9999      0         
958.1      -9999      -9999      0         
958.2      -9999      -9999      0         
958.3000000000001 -9999      -9999      0         
958.4000000000001 -9999      -9999      0         
958.5      -9999      -9999      0         
958.6      -9999      -9999      0         
958.7      -9999      -9999      0         
958.8000000000001 -9999      -9999      0         
958.9000000000001 -9999      -9999      0         
959        -9999      -9999      0         
959.1      -9999      -9999      0         
959.2      -9999      -9999      0         
959.3000000000001 -9999      -9999      0         
959.4000000000001 -9999      -9999      0         
959.5      -9999      -9999      0         
959.6      -9999      -9999      0         
959.7      -9999      -9999      0         
959.8000000000001 -9999      -9999      0         
959.9000000000001 -9999      -9999      0         
960        -9999      -9999      0         
960.1      -9999      -9999      0         
960.2      -9999      -9999      0         
960.3000000000001 -9999      -9999      0         
960.4000000000001 -9999      -9999      0         
960.5      -9999      -9999      0         
960.6      -9999      -9999      0         
960.7      -9999      -9999      0         
960.8000000000001 -9999      -9999      0         
960.9000000000001 -9999      -9999      0         
961        -9999      -9999      0         
961.1      -9999      -9999      0         
961.2      -9999      -9999      0         
961.3000000000001 -9999      -9999      0         
961.4000000000001 -9999      -9999      0         
961.5      -9999      -9999      0         
961.6      -9999      -9999      0         
961.7      -9999      -9999      0         
961.8000000000001 -9999      -9999      0         
961.9000000000001 -9999      -9999      0         
962        -9999      -9999      0         
962.1      -9999      -9999      0         
962.2      -9999      -9999      0         
962.3000000000001 -9999      -9999      0         
962.4000000000001 -9999      -9999      0         
962.5      -9999      -9999      0         
962.6      -9999      -9999      -9999     
962.7      -9999      -9999      -9999     
962.8000000000001 -9999      -9999      -9999     
962.9000000000001 -9999      -9999      -9999     
963        -9999      -9999      -9999     
963.1      -9999      -9999      -9999     
963.2      -9999      -9999      -9999     
963.3000000000001 -9999      -9999      -9999     
963.4000000000001 -9999      -9999      -9999     
963.5      -9999      -9999      -9999     
963.6      -9999      -9999      -9999     
963.7      -9999      -9999      -9999     
963.8000000000001 -9999      -9999      -9999     
963.9000000000001 -9999      -9999      -9999     
964        -9999      -9999      -9999     
964.1      -9999      -9999      -9999     
964.2      -9999      -9999      -9999     
