~Version
 VERS              .         3.0                           : CWLS LOG ASCII STANDARD - VERSION 3.0
 WRAP              .         NO                            : ONE LINE PER DEPTH STEP
 DLM               .         SPACE                         : DELIMITING CHARACTER(SPACE TAB OR COMMA)
~Well Information
#_______________________________________________________________________________
#
#PARAMETER_NAME    .UNIT     VALUE                         : DESCRIPTION
#_______________________________________________________________________________
STRT               .m        0                             : First reference value
STOP               .m        964.2                         : Last reference value
STEP               .m        0.1                           : Step increment
NULL               .         -9999                         : Missing value
COMP               .         ICPetroleum                   : Company
WELL               .         318                           : Well name
FLD                .         Karatobe                      : Field
LOC                .                                       : Location
SRVC               .                                       : Service Company
CTRY               .         KZ                            : Country
DATE               .         21.12.2021                    : Service Date
LATI               .         0                             : Latitude
LONG               .         0                             : Longitude
GDAT               .         WGS 84                        : Geodetic Datum
CNTY               .                                       : 
COORDIN            .                                       : Grid System
COUNTRY            .         Kazakhstan                    : 
COUNTRY            .         Kazakhstan                    : 
EREF               .m        142.1                         : 
KB                 .         141.1                         : KB Elevation
ORIGINALWELLNAME   .         318                           : 
PROV               .                                       : Province
RWS                .         -999                          : Def_Rw
UWI                .                                       : Уникальный идентификатор скважины
WST                .         -999                          : Def_Rwt
X                  .km       466859.39                     : 
XCOORD             .                                       : X or East-West Coordinate
Y                  .km       5307894.01                    : 
YCOORD             .                                       : Y or North-South Coordinate
~Parameter Information Block
#_______________________________________________________________________________
#
#PARAMETER_NAME    .UNIT     VALUE                         : DESCRIPTION
#_______________________________________________________________________________
SET                .         Las                           : 
TLFamily_DEPT      .         Measured Depth                : 
TLFamily_PHI_FINAL .         Porosity                      : 
TLFamily_SW_AR     .         Water Saturation              : 
TLFamily_VSH_FINAL .         Shale Volume                  : 
~Curve Information
#_______________________________________________________________________________
#
#LOGNAME           .UNIT     LOG_ID                        : DESCRIPTION
#_______________________________________________________________________________
DEPT               .m                                      :  {F}
PHI_FINAL          .m3/m3                                  : Porosity {F}
SW_AR              .m3/m3                                  :  {F}
VSH_FINAL          .unitless                               : Vshale {F}
~Ascii
# ...
396.3      0.0202274  1          1         
396.4      0.01840428 1          1         
396.5      0.01678435 1          1         
396.6      0.01706247 1          1         
396.7      0.01693275 1          1         
396.8      0.01768501 1          1         
396.9      0.01750447 1          1         
397        0.01872732 1          1         
397.1      0.02111056 1          1         
397.2      0.01907753 1          1         
397.3      0.01894389 1          1         
397.4      0.01731702 1          1         
397.5      0.01646251 1          1         
397.6      0.01611324 1          1         
397.7      0.01646735 1          1         
397.8      0.01804413 1          1         
397.9      0.01865278 1          1         
398        0.01703859 1          1         
398.1      0.01628184 1          1         
398.2      0.01673612 1          1         
398.3      0.01504248 1          1         
398.4      0.01465846 1          1         
398.5      0.01461715 1          1         
398.6      0.01528261 1          1         
398.7      0.01603909 1          1         
398.8      0.01587408 1          1         
398.9      0.01727034 1          1         
399        0.01745453 1          1         
399.1      0.01698587 1          1         
399.2      0.01729131 1          1         
399.3      0.0181454  1          1         
399.4      0.01933851 1          1         
399.5      0.01973409 1          1         
399.6      0.02096142 1          1         
399.7      0.02018396 1          1         
399.8      0.02152508 1          1         
399.9      0.0222147  1          1         
400        0.02309851 1          1         
400.1      0.02259023 1          1         
400.2      0.02440544 1          1         
400.3      0.02455898 1          1         
400.4      0.02501528 1          1         
400.5      0.02672712 1          1         
400.6      0.0291992  1          1         
400.7      0.02691285 1          1         
400.8      0.02657777 1          1         
400.9      0.02717273 1          1         
401        0.02726047 1          1         
401.1      0.02466409 1          1         
401.2      0.02378199 1          1         
401.3      0.02501377 1          1         
401.4      0.02644507 1          1         
401.5      0.02666249 1          1         
401.6      0.02687733 1          1         
401.7      0.02839914 1          1         
401.8      0.02789675 1          1         
401.9      0.0273703  1          1         
402        0.02417646 1          1         
402.1      0.02314656 1          1         
402.2      0.02453657 1          1         
402.3      0.02208433 1          1         
402.4      0.01922405 1          1         
402.5      0.01788125 1          1         
402.6      0.02138451 1          1         
402.7      0.02339707 1          1         
402.8      0.02944038 1          1         
402.9      0.03206563 1          1         
403        0.03206448 1          1         
403.1      0.03150687 1          1         
403.2      0.03237491 1          1         
403.3      0.03193657 1          1         
403.4      0.03719257 1          1         
403.5      0.03775039 1          1         
403.6      0.03269144 1          1         
403.7      0.03361409 1          1         
403.8      0.03367924 1          1         
403.9      0.0336224  1          1         
404        0.03344985 1          1         
404.1      0.02984701 1          1         
404.2      0.0284152  1          1         
404.3      0.02941049 1          1         
404.4      0.02717338 1          1         
404.5      0.02448982 1          1         
404.6      0.02604236 1          1         
404.7      0.02628914 1          1         
404.8      0.02503187 1          1         
404.9      0.02594572 1          1         
405        0.02645509 1          1         
405.1      0.02670502 1          1         
405.2      0.02644346 1          1         
405.3      0.02628376 1          1         
405.4      0.02824521 1          1         
405.5      0.02795889 1          1         
405.6      0.02928874 1          1         
405.7      0.0306474  1          1         
405.8      0.02952534 1          1         
405.9      0.0293257  1          1         
406        0.02727496 1          1         
406.1      0.02653223 1          1         
406.2      0.0241551  1          1         
406.3      0.02222993 1          1         
406.4      0.02154247 1          1         
406.5      0.02079099 1          1         
406.6      0.01892865 1          1         
406.7      0.01795532 1          1         
406.8      0.01691125 1          1         
406.9      0.017859   1          1         
407        0.0173916  1          1         
407.1      0.01890414 1          1         
407.2      0.02000787 1          1         
407.3      0.02203587 1          1         
407.4      0.02133668 1          1         
407.5      0.02296163 1          1         
407.6      0.02297096 1          1         
407.7      0.05793452 1          0.8932326 
407.8      0.02767321 1          1         
407.9      0.02847566 1          1         
408        0.03054389 1          1         
408.1      0.02982132 1          1         
408.2      0.02808168 1          1         
408.3      0.0320915  1          1         
408.4      0.04068853 1          0.9645323 
408.5      0.08746146 1          0.8241906 
408.6      0.1114933  1          0.7611672 
408.7      0.1384324  1          0.674827  
408.8      0.1254722  1          0.7023947 
408.9      0.1029408  1          0.7607127 
409        0.04184467 1          0.9264067 
409.1      0.07669628 1          0.8231838 
409.2      0.07720915 1          0.8230162 
409.3      0.03288954 1          0.9626847 
409.4      0.05602254 1          0.8900729 
409.5      0.06857377 1          0.8555963 
409.6      0.1097108  1          0.7299554 
409.7      0.09980819 1          0.7595029 
409.8      0.1062216  1          0.7296684 
409.9      0.1039999  1          0.7295251 
410        0.1042421  1          0.7293818 
410.1      0.085802   1          0.7896436 
410.2      0.07656195 1          0.8213434 
410.3      0.04503733 1          0.9238754 
410.4      0.02669536 1          0.9985291 
410.5      0.02643015 1          0.9983144 
410.6      0.02787953 1          1         
410.7      0.02690635 1          1         
410.8      0.02508031 1          1         
410.9      0.03222613 1          0.9594141 
411        0.052968   1          0.8871162 
411.1      0.0222056  1          0.9970285 
411.2      0.01942081 1          1         
411.3      0.02115486 1          1         
411.4      0.0204105  1          1         
411.5      0.0185231  1          1         
411.6      0.01965878 1          0.995959  
411.7      0.01690217 1          1         
411.8      0.04400091 1          0.8856439 
411.9      0.05993235 1          0.851387  
412        0.03835763 1          0.9205824 
412.1      0.04833842 1          0.8850928 
412.2      0.02434983 1          0.9946778 
412.3      0.02210243 1          1         
412.4      0.02609874 1          0.9942513 
412.5      0.0261067  1          1         
412.6      0.04703024 1          0.9194249 
412.7      0.02911499 1          1         
412.8      0.03694058 1          0.9555541 
412.9      0.034589   1          0.9553518 
413        0.02329014 1          0.992974  
413.1      0.02282376 1          1         
413.2      0.02288378 1          1         
413.3      0.02221897 1          1         
413.4      0.02348485 1          1         
413.5      0.02479621 1          1         
413.6      0.02388022 1          1         
413.7      0.02332304 1          1         
413.8      0.02454517 1          1         
413.9      0.02390225 1          1         
414        0.02396059 1          1         
414.1      0.02132102 1          1         
414.2      0.02006179 1          1         
414.3      0.04214077 1          0.9161581 
414.4      0.1227244  1          0.6948141 
