~Version
 VERS              .         3.0                           : CWLS LOG ASCII STANDARD - VERSION 3.0
 WRAP              .         NO                            : ONE LINE PER DEPTH STEP
 DLM               .         SPACE                         : DELIMITING CHARACTER(SPACE TAB OR COMMA)
~Well Information
#_______________________________________________________________________________
#
#PARAMETER_NAME    .UNIT     VALUE                         : DESCRIPTION
#_______________________________________________________________________________
STRT               .m        0                             : First reference value
STOP               .m        964.2                         : Last reference value
STEP               .m        0.1                           : Step increment
NULL               .         -9999                         : Missing value
COMP               .         ICPetroleum                   : Company
WELL               .         318                           : Well name
FLD                .         Karatobe                      : Field
LOC                .                                       : Location
SRVC               .                                       : Service Company
CTRY               .         KZ                            : Country
DATE               .         21.12.2021                    : Service Date
LATI               .         0                             : Latitude
LONG               .         0                             : Longitude
GDAT               .         WGS 84                        : Geodetic Datum
CNTY               .                                       : 
COORDIN            .                                       : Grid System
COUNTRY            .         Kazakhstan                    : 
COUNTRY            .         Kazakhstan                    : 
EREF               .m        142.1                         : 
KB                 .         141.1                         : KB Elevation
ORIGINALWELLNAME   .         318                           : 
PROV               .                                       : Province
RWS                .         -999                          : Def_Rw
UWI                .                                       : Уникальный идентификатор скважины
WST                .         -999                          : Def_Rwt
X                  .km       466859.39                     : 
XCOORD             .                                       : X or East-West Coordinate
Y                  .km       5307894.01                    : 
YCOORD             .                                       : Y or North-South Coordinate
~Parameter Information Block
#_______________________________________________________________________________
#
#PARAMETER_NAME    .UNIT     VALUE                         : DESCRIPTION
#_______________________________________________________________________________
SET                .         Las                           : 
TLFamily_DEPT      .         Measured Depth                : 
TLFamily_PHI_FINAL .         Porosity                      : 
TLFamily_SW_AR     .         Water Saturation              : 
TLFamily_VSH_FINAL .         Shale Volume                  : 
~Curve Information
#_______________________________________________________________________________
#
#LOGNAME           .UNIT     LOG_ID                        : DESCRIPTION
#_______________________________________________________________________________
DEPT               .m                                      :  {F}
PHI_FINAL          .m3/m3                                  : Porosity {F}
SW_AR              .m3/m3                                  :  {F}
VSH_FINAL          .unitless                               : Vshale {F}
~Ascii
# ...
902.1      0.1256553  0.6574044  0.08131219
902.2      0.1385964  0.589301   0.08131219
902.3000000000001 0.1435459  0.5667672  0.06448378
902.4000000000001 0.1420339  0.5786914  0.07562444
902.5      0.1514457  0.5456421  0.07562444
902.6      0.1461516  0.5801889  0.07562444
902.7      0.1404295  0.6198091  0.08707971
902.8000000000001 0.1315376  0.6773492  0.08131219
902.9000000000001 0.1291847  0.6928985  0.08131219
903        0.1339589  0.6607377  0.08707971
903.1      0.1263119  0.7028668  0.08707971
903.2      0.1257683  0.6768262  0.0929281 
903.3000000000001 0.1221942  0.6410425  0.08707971
903.4000000000001 0.1016059  0.7373412  0.08707971
903.5      0.09631179 0.7547972  0.08707971
903.6      0.09160598 0.7840236  0.08707971
903.7      0.08807654 0.8096858  0.08707971
903.8000000000001 0.1016059  0.6769934  0.08707971
903.9000000000001 0.1027141  0.6719543  0.08131219
904        0.1049751  0.6581445  0.07562444
904.1      0.1001543  0.6986091  0.07001533
904.2      0.1073281  0.6521357  0.07562444
904.3000000000001 0.1002693  0.7256315  0.07562444
904.4000000000001 0.1091846  0.6747133  0.08131219
904.5      0.09807651 0.7931336  0.08707971
904.6      0.09047405 0.9127107  0.0929281 
904.7      0.07461222 1          0.0988585 
904.8000000000001 0.07629025 1          0.1171533 
904.9000000000001 0.07516765 1          0.1109699 
905        0.07810889 1          0.1109699 
905.1      0.07754934 1          0.104872  
905.2      0.07693237 1          0.1109699 
905.3000000000001 0.0869651  1          0.0988585 
905.4000000000001 0.08578871 1          0.0988585 
905.5      0.08578474 1          0.104872  
905.6      0.0916383  1          0.1109699 
905.7      0.07864317 1          0.1171533 
905.8000000000001 0.07904665 1          0.1297814 
905.9000000000001 0.06758055 1          0.1427661 
906        0.05282537 1          0.162934  
906.1      0.0546133  1          0.176855  
906.2      0.05311113 1          0.1839623 
906.3000000000001 0.05607429 1          0.2058876 
906.4000000000001 0.05469327 1          0.236583  
906.5      0.06528126 1          0.252584  
906.6      0.07208925 1          0.2774366 
906.7      0.07817256 1          0.2607531 
906.8000000000001 0.09699756 1          0.2287481 
906.9000000000001 0.1276656  1          0.1984771 
907        0.1367037  1          0.1839623 
907.1      0.1472861  1          0.1698461 
907.2      0.149076   1          0.1561176 
907.3000000000001 0.1418718  1          0.162934  
907.4000000000001 0.1398788  1          0.1698461 
907.5      0.1308962  1          0.176855  
907.6      0.1224669  1          0.1984771 
907.7      0.1103348  1          0.2134019 
907.8000000000001 0.1098584  1          0.2210216 
907.9000000000001 0.09469299 1          0.252584  
908        0.07958404 1          0.2859542 
908.1      0.06527904 1          0.2945913 
908.2      0.05626586 1          0.3212359 
908.3000000000001 0.05564424 1          0.3033494 
908.4000000000001 0.06233781 1          0.2945913 
908.5      0.07134879 1          0.2859542 
908.6      0.07152671 1          0.3033494 
908.7      0.06650016 1          0.3212359 
908.8000000000001 0.07265495 1          0.3122304 
908.9000000000001 0.06479689 1          0.3122304 
909        0.05685419 1          0.3212359 
909.1      0.06740895 1          0.3033494 
909.2      0.06799728 1          0.3033494 
909.3000000000001 0.06917366 1          0.3033494 
909.4000000000001 0.06950285 1          0.3122304 
909.5      0.07420868 1          0.3122304 
909.6      0.0764452  1          0.3303677 
909.7      0.08470792 1          0.3122304 
909.8000000000001 0.07976197 1          0.3033494 
909.9000000000001 0.05233784 1          0.2945913 
910        0.03097175 1          0.3212359 
910.1      0.03917374 1          0.3033494 
910.2      0.05505605 1          0.3033494 
910.3000000000001 0.05623259 1          0.3033494 
910.4000000000001 0.04704381 1          0.2945913 
910.5      0.03214828 1          0.3212359 
910.6      0.03144481 1          0.3396275 
910.7      0.02294165 1          0.3585385 
910.8000000000001 0.03456548 1          0.3490172 
910.9000000000001 0.03186668 1          0.3681934 
911        0.06044794 1          0.3490172 
911.1      0.06735003 1          0.3490172 
911.2      0.06438597 1          0.3396275 
911.3000000000001 0.06203306 1          0.3396275 
911.4000000000001 0.06887418 1          0.3303677 
911.5      0.06803055 1          0.3212359 
911.6      0.06917366 1          0.3033494 
911.7      0.07126758 1          0.3122304 
911.8000000000001 0.07273652 1          0.3212359 
911.9000000000001 0.07588954 1          0.3212359 
912        0.07977844 1          0.3033494 
912.1      0.07446781 1          0.3033494 
912.2      0.06553981 1          0.3122304 
912.3000000000001 0.0592071  1          0.3212359 
912.4000000000001 0.05270314 1          0.3033494 
912.5      0.05035023 1          0.3033494 
912.6      0.06410252 1          0.2945913 
912.7      0.04939673 1          0.2945913 
912.8000000000001 0.0383264  1          0.3122304 
912.9000000000001 0.05116145 1          0.2945913 
913        0.07103036 1          0.2690368 
913.1      0.05620694 1          0.2774366 
913.2      0.05691276 1          0.2690368 
913.3000000000001 0.05267749 1          0.2774366 
913.4000000000001 0.05267749 1          0.2774366 
913.5      0.05691276 1          0.2690368 
913.6      0.04808916 1          0.2690368 
913.7      0.0520893  1          0.2774366 
913.8000000000001 0.06287857 1          0.2607531 
913.9000000000001 0.05385388 1          0.2774366 
914        0.04679516 1          0.2774366 
914.1      0.03880842 1          0.2945913 
914.2      0.030091   1          0.3122304 
914.3000000000001 0.03211486 1          0.3033494 
914.4000000000001 0.0244678  1          0.3033494 
914.5      0.0254664  1          0.2859542 
914.6      0.03267741 1          0.2774366 
914.7      0.03405502 1          0.2607531 
914.8000000000001 0.03116356 1          0.252584  
914.9000000000001 0.01193699 1          0.2859542 
915        0.01664295 1          0.2859542 
915.1      0.02103034 1          0.2690368 
915.2      0.01252518 1          0.2859542 
915.3000000000001 0.01781933 1          0.2859542 
915.4000000000001 0.0121149  1          0.3033494 
915.5      0.02311349 1          0.2859542 
915.6      0.02891462 1          0.3122304 
915.7      0.02740904 1          0.3033494 
915.8000000000001 0.03822022 1          0.2945913 
915.9000000000001 0.05032459 1          0.2774366 
916        0.05899576 1          0.2859542 
916.1      0.07573618 1          0.2690368 
916.2      0.07464326 1          0.2607531 
916.3000000000001 0.06464315 1          0.2607531 
916.4000000000001 0.04338335 1          0.2690368 
916.5      0.03150102 1          0.2774366 
916.6      0.02781931 1          0.2859542 
916.7      0.03150102 1          0.2774366 
916.8000000000001 0.04750097 1          0.2690368 
916.9000000000001 0.03679517 1          0.2774366 
917        0.03208921 1          0.2774366 
917.1      0.03840762 1          0.2859542 
917.2      0.04573625 1          0.2690368 
917.3000000000001 0.04052557 1          0.2607531 
917.4000000000001 0.05351675 1          0.236583  
917.5      0.04808916 1          0.2690368 
917.6      0.05763419 1          0.252584  
917.7      0.04706243 1          0.2445278 
917.8000000000001 0.04529771 1          0.2445278 
917.9000000000001 0.04469316 1          0.236583  
918        0.05706241 1          0.2445278 
918.1      0.08410501 1          0.236583  
918.2      0.08823886 1          0.2445278 
918.3000000000001 0.09221135 1          0.2210216 
918.4000000000001 0.0980937  1          0.2210216 
918.5      0.09111522 1          0.2287481 
918.6      0.07640941 1          0.2287481 
918.7      0.07985832 1          0.2210216 
918.8000000000001 0.07353307 1          0.2445278 
918.9000000000001 0.07588597 1          0.2445278 
919        0.0735167  1          0.236583  
919.1      0.05469327 1          0.236583  
