~Version
 VERS              .         3.0                           : CWLS LOG ASCII STANDARD - VERSION 3.0
 WRAP              .         NO                            : ONE LINE PER DEPTH STEP
 DLM               .         SPACE                         : DELIMITING CHARACTER(SPACE TAB OR COMMA)
~Well Information
#_______________________________________________________________________________
#
#PARAMETER_NAME    .UNIT     VALUE                         : DESCRIPTION
#_______________________________________________________________________________
STRT               .m        0                             : First reference value
STOP               .m        964.2                         : Last reference value
STEP               .m        0.1                           : Step increment
NULL               .         -9999                         : Missing value
COMP               .         ICPetroleum                   : Company
WELL               .         318                           : Well name
FLD                .         Karatobe                      : Field
LOC                .                                       : Location
SRVC               .                                       : Service Company
CTRY               .         KZ                            : Country
DATE               .         21.12.2021                    : Service Date
LATI               .         0                             : Latitude
LONG               .         0                             : Longitude
GDAT               .         WGS 84                        : Geodetic Datum
CNTY               .                                       : 
COORDIN            .                                       : Grid System
COUNTRY            .         Kazakhstan                    : 
COUNTRY            .         Kazakhstan                    : 
EREF               .m        142.1                         : 
KB                 .         141.1                         : KB Elevation
ORIGINALWELLNAME   .         318                           : 
PROV               .                                       : Province
RWS                .         -999                          : Def_Rw
UWI                .                                       : Уникальный идентификатор скважины
WST                .         -999                          : Def_Rwt
X                  .km       466859.39                     : 
XCOORD             .                                       : X or East-West Coordinate
Y                  .km       5307894.01                    : 
YCOORD             .                                       : Y or North-South Coordinate
~Parameter Information Block
#_______________________________________________________________________________
#
#PARAMETER_NAME    .UNIT     VALUE                         : DESCRIPTION
#_______________________________________________________________________________
SET                .         Las                           : 
TLFamily_DEPT      .         Measured Depth                : 
TLFamily_PHI_FINAL .         Porosity                      : 
TLFamily_SW_AR     .         Water Saturation              : 
TLFamily_VSH_FINAL .         Shale Volume                  : 
~Curve Information
#_______________________________________________________________________________
#
#LOGNAME           .UNIT     LOG_ID                        : DESCRIPTION
#_______________________________________________________________________________
DEPT               .m                                      :  {F}
PHI_FINAL          .m3/m3                                  : Porosity {F}
SW_AR              .m3/m3                                  :  {F}
VSH_FINAL          .unitless                               : Vshale {F}
~Ascii
# ...
450.9      0.05231176 1          1         
451        0.05518706 1          1         
451.1      0.07165789 1          0.9524441 
451.2      0.1396865  1          0.7573559 
451.3      0.1343747  1          0.7572103 
451.4      0.1425283  1          0.7283682 
451.5      0.1185805  1          0.7866225 
451.6      0.08213948 1          0.8820089 
451.7      0.0482839  1          0.9512702 
451.8      0.04690695 1          0.9510748 
451.9      0.04000437 1          0.9508795 
452        0.06509956 1          0.8813    
452.1      0.01990258 1          0.9870216 
452.2      0.03653499 1          0.915018  
452.3      0.02281661 1          0.9500988 
452.4      0.03496039 1          0.9146463 
452.5      0.0725269  1          0.8157711 
452.6      0.05440956 1          0.8802384 
452.7      0.0688731  1          0.847195  
452.8      0.06219659 1          0.8798848 
452.9      0.05637025 1          0.9137184 
453        0.1274378  1          0.7261562 
453.1      0.173893   1          0.6211363 
453.2      0.1739432  1          0.6458891 
453.3      0.1873589  1          0.6457707 
453.4      0.2114466  1          0.5967923 
453.5      0.2308389  1          0.5735032 
453.6      0.2426396  1          0.5734017 
453.7      0.2352387  1          0.620461  
453.8      0.2534276  1          0.6203486 
453.9      0.284949   1          0.5507265 
454        0.297248   1          0.529027  
454.1      0.2874999  1          0.550534  
454.2      0.317781   0.9262548  0.4495848 
454.3      0.3283642  0.8782306  0.4138263 
454.4      0.3243206  0.8677783  0.4312891 
454.5      0.321325   0.8654467  0.431219  
454.6      0.2669509  1          0.5500528 
454.7      0.2110061  1          0.6697676 
454.8      0.1508686  1          0.8120982 
454.9      0.1313892  1          0.8435067 
455        0.09946092 1          0.9098381 
455.1      0.09514588 1          0.9096541 
455.2      0.04579986 1          1         
455.3      0.03535188 1          1         
455.4      0.02547104 1          1         
455.5      0.02223446 1          1         
455.6      0.02034914 1          1         
455.7      0.02121414 1          1         
455.8      0.02147318 1          1         
455.9      0.01957416 1          1         
456        0.01924577 1          1         
456.1      0.01588056 1          1         
456.2      0.01432688 1          1         
456.3      0.01543174 1          1         
456.4      0.01753376 1          1         
456.5      0.01966262 1          1         
456.6      0.02196215 1          1         
456.7      0.02459461 1          1         
456.8      0.02547266 1          1         
456.9      0.02383627 1          1         
457        0.0285302  1          1         
457.1      0.0289804  1          1         
457.2      0.06300938 1          0.8721685 
457.3      0.08941091 1          0.8081371 
457.4      0.09048661 1          0.8079794 
457.5      0.1059409  1          0.7775277 
457.6      0.09453347 1          0.8390163 
457.7      0.1261203  1          0.7772275 
457.8      0.1009283  1          0.8711252 
457.9      0.123584   1          0.8385199 
458        0.1386212  1          0.8070338 
458.1      0.1755423  1          0.7191804 
458.2      0.2098753  1          0.6400101 
458.3      0.213144   1          0.6398933 
458.4      0.235635   1          0.5914852 
458.5      0.2646211  1          0.5249396 
458.6      0.2495244  1          0.5683631 
458.7      0.2232606  1          0.6394271 
458.8      0.198801   1          0.6910102 
458.9      0.1547592  1          0.805619  
459        0.07923894 1          1         
459.1      0.07806506 1          1         
459.2      0.08238486 1          1         
459.3      0.0825233  1          1         
459.4      0.07967605 1          1         
459.5      0.08102015 1          1         
459.6      0.07828306 1          1         
459.7      0.07946053 1          1         
459.8      0.08412973 1          1         
459.9      0.08275604 1          1         
460        0.07832225 1          1         
460.1      0.07752096 1          1         
460.2      0.0798821  1          1         
460.3      0.0818007  1          1         
460.4      0.0798059  1          1         
460.5      0.08078086 1          1         
460.6      0.08179141 1          1         
460.7      0.1012574  1          0.9339443 
460.8      0.1338611  1          0.8026457 
460.9      0.1481291  1          0.7153984 
461        0.1283241  1          0.715264  
461.1      0.06978026 1          0.8332546 
461.2      0.01981073 1          1         
461.3      0.03057281 1          0.9328076 
461.4      0.02294624 1          0.9682668 
461.5      0.03186631 1          0.9324294 
461.6      0.02425543 1          1         
461.7      0.02817158 1          1         
461.8      0.03395374 1          1         
461.9      0.03788506 1          1         
462        0.04725541 1          1         
462.1      0.05732769 1          1         
462.2      0.0609045  1          1         
462.3      0.06687149 1          1         
462.4      0.07395395 1          1         
462.5      0.0740821  1          1         
462.6      0.07553328 1          1         
462.7      0.07636034 1          1         
462.8      0.07989272 1          1         
462.9      0.1471362  1          0.830317  
463        0.1974854  1          0.7125841 
463.1      0.2331189  1          0.6343364 
463.2      0.2829866  0.9565971  0.5207284 
463.3      0.3161224  0.8431962  0.4613698 
463.4      0.3426785  0.7622276  0.4250578 
463.5      0.3749439  0.681106   0.3596075 
463.6      0.3455221  0.7221703  0.3911115 
463.7      0.2982709  0.8377042  0.4998611 
463.8      0.2612495  0.9793656  0.5632031 
463.9      0.1959638  1          0.7113835 
464        0.1447754  1          0.8604625 
464.1      0.1436268  1          0.8602923 
464.2      0.1432633  1          0.8601223 
464.3      0.1186555  1          0.9271592 
464.4      0.08624414 1          1         
464.5      0.08259365 1          1         
464.6      0.07859147 1          1         
464.7      0.07677577 1          1         
464.8      0.06927069 1          1         
464.9      0.05777156 1          1         
465        0.05388425 1          1         
465.1      0.03928891 1          1         
465.2      0.03080033 1          1         
465.3      0.02878629 1          1         
465.4      0.02724047 1          1         
465.5      0.02416471 1          1         
465.6      0.02081835 1          1         
465.7      0.01743177 1          1         
465.8      0.02361644 1          0.9595971 
465.9      0.01774118 1          0.9958656 
466        0.01782402 1          1         
466.1      0.01709381 1          1         
466.2      0.01771423 1          1         
466.3      0.01909591 1          1         
466.4      0.01890472 1          1         
466.5      0.02125882 1          1         
466.6      0.02453197 1          1         
466.7      0.02638236 1          1         
466.8      0.0274401  1          1         
466.9      0.08090165 1          0.8555493 
467        0.06009648 1          0.9221237 
467.1      0.072367   1          0.8880025 
467.2      0.11064    1          0.7927641 
467.3      0.07797844 1          0.8876488 
467.4      0.1187544  1          0.7924585 
467.5      0.1291036  1          0.7627561 
467.6      0.1209981  1          0.7626108 
467.7      0.1309088  1          0.7063523 
467.8      0.1727856  1          0.5817243 
467.9      0.1979493  1          0.5165755 
468        0.1856948  1          0.5590939 
468.1      0.154781   1          0.6534871 
468.2      0.1585192  1          0.6533682 
468.3      0.1526943  1          0.6789574 
468.4      0.1415135  1          0.7329605 
468.5      0.1606338  1          0.7053007 
468.6      0.2151504  1          0.5809064 
468.7      0.2365537  1          0.5584142 
468.8      0.2765612  0.9797521  0.4760768 
468.9      0.3027656  0.8973759  0.4213273 
469        0.3438258  0.7887862  0.3417797 
