~Version
 VERS              .         3.0                           : CWLS LOG ASCII STANDARD - VERSION 3.0
 WRAP              .         NO                            : ONE LINE PER DEPTH STEP
 DLM               .         SPACE                         : DELIMITING CHARACTER(SPACE TAB OR COMMA)
~Well Information
#_______________________________________________________________________________
#
#PARAMETER_NAME    .UNIT     VALUE                         : DESCRIPTION
#_______________________________________________________________________________
STRT               .m        0                             : First reference value
STOP               .m        964.2                         : Last reference value
STEP               .m        0.1                           : Step increment
NULL               .         -9999                         : Missing value
COMP               .         ICPetroleum                   : Company
WELL               .         318                           : Well name
FLD                .         Karatobe                      : Field
LOC                .                                       : Location
SRVC               .                                       : Service Company
CTRY               .         KZ                            : Country
DATE               .         21.12.2021                    : Service Date
LATI               .         0                             : Latitude
LONG               .         0                             : Longitude
GDAT               .         WGS 84                        : Geodetic Datum
CNTY               .                                       : 
COORDIN            .                                       : Grid System
COUNTRY            .         Kazakhstan                    : 
COUNTRY            .         Kazakhstan                    : 
EREF               .m        142.1                         : 
KB                 .         141.1                         : KB Elevation
ORIGINALWELLNAME   .         318                           : 
PROV               .                                       : Province
RWS                .         -999                          : Def_Rw
UWI                .                                       : Уникальный идентификатор скважины
WST                .         -999                          : Def_Rwt
X                  .km       466859.39                     : 
XCOORD             .                                       : X or East-West Coordinate
Y                  .km       5307894.01                    : 
YCOORD             .                                       : Y or North-South Coordinate
~Parameter Information Block
#_______________________________________________________________________________
#
#PARAMETER_NAME    .UNIT     VALUE                         : DESCRIPTION
#_______________________________________________________________________________
SET                .         Las                           : 
TLFamily_DEPT      .         Measured Depth                : 
TLFamily_PHI_FINAL .         Porosity                      : 
TLFamily_SW_AR     .         Water Saturation              : 
TLFamily_VSH_FINAL .         Shale Volume                  : 
~Curve Information
#_______________________________________________________________________________
#
#LOGNAME           .UNIT     LOG_ID                        : DESCRIPTION
#_______________________________________________________________________________
DEPT               .m                                      :  {F}
PHI_FINAL          .m3/m3                                  : Porosity {F}
SW_AR              .m3/m3                                  :  {F}
VSH_FINAL          .unitless                               : Vshale {F}
~Ascii
# ...
232.5      0.2844584  0.7629924  0.2970614 
232.6      0.2754023  0.7889996  0.3131404 
232.7      0.2556315  0.8466057  0.3656908 
232.8      0.2668207  0.8129835  0.3298372 
232.9      0.272866   0.7970998  0.312974  
233        0.2753285  0.7891997  0.2968025 
233.1      0.2786973  0.7745352  0.2967508 
233.2      0.2672953  0.8011473  0.3295999 
233.3      0.2706288  0.7906828  0.3295407 
233.4      0.2762303  0.7755073  0.3294815 
233.5      0.2700826  0.7910712  0.3294223 
233.6      0.2831519  0.7575631  0.2810529 
233.7      0.2760575  0.7748656  0.2964407 
233.8      0.2775069  0.7688586  0.296389  
233.9      0.2885359  0.7379118  0.2519076 
234        0.2870747  0.7393968  0.2518658 
234.1      0.2941237  0.7236317  0.2126144 
234.2      0.2845778  0.755046   0.2381691 
234.3      0.2795463  0.7836708  0.2517404 
234.4      0.2471828  0.8896607  0.3463455 
234.5      0.2330627  0.9405657  0.3834346 
234.6      0.2121686  1          0.4675702 
234.7      0.1629972  1          0.6230948 
234.8      0.1249603  1          0.7504048 
234.9      0.1069363  1          0.8223182 
235        0.05229734 1          0.9854934 
235.1      0.0529795  1          1         
235.2      0.1029481  1          0.8600516 
235.3      0.1129777  1          0.8215449 
235.4      0.1045137  1          0.8596418 
235.5      0.1065357  1          0.8594371 
235.6      0.07962014 1          0.9406945 
235.7      0.06618895 1          0.9837866 
235.8      0.06842309 1          0.983543  
235.9      0.06489245 1          0.9832997 
236        0.0966154  1          0.8982521 
236.1      0.09357909 1          0.9395464 
236.2      0.09892446 1          0.9393168 
236.3      0.09539112 1          0.9390876 
236.4      0.1188984  1          0.8575984 
236.5      0.1667238  1          0.7137891 
236.6      0.1491605  1          0.7824378 
236.7      0.1631428  1          0.7471496 
236.8      0.14506    1          0.7820756 
236.9      0.1244377  1          0.8184637 
237        0.08945036 1          0.8960908 
237.1      0.1346353  1          0.7464674 
237.2      0.138333   1          0.7462971 
237.3      0.1174427  1          0.8176965 
237.4      0.1203217  1          0.7809905 
237.5      0.09628097 1          0.8553597 
237.6      0.1102159  1          0.817122  
237.7      0.1022883  1          0.8549536 
237.8      0.1390306  1          0.7452759 
237.9      0.1501521  1          0.7115418 
238        0.1490842  1          0.7113818 
238.1      0.1588587  1          0.6790364 
238.2      0.164623   1          0.6788858 
238.3      0.1208555  1          0.8157838 
238.4      0.1081198  1          0.8535352 
238.5      0.1128106  1          0.8533329 
238.6      0.1030908  1          0.8926508 
238.7      0.1188593  1          0.8529287 
238.8      0.1278936  1          0.81483   
238.9      0.1014099  1          0.8920082 
239        0.1196458  1          0.8523227 
239.1      0.06810316 1          1         
239.2      0.08581612 1          0.9324785 
239.3      0.1445258  1          0.7427336 
239.4      0.1271807  1          0.7773921 
239.5      0.08709377 1          0.8907252 
239.6      0.07615144 1          0.931573  
239.7      0.07548507 1          0.931347  
239.8      0.04895699 1          1         
239.9      0.08016904 1          0.8898717 
240        0.05923875 1          0.930669  
240.1      0.04197207 1          1         
240.2      0.0424462  1          1         
240.3      0.06199205 1          0.9726911 
240.4      0.058272   1          1         
240.5      0.06316625 1          1         
240.6      0.0749549  1          0.9719748 
240.7      0.1123263  1          0.8489022 
240.8      0.07809266 1          0.9714976 
240.9      0.143326   1          0.7747114 
241        0.1666578  1          0.7066078 
241.1      0.1398033  1          0.774355  
241.2      0.1165808  1          0.8479007 
241.3      0.09938598 1          0.8868951 
241.4      0.0903329  1          0.9275159 
241.5      0.09380975 1          0.9272915 
241.6      0.08094282 1          0.9695929 
241.7      0.06776264 1          1         
241.8      0.06564841 1          1         
241.9      0.06845067 1          1         
242        0.07270578 1          1         
242.1      0.08679298 1          0.9684056 
242.2      0.0701794  1          1         
242.3      0.06443912 1          1         
242.4      0.08207131 1          0.9676943 
242.5      0.1001409  1          0.9250509 
242.6      0.148931   1          0.7716918 
242.7      0.1419802  1          0.7715149 
242.8      0.1140011  1          0.8447087 
242.9      0.1238154  1          0.80708   
243        0.1353308  1          0.7709842 
243.1      0.166733   1          0.6715728 
243.2      0.1664356  1          0.671425  
243.3      0.161087   1          0.7029845 
243.4      0.1550976  1          0.7358584 
243.5      0.1187626  1          0.8433184 
243.6      0.08092219 1          0.9648579 
243.7      0.07984268 1          0.9646219 
243.8      0.07916044 1          0.9643863 
243.9      0.06608646 1          1         
244        0.06541895 1          1         
244.1      0.07276405 1          1         
244.2      0.07431258 1          1         
244.3      0.08733058 1          0.9632096 
244.4      0.1319516  1          0.8415364 
244.5      0.1448709  1          0.804089  
244.6      0.1317274  1          0.8411414 
244.7      0.1256063  1          0.8797342 
244.8      0.1283145  1          0.8795249 
244.9      0.1171802  1          0.9197103 
245        0.130182   1          0.8791069 
245.1      0.154017   1          0.802972  
245.2      0.1364832  1          0.8399578 
245.3      0.1373022  1          0.8397609 
245.4      0.1385964  1          0.8395641 
245.5      0.114464   1          0.9183829 
245.6      0.1275402  1          0.8778546 
245.7      0.0920219  1          1         
245.8      0.09127182 1          1         
245.9      0.08388102 1          1         
246        0.08456136 1          1         
246.1      0.08391521 1          1         
246.2      0.0806644  1          1         
246.3      0.07602347 1          1         
246.4      0.07465435 1          1         
246.5      0.07173961 1          1         
246.6      0.07058914 1          1         
246.7      0.08545672 1          0.9575932 
246.8      0.07359953 1          1         
246.9      0.0999404  1          0.9152986 
247        0.1158871  1          0.8749441 
247.1      0.1119898  1          0.8747369 
247.2      0.1473247  1          0.7636198 
247.3      0.1297567  1          0.7988991 
247.4      0.0995234  1          0.8741155 
247.5      0.1030484  1          0.8739086 
247.6      0.08487407 1          0.9137627 
247.7      0.0875839  1          0.9135438 
247.8      0.1060919  1          0.8732882 
247.9      0.1340945  1          0.7977942 
248        0.1620964  1          0.6956772 
248.1      0.1469445  1          0.7620569 
248.2      0.114999   1          0.8724622 
248.3      0.1196765  1          0.872256  
248.4      0.1058122  1          0.9120127 
248.5      0.1039588  1          0.9117941 
248.6      0.1072639  1          0.911576  
248.7      0.1471023  1          0.796325  
248.8      0.1613272  1          0.7608454 
248.9      0.163254   1          0.7606723 
249        0.1821633  1          0.694139  
249.1      0.1692156  1          0.7264768 
249.2      0.1991577  1          0.632727  
249.3      0.2065802  1          0.5763076 
249.4      0.2025333  1          0.6037448 
249.5      0.2002264  1          0.6036167 
249.6      0.206596   1          0.5759458 
249.7      0.2055323  1          0.5758253 
249.8      0.1949586  1          0.6032327 
249.9      0.204923   1          0.5755846 
250        0.1815536  1          0.6316391 
250.1      0.1297035  1          0.7937648 
250.2      0.1025057  1          0.8683517 
250.3      0.09810808 1          0.8681471 
250.4      0.06809212 1          0.9490399 
250.5      0.07281448 1          0.9488106 
250.6      0.1047282  1          0.8675334 
