~Version
 VERS              .         3.0                           : CWLS LOG ASCII STANDARD - VERSION 3.0
 WRAP              .         NO                            : ONE LINE PER DEPTH STEP
 DLM               .         SPACE                         : DELIMITING CHARACTER(SPACE TAB OR COMMA)
~Well Information
#_______________________________________________________________________________
#
#PARAMETER_NAME    .UNIT     VALUE                         : DESCRIPTION
#_______________________________________________________________________________
STRT               .m        0                             : First reference value
STOP               .m        964.2                         : Last reference value
STEP               .m        0.1                           : Step increment
NULL               .         -9999                         : Missing value
COMP               .         ICPetroleum                   : Company
WELL               .         318                           : Well name
FLD                .         Karatobe                      : Field
LOC                .                                       : Location
SRVC               .                                       : Service Company
CTRY               .         KZ                            : Country
DATE               .         21.12.2021                    : Service Date
LATI               .         0                             : Latitude
LONG               .         0                             : Longitude
GDAT               .         WGS 84                        : Geodetic Datum
CNTY               .                                       : 
COORDIN            .                                       : Grid System
COUNTRY            .         Kazakhstan                    : 
COUNTRY            .         Kazakhstan                    : 
EREF               .m        142.1                         : 
KB                 .         141.1                         : KB Elevation
ORIGINALWELLNAME   .         318                           : 
PROV               .                                       : Province
RWS                .         -999                          : Def_Rw
UWI                .                                       : Уникальный идентификатор скважины
WST                .         -999                          : Def_Rwt
X                  .km       466859.39                     : 
XCOORD             .                                       : X or East-West Coordinate
Y                  .km       5307894.01                    : 
YCOORD             .                                       : Y or North-South Coordinate
~Parameter Information Block
#_______________________________________________________________________________
#
#PARAMETER_NAME    .UNIT     VALUE                         : DESCRIPTION
#_______________________________________________________________________________
SET                .         Las                           : 
TLFamily_DEPT      .         Measured Depth                : 
TLFamily_PHI_FINAL .         Porosity                      : 
TLFamily_SW_AR     .         Water Saturation              : 
TLFamily_VSH_FINAL .         Shale Volume                  : 
~Curve Information
#_______________________________________________________________________________
#
#LOGNAME           .UNIT     LOG_ID                        : DESCRIPTION
#_______________________________________________________________________________
DEPT               .m                                      :  {F}
PHI_FINAL          .m3/m3                                  : Porosity {F}
SW_AR              .m3/m3                                  :  {F}
VSH_FINAL          .unitless                               : Vshale {F}
~Ascii
# ...
593.7      0.1034664  1          0.6327121 
593.8000000000001 0.09791673 1          0.6554384 
593.9      0.09091536 1          0.6788832 
594        0.1036876  1          0.632399  
594.1      0.1195809  1          0.5887567 
594.2      0.1139337  1          0.5886615 
594.3000000000001 0.1014112  1          0.6099847 
594.4      0.08271293 1          0.6783119 
594.5      0.07867745 1          0.7024716 
594.6      0.08709528 1          0.6780835 
594.7      0.08648341 1          0.6779695 
594.8000000000001 0.04989295 1          0.7796258 
594.9      0.01961223 1          0.894846  
595        0.005206379 1          0.9911941 
595.1      0.004370718 1          1         
595.2      0.005380819 1          1         
595.3000000000001 0.006087884 1          1         
595.4      0.006289894 1          1         
595.5      0.004572724 1          1         
595.6      0.006087884 1          1         
595.7      0.005683849 1          1         
595.8000000000001 0.005279794 1          1         
595.9      0.006188889 1          1         
596        0.004774753 1          1         
596.1      0.004673748 1          1         
596.2      0.005380819 1          1         
596.3000000000001 0.004067683 1          1         
596.4      0.002855558 1          1         
596.5      0.002552524 1          1         
596.6      0.003663628 1          1         
596.7      0.003562623 1          1         
596.8000000000001 0.01613366 1          0.9227888 
596.9      0.02941978 1          0.8615223 
597        0.03812397 1          0.8322318 
597.1      0.0853909  1          0.6993771 
597.2      0.08599269 1          0.6992584 
597.3000000000001 0.07661024 1          0.7240333 
597.4      0.0490577  1          0.8034275 
597.5      0.06943931 1          0.7494599 
597.6      0.04283063 1          0.831342  
597.7      0.06006252 1          0.7756801 
597.8000000000001 0.05411999 1          0.8028607 
597.9      0.0639709  1          0.7754092 
598        0.07307564 1          0.7488121 
598.1      0.09355373 1          0.698193  
598.2      0.08288152 1          0.7229189 
598.3000000000001 0.04020411 1          0.8303061 
598.4      0.03686256 1          0.8301583 
598.5      0.0744953  1          0.7225481 
598.6      0.03562416 1          0.8298628 
598.7      0.02435818 1          0.8886806 
598.8000000000001 0.02513657 1          0.8885194 
598.9      0.03151826 1          0.8584278 
599        0.02087868 1          0.8881971 
599.1      0.02958906 1          0.8291247 
599.2      0.02345202 1          0.8579652 
599.3000000000001 0.03539483 1          0.800741  
599.4      0.04909463 1          0.7470039 
599.5      0.04954012 1          0.7213143 
599.6      0.04120769 1          0.7467461 
599.7      0.03806588 1          0.7466174 
599.8000000000001 0.03613902 1          0.7728436 
599.9      0.05418388 1          0.7208217 
600        0.04746838 1          0.7206987 
600.1      0.04237036 1          0.7205757 
600.2      0.04837332 1          0.6717435 
600.3000000000001 0.03668737 1          0.6716312 
600.4      0.01797284 1          0.6954826 
600.5      0.0007045868 1          0.7719021 
600.6      0          1          0.8269172 
600.7      0          1          0.8854641 
600.8000000000001 0          1          0.9804981 
600.9      0          1          1         
601        0.007669807 1          0.9474197 
601.1      0.01141514 1          0.9472449 
601.2      0.02461657 1          0.8260371 
601.3000000000001 0.06183003 1          0.7191023 
601.4      0.09524006 1          0.6472219 
601.5      0.08197916 1          0.6941925 
601.6      0.05548981 1          0.7704263 
601.7      0.08206832 1          0.6939583 
601.8000000000001 0.09196452 1          0.6699505 
601.9      0.08565086 1          0.6937245 
602        0.0932684  1          0.669727  
602.1      0.06783313 1          0.7435369 
602.2      0.05134913 1          0.7966694 
602.3000000000001 0.06088983 1          0.7694896 
602.4      0.08277561 1          0.7177562 
602.5      0.0957159  1          0.6930232 
602.6      0.1124165  1          0.6459406 
602.7      0.1218195  1          0.6234332 
602.8000000000001 0.1204841  1          0.6233314 
602.9      0.1117925  1          0.6456209 
603        0.11517    1          0.6455144 
603.1      0.09859256 1          0.6923234 
603.2      0.1187624  1          0.6229244 
603.3000000000001 0.1529076  1          0.5208582 
603.4      0.1627448  1          0.4842501 
603.5      0.1574568  1          0.502152  
603.6      0.1507271  1          0.5206164 
603.7      0.1126654  1          0.6224166 
603.8000000000001 0.0930245  1          0.6677206 
603.9      0.07567888 1          0.7159275 
604        0.09172493 1          0.6674983 
604.1      0.1068114  1          0.6220106 
604.2      0.1219873  1          0.5792858 
604.3000000000001 0.1230942  1          0.5791932 
604.4      0.1266144  1          0.5791008 
604.5      0.1249812  1          0.5790085 
604.6      0.1176357  1          0.5998781 
604.7      0.1117622  1          0.6214027 
604.8000000000001 0.1183218  1          0.5996846 
604.9      0.1198882  1          0.599588  
605        0.1323123  1          0.5785468 
605.1      0.144297   1          0.5384815 
605.2      0.1550998  1          0.5193303 
605.3000000000001 0.1412989  1          0.5579805 
605.4      0.1577661  1          0.5191699 
605.5      0.1299417  1          0.5990085 
605.6      0.1318401  1          0.5989121 
605.7      0.1009713  1          0.689304  
605.8000000000001 0.1080333  1          0.6655033 
605.9      0.08725047 1          0.7135014 
606        0.1000108  1          0.6652822 
606.1      0.08136649 1          0.7132596 
606.2      0.05112407 1          0.7911099 
606.3000000000001 0.06926911 1          0.7381976 
606.4      0.07705826 1          0.7128971 
606.5      0.07676024 1          0.7127764 
606.6      0.07567623 1          0.7126555 
606.7      0.08662934 1          0.6881486 
606.8000000000001 0.07675229 1          0.7124143 
606.9      0.05494667 1          0.7633815 
607        0.03486105 1          0.8176078 
607.1      0.06497972 1          0.7371879 
607.2      0.08604727 1          0.6875722 
607.3000000000001 0.08420816 1          0.6874569 
607.4      0.06634139 1          0.7368098 
607.5      0.06684848 1          0.736684  
607.6      0.07329482 1          0.7114502 
607.7      0.1052933  1          0.618378  
607.8000000000001 0.1225703  1          0.575973  
607.9      0.1545178  1          0.4987894 
608        0.1690094  1          0.4636259 
608.1      0.1826627  1          0.430592  
608.2      0.1959416  1          0.3995585 
608.3000000000001 0.2281371  1          0.3051071 
608.4      0.2290241  1          0.2931844 
608.5      0.2483063  1          0.2491522 
608.6      0.26574    1          0.2102789 
608.7      0.2863462  1          0.1759594 
608.8000000000001 0.3032041  1          0.1386601 
608.9      0.3047674  1          0.1252842 
609        0.3077283  1          0.1127171 
609.1      0.3056041  1          0.1127058 
609.2      0.3154111  1          0.09527199
609.3000000000001 0.3232298  1          0.08451954
609.4      0.3349988  1          0.06040398
609.5      0.3337123  1          0.06492488
609.6      0.3361079  1          0.06039347
609.7      0.3360226  1          0.05600149
609.8000000000001 0.3392064  1          0.05174458
609.9      0.3388791  1          0.05599189
610        0.3381989  1          0.05598709
610.1      0.3337257  1          0.06489055
610.2      0.3342309  1          0.06488483
610.3000000000001 0.33456    1          0.06035673
610.4      0.336599   1          0.06035148
610.5      0.3390247  1          0.05596311
610.6      0.3393029  1          0.05170962
610.7      0.3375423  1          0.05595352
610.8000000000001 0.3360715  1          0.05594873
610.9      0.3352673  1          0.05594394
611        0.3341059  1          0.05169215
611.1      0.3375505  1          0.04757103
611.2      0.338535   1          0.04357652
