~Version
 VERS              .         3.0                           : CWLS LOG ASCII STANDARD - VERSION 3.0
 WRAP              .         NO                            : ONE LINE PER DEPTH STEP
 DLM               .         SPACE                         : DELIMITING CHARACTER(SPACE TAB OR COMMA)
~Well Information
#_______________________________________________________________________________
#
#PARAMETER_NAME    .UNIT     VALUE                         : DESCRIPTION
#_______________________________________________________________________________
STRT               .m        0                             : First reference value
STOP               .m        964.2                         : Last reference value
STEP               .m        0.1                           : Step increment
NULL               .         -9999                         : Missing value
COMP               .         ICPetroleum                   : Company
WELL               .         318                           : Well name
FLD                .         Karatobe                      : Field
LOC                .                                       : Location
SRVC               .                                       : Service Company
CTRY               .         KZ                            : Country
DATE               .         21.12.2021                    : Service Date
LATI               .         0                             : Latitude
LONG               .         0                             : Longitude
GDAT               .         WGS 84                        : Geodetic Datum
CNTY               .                                       : 
COORDIN            .                                       : Grid System
COUNTRY            .         Kazakhstan                    : 
COUNTRY            .         Kazakhstan                    : 
EREF               .m        142.1                         : 
KB                 .         141.1                         : KB Elevation
ORIGINALWELLNAME   .         318                           : 
PROV               .                                       : Province
RWS                .         -999                          : Def_Rw
UWI                .                                       : Уникальный идентификатор скважины
WST                .         -999                          : Def_Rwt
X                  .km       466859.39                     : 
XCOORD             .                                       : X or East-West Coordinate
Y                  .km       5307894.01                    : 
YCOORD             .                                       : Y or North-South Coordinate
~Parameter Information Block
#_______________________________________________________________________________
#
#PARAMETER_NAME    .UNIT     VALUE                         : DESCRIPTION
#_______________________________________________________________________________
SET                .         Las                           : 
TLFamily_DEPT      .         Measured Depth                : 
TLFamily_PHI_FINAL .         Porosity                      : 
TLFamily_SW_AR     .         Water Saturation              : 
TLFamily_VSH_FINAL .         Shale Volume                  : 
~Curve Information
#_______________________________________________________________________________
#
#LOGNAME           .UNIT     LOG_ID                        : DESCRIPTION
#_______________________________________________________________________________
DEPT               .m                                      :  {F}
PHI_FINAL          .m3/m3                                  : Porosity {F}
SW_AR              .m3/m3                                  :  {F}
VSH_FINAL          .unitless                               : Vshale {F}
~Ascii
# ...
177.9      -9999      -9999      0.7811801 
178        -9999      -9999      0.8195928 
178.1      -9999      -9999      0.81939   
178.2      -9999      -9999      0.8191872 
178.3      -9999      -9999      0.6743323 
178.4      -9999      -9999      0.7079926 
178.5      -9999      -9999      0.8185791 
178.6      -9999      -9999      0.7798465 
178.7      -9999      -9999      0.7074889 
178.8      -9999      -9999      0.7426059 
178.9      -9999      -9999      0.8177695 
179        -9999      -9999      0.8175675 
179.1      -9999      -9999      0.778896  
179.2      -9999      -9999      0.8171632 
179.3      -9999      -9999      0.7417139 
179.4      -9999      -9999      0.7063161 
179.5      -9999      -9999      0.7781371 
179.6      -9999      -9999      0.6400313 
179.7      -9999      -9999      0.6721302 
179.8      -9999      -9999      0.6088769 
179.9      -9999      -9999      0.5792054 
180        -9999      -9999      0.5790761 
180.1      -9999      -9999      0.5506904 
180.2      -9999      -9999      0.6713465 
180.3      -9999      -9999      0.67119   
180.4      -9999      -9999      0.7046465 
180.5      -9999      -9999      0.7044799 
180.6      -9999      -9999      0.7043132 
180.7      -9999      -9999      0.6705645 
180.8      -9999      -9999      0.7390486 
180.9      -9999      -9999      0.670252  
181        -9999      -9999      0.7036478 
181.1      -9999      -9999      0.7385174 
181.2      -9999      -9999      0.7033156 
181.3      -9999      -9999      0.6696281 
181.4      -9999      -9999      0.5772706 
181.5      -9999      -9999      0.577142  
181.6      -9999      -9999      0.6064013 
181.7      -9999      -9999      0.6062642 
181.8      -9999      -9999      0.5767565 
181.9      -9999      -9999      0.5766281 
182        -9999      -9999      0.6685384 
182.1      -9999      -9999      0.6363677 
182.2      -9999      -9999      0.7016577 
182.3      -9999      -9999      0.6680725 
182.4      -9999      -9999      0.7362231 
182.5      -9999      -9999      0.7011616 
182.6      -9999      -9999      0.7009965 
182.7      -9999      -9999      0.7721104 
182.8      -9999      -9999      0.7719232 
182.9      -9999      -9999      0.6671419 
183        -9999      -9999      0.6669871 
183.1      -9999      -9999      0.6349124 
183.2      -9999      -9999      0.6347671 
183.3      -9999      -9999      0.7346419 
183.4      -9999      -9999      0.6996771 
183.5      -9999      -9999      0.6995124 
183.6      -9999      -9999      0.6660591 
183.7      -9999      -9999      0.6340418 
183.8      -9999      -9999      0.6338969 
183.9      -9999      -9999      0.493735  
184        -9999      -9999      0.4456204 
184.1      -9999      -9999      0.3809206 
184.2      -9999      -9999      0.3422332 
184.3      -9999      -9999      0.3421681 
184.4      -9999      -9999      0.2742856 
184.5      -9999      -9999      0.2445068 
184.6      -9999      -9999      0.2900465 
184.7      -9999      -9999      0.3065527 
184.8      -9999      -9999      0.3418431 
184.9      -9999      -9999      0.4223655 
185        -9999      -9999      0.4447049 
185.1      -9999      -9999      0.4680276 
185.2      -9999      -9999      0.5179073 
185.3      -9999      -9999      0.517796  
185.4      -9999      -9999      0.6315863 
185.5      -9999      -9999      0.5720382 
185.6      -9999      -9999      0.6009609 
185.7      0.2038013  0.812239   0.600826  
185.8      0.1433396  1          0.766346  
185.9      0.1496653  1          0.695581  
186        0.1059299  1          0.8036194 
186.1      0.08093207 1          0.8837643 
186.2      0.1041486  1          0.8032267 
186.3      0.08751913 1          0.8423049 
186.4      0.06237983 1          0.9259178 
186.5      0.1037587  1          0.8026382 
186.6      0.117107   1          0.7648703 
186.7      0.1555728  1          0.6612995 
186.8      0.1640664  1          0.6295763 
186.9      0.1688442  0.9687201  0.629433  
187        0.1789802  0.9053138  0.5990764 
187.1      0.1723052  0.931057   0.629147  
187.2      0.1995557  0.806806   0.5422036 
187.3      0.1975971  0.8101685  0.5420856 
187.4      0.1762094  0.9021218  0.5985398 
187.5      0.1662085  0.9558458  0.6285754 
187.6      0.1450007  1          0.6928189 
187.7      0.1422468  1          0.6926569 
187.8      0.1212571  1          0.7626655 
187.9      0.1353214  1          0.7266485 
188        0.1285862  1          0.7264762 
188.1      0.1407097  1          0.6920099 
188.2      0.165259   0.9745367  0.6275771 
188.3      0.1758031  0.9240617  0.5973356 
188.4      0.1734564  0.9358834  0.5972019 
188.5      0.1392549  1          0.691364  
188.6      0.1624374  1          0.627008  
188.7      0.1378484  1          0.6910415 
188.8      0.1811283  0.9216028  0.5678858 
188.9      0.1658551  1          0.596535  
189        0.1586939  1          0.6264396 
189.1      0.1252476  1          0.7245871 
189.2      0.1291429  1          0.7244159 
189.3      0.1567234  1          0.657352  
189.4      0.1170708  1          0.7597424 
189.5      0.1155364  1          0.7595602 
189.6      0.1282529  1          0.7237313 
189.7      0.1172693  1          0.7591963 
189.8      0.1326794  1          0.7233895 
189.9      0.1340141  1          0.7232185 
190        0.1070461  1          0.7958267 
190.1      0.1191369  1          0.7584694 
190.2      0.1478513  1          0.6886302 
190.3      0.1534771  1          0.6558443 
190.4      0.1420707  1          0.6883096 
190.5      0.1373568  1          0.6881495 
190.6      0.1387388  1          0.6879894 
190.7      0.1503715  1          0.6552429 
190.8      0.1374305  1          0.6876695 
190.9      0.1515992  1          0.6549426 
191        0.137389   1          0.6873497 
191.1      0.1596624  1          0.6234703 
191.2      0.1681875  1          0.5934833 
191.3      0.1658185  1          0.5933513 
191.4      0.1872534  0.9475493  0.5372888 
191.5      0.2015263  0.878459   0.5109743 
191.6      0.1882331  0.9351072  0.5370567 
191.7      0.178302   0.986331   0.5642794 
191.8      0.1579355  1          0.6224858 
191.9      0.1642434  1          0.5925598 
192        0.1769028  0.9886227  0.5639085 
192.1      0.2035123  0.8650098  0.4852719 
192.2      0.184373   0.9536161  0.5363614 
192.3      0.1787454  0.9891274  0.5635381 
192.4      0.1615689  1          0.6216443 
192.5      0.1668078  1          0.5917702 
192.6      0.1832079  0.976535   0.563168  
192.7      0.1974289  0.911801   0.509672  
192.8      0.1958762  0.9245653  0.5356678 
192.9      0.2031388  0.9030514  0.5094554 
193        0.1929117  0.9461939  0.5093473 
193.1      0.173567   1          0.5625523 
193.2      0.1798776  1          0.5624294 
193.3      0.1935838  0.9633283  0.509023  
193.4      0.1992598  0.9237462  0.5089149 
193.5      0.2229262  0.8216294  0.4370553 
193.6      0.2303213  0.7881232  0.4369666 
193.7      0.2055991  0.8646677  0.5346299 
193.8      0.2027021  0.8781761  0.5345149 
193.9      0.2172843  0.8354584  0.483448  
194        0.2134323  0.8543046  0.4833469 
194.1      0.2085669  0.8712595  0.5081599 
194.2      0.2002902  0.9101992  0.534055  
194.3      0.1826342  0.9975805  0.5894123 
194.4      0.1989978  0.9079062  0.5338252 
194.5      0.2066272  0.8724287  0.5337105 
194.6      0.1878857  0.9586205  0.5890208 
194.7      0.1840463  0.9733603  0.5888903 
194.8      0.201259   0.9011566  0.5333663 
194.9      0.2025103  0.8958884  0.5332518 
195        0.1900662  0.9492325  0.560223  
195.1      0.2068049  0.8869249  0.5070845 
195.2      0.1930961  0.956936   0.5329081 
195.3      0.1823246  1          0.5598568 
195.4      0.1937298  0.9648434  0.5067627 
195.5      0.1926001  0.9724244  0.5066555 
195.6      0.1704237  1          0.5877192 
195.7      0.1766425  1          0.5593691 
195.8      0.1787851  1          0.5592473 
195.9      0.1938248  0.9578358  0.5062271 
196        0.1767868  1          0.5590037 
