~Version
 VERS              .         3.0                           : CWLS LOG ASCII STANDARD - VERSION 3.0
 WRAP              .         NO                            : ONE LINE PER DEPTH STEP
 DLM               .         SPACE                         : DELIMITING CHARACTER(SPACE TAB OR COMMA)
~Well Information
#_______________________________________________________________________________
#
#PARAMETER_NAME    .UNIT     VALUE                         : DESCRIPTION
#_______________________________________________________________________________
STRT               .m        0                             : First reference value
STOP               .m        964.2                         : Last reference value
STEP               .m        0.1                           : Step increment
NULL               .         -9999                         : Missing value
COMP               .         ICPetroleum                   : Company
WELL               .         318                           : Well name
FLD                .         Karatobe                      : Field
LOC                .                                       : Location
SRVC               .                                       : Service Company
CTRY               .         KZ                            : Country
DATE               .         21.12.2021                    : Service Date
LATI               .         0                             : Latitude
LONG               .         0                             : Longitude
GDAT               .         WGS 84                        : Geodetic Datum
CNTY               .                                       : 
COORDIN            .                                       : Grid System
COUNTRY            .         Kazakhstan                    : 
COUNTRY            .         Kazakhstan                    : 
EREF               .m        142.1                         : 
KB                 .         141.1                         : KB Elevation
ORIGINALWELLNAME   .         318                           : 
PROV               .                                       : Province
RWS                .         -999                          : Def_Rw
UWI                .                                       : Уникальный идентификатор скважины
WST                .         -999                          : Def_Rwt
X                  .km       466859.39                     : 
XCOORD             .                                       : X or East-West Coordinate
Y                  .km       5307894.01                    : 
YCOORD             .                                       : Y or North-South Coordinate
~Parameter Information Block
#_______________________________________________________________________________
#
#PARAMETER_NAME    .UNIT     VALUE                         : DESCRIPTION
#_______________________________________________________________________________
SET                .         Las                           : 
TLFamily_DEPT      .         Measured Depth                : 
TLFamily_PHI_FINAL .         Porosity                      : 
TLFamily_SW_AR     .         Water Saturation              : 
TLFamily_VSH_FINAL .         Shale Volume                  : 
~Curve Information
#_______________________________________________________________________________
#
#LOGNAME           .UNIT     LOG_ID                        : DESCRIPTION
#_______________________________________________________________________________
DEPT               .m                                      :  {F}
PHI_FINAL          .m3/m3                                  : Porosity {F}
SW_AR              .m3/m3                                  :  {F}
VSH_FINAL          .unitless                               : Vshale {F}
~Ascii
# ...
505.5      0.138664   0.6746711  0.140053  
505.6      0.1378142  0.528526   0.1327107 
505.7      0.1310733  0.5260684  0.1326959 
505.8      0.1282112  0.5609205  0.1400054 
505.9      0.1325546  0.5937356  0.1475616 
506        0.12405    0.6983781  0.1804877 
506.1      0.1194609  0.8142686  0.1986598 
506.2      0.1151631  0.9513773  0.2388724 
506.3      0.1139167  1          0.2848191 
506.4      0.1439707  0.9933543  0.2610277 
506.5      0.1421813  1          0.3101276 
506.6      0.1595494  1          0.3100836 
506.7      0.1496915  1          0.3971762 
506.8      0.1701655  1          0.3813578 
506.9      0.1585922  1          0.4475995 
507        0.1531545  1          0.4841406 
507.1      0.167631   1          0.4654549 
507.2      0.1592535  1          0.5032184 
507.3      0.1452117  1          0.5435764 
507.4      0.1610768  1          0.5030537 
507.5      0.167891   1          0.4837489 
507.6      0.1716696  1          0.4836705 
507.7      0.1671979  1          0.4835923 
507.8      0.1569154  1          0.5027243 
507.9      0.1354375  1          0.5642574 
508        0.09638063 1          0.6815667 
508.1      0.04546905 1          0.8201158 
508.2      0.01414818 1          0.914939  
508.3      0.003555049 1          0.9835504 
508.4      0.005429896 1          1         
508.5      0.006365828 1          1         
508.6      0.006543505 1          1         
508.7      0.03223292 1          0.8813682 
508.8      0.002658325 1          1         
508.9      0.01563633 1          0.9136919 
509        0.003138487 1          0.982182  
509.1      0.002102876 1          1         
509.2      0.002104371 1          1         
509.3      0.008616179 1          0.9129806 
509.4      0.03242823 1          0.8181057 
509.5      0.02081275 1          0.8800105 
509.6      0.03033161 1          0.8483025 
509.7      0.01922101 1          0.9122701 
509.8      0.01554698 1          0.9120927 
509.9      0.009296154 1          0.9456009 
510        0.01159026 1          0.9454151 
510.1      0.002514232 1          1         
510.2      0.002631733 1          1         
510.3      0.004660385 1          1         
510.4      0.008842804 1          1         
510.5      0.01134629 1          1         
510.6      0.01356314 1          1         
510.7      0.01534656 1          1         
510.8      0.03137161 1          0.9439307 
510.9      0.04938142 1          0.9101442 
511        0.1161589  1          0.7577913 
511.1      0.1211319  1          0.7301448 
511.2      0.1167677  1          0.703411  
511.3      0.07277729 1          0.8151826 
511.4      0.05708633 1          0.8767999 
511.5      0.04235231 1          0.942635  
511.6      0.02590042 1          0.9771268 
511.7      0.07626575 1          0.8449187 
511.8      0.08552959 1          0.8447582 
511.9      0.1353764  1          0.7025242 
512        0.138155   1          0.7023977 
512.1      0.1534716  1          0.6277316 
512.2      0.1049417  1          0.7561188 
512.3000000000001 0.1151276  1          0.7285507 
512.4      0.07482629 1          0.8134981 
512.5      0.07557779 1          0.7840444 
512.6      0.0632087  1          0.8434755 
512.7      0.1202356  1          0.6510686 
512.8000000000001 0.1052109  1          0.7013867 
512.9      0.07178207 1          0.8127343 
513        0.0943949  1          0.7550072 
513.1      0.07623332 1          0.7831709 
513.2      0.07191584 1          0.7830253 
513.3000000000001 0.05123779 1          0.8423558 
513.4      0.07335763 1          0.7827346 
513.5      0.06057649 1          0.8118196 
513.6      0.07060535 1          0.8116671 
513.7      0.1061118  1          0.7266983 
513.8000000000001 0.1187525  1          0.6745508 
513.9      0.1439124  1          0.6257681 
514        0.1383676  1          0.674311  
514.1      0.1635269  1          0.602415  
514.2      0.1587213  1          0.6023115 
514.3000000000001 0.1538789  1          0.625333  
514.4      0.151293   1          0.6491249 
514.5      0.1443381  1          0.6737123 
514.6      0.1720233  1          0.6488969 
514.7      0.1589937  1          0.6989958 
514.8000000000001 0.1389015  1          0.7252484 
514.9      0.1344083  1          0.7251168 
515        0.1444237  1          0.6986197 
515.1      0.1319469  1          0.6984943 
515.2      0.1441136  1          0.6728756 
515.3000000000001 0.1305204  1          0.6982437 
515.4      0.1067426  1          0.7798367 
515.5      0.153704   1          0.6478724 
515.6      0.1681946  1          0.623923  
515.7      0.1925285  1          0.5568872 
515.8000000000001 0.1787234  1          0.5783626 
515.9      0.1652589  1          0.6005558 
516        0.1600517  1          0.6234903 
516.1      0.1289979  1          0.697243  
516.2      0.1294706  1          0.697118  
516.3000000000001 0.1469409  1          0.6469641 
516.4      0.1359     1          0.6714453 
516.5      0.1452139  1          0.6467375 
516.6      0.1088237  1          0.7228863 
516.7      0.1235055  1          0.6710885 
516.8000000000001 0.137324   1          0.6463976 
516.9      0.1107934  1          0.722494  
517        0.08915474 1          0.7775311 
517.1      0.08398648 1          0.8063661 
517.2      0.05299043 1          0.8991165 
517.3000000000001 0.04373927 1          0.932011  
517.4      0.03542965 1          0.9660026 
517.5      0.02691328 1          1         
517.6      0.02823975 1          1         
517.7      0.02704582 1          1         
517.8000000000001 0.02158498 1          1         
517.9      0.02134462 1          1         
518        0.02940759 1          1         
518.1      0.06185729 1          0.9305612 
518.2      0.1134105  1          0.7758096 
518.3000000000001 0.121171   1          0.7477117 
518.4      0.1135613  1          0.7475751 
518.5      0.1373149  1          0.6689547 
518.6      0.1325776  1          0.6941311 
518.7      0.1440987  1          0.6687183 
518.8000000000001 0.162611   1          0.6204751 
518.9      0.1620294  1          0.6203679 
519        0.1385904  1          0.668364  
519.1      0.1521149  1          0.6438022 
519.2      0.1354775  1          0.6933877 
519.3000000000001 0.1219634  1          0.7463484 
519.4      0.1519215  1          0.6678921 
519.5      0.1660234  1          0.6433526 
519.6      0.1776186  1          0.6196182 
519.7      0.1913297  1          0.5745578 
519.8000000000001 0.2039494  1          0.5323929 
519.9      0.2097123  1          0.5122955 
520        0.200198   1          0.5322171 
520.1      0.1869126  1          0.5321293 
520.2      0.1689111  1          0.5527102 
520.3000000000001 0.1668006  1          0.5526179 
520.4      0.1643156  1          0.5738794 
520.5      0.157546   1          0.5737826 
520.6      0.148573   1          0.5736859 
520.7      0.1508941  1          0.5522494 
520.8000000000001 0.1891034  1          0.4554419 
520.9      0.1976335  1          0.4209483 
521        0.2109448  1          0.358514  
521.1      0.2419405  1          0.2342769 
521.2      0.2659924  1          0.1605801 
521.3000000000001 0.2965308  0.9401685  0.07554209
521.4      0.3141995  0.9156377  0.0309465 
521.5      0.3270142  0.9014969  0.007427768
521.6      0.3276601  0.9161243  0.001648356
521.7      0.3264654  0.9265723  0.001648237
521.8000000000001 0.3280634  0.9272231  0.001648118
521.9      0.3234353  0.9372658  0.007425561
522        0.3246738  0.9289516  0.004488769
522.1      0.3265224  0.9191436  0.004488441
522.2      0.3179299  0.9426249  0.001647645
522.3000000000001 0.3167736  0.9483566  0         
522.4      0.3201109  0.9390014  0.001647408
522.5      0.3300183  0.9171335  0         
522.6      0.3313668  0.9184767  0         
522.7      0.3227384  0.9442158  0         
522.8000000000001 0.3168911  0.9658909  0.001646935
522.9      0.3152562  0.973273   0.004485819
523        0.3197977  0.9628228  0.004485492
523.1      0.3191101  0.9595363  0.00164658
523.2      0.3154608  0.9674107  0         
