~Version
 VERS              .         3.0                           : CWLS LOG ASCII STANDARD - VERSION 3.0
 WRAP              .         NO                            : ONE LINE PER DEPTH STEP
 DLM               .         SPACE                         : DELIMITING CHARACTER(SPACE TAB OR COMMA)
~Well Information
#_______________________________________________________________________________
#
#PARAMETER_NAME    .UNIT     VALUE                         : DESCRIPTION
#_______________________________________________________________________________
STRT               .m        0                             : First reference value
STOP               .m        964.2                         : Last reference value
STEP               .m        0.1                           : Step increment
NULL               .         -9999                         : Missing value
COMP               .         ICPetroleum                   : Company
WELL               .         318                           : Well name
FLD                .         Karatobe                      : Field
LOC                .                                       : Location
SRVC               .                                       : Service Company
CTRY               .         KZ                            : Country
DATE               .         21.12.2021                    : Service Date
LATI               .         0                             : Latitude
LONG               .         0                             : Longitude
GDAT               .         WGS 84                        : Geodetic Datum
CNTY               .                                       : 
COORDIN            .                                       : Grid System
COUNTRY            .         Kazakhstan                    : 
COUNTRY            .         Kazakhstan                    : 
EREF               .m        142.1                         : 
KB                 .         141.1                         : KB Elevation
ORIGINALWELLNAME   .         318                           : 
PROV               .                                       : Province
RWS                .         -999                          : Def_Rw
UWI                .                                       : Уникальный идентификатор скважины
WST                .         -999                          : Def_Rwt
X                  .km       466859.39                     : 
XCOORD             .                                       : X or East-West Coordinate
Y                  .km       5307894.01                    : 
YCOORD             .                                       : Y or North-South Coordinate
~Parameter Information Block
#_______________________________________________________________________________
#
#PARAMETER_NAME    .UNIT     VALUE                         : DESCRIPTION
#_______________________________________________________________________________
SET                .         Las                           : 
TLFamily_DEPT      .         Measured Depth                : 
TLFamily_PHI_FINAL .         Porosity                      : 
TLFamily_SW_AR     .         Water Saturation              : 
TLFamily_VSH_FINAL .         Shale Volume                  : 
~Curve Information
#_______________________________________________________________________________
#
#LOGNAME           .UNIT     LOG_ID                        : DESCRIPTION
#_______________________________________________________________________________
DEPT               .m                                      :  {F}
PHI_FINAL          .m3/m3                                  : Porosity {F}
SW_AR              .m3/m3                                  :  {F}
VSH_FINAL          .unitless                               : Vshale {F}
~Ascii
# ...
287.1      0.1712162  1          0.5585523 
287.2      0.1532425  1          0.6113538 
287.3      0.1877754  1          0.5094594 
287.4      0.1854669  1          0.50936   
287.5      0.1851362  1          0.5092607 
287.6      0.1905942  1          0.5091613 
287.7      0.1866662  1          0.5329877 
287.8      0.208465   1          0.463874  
287.9      0.190841   1          0.5088633 
288        0.185789   1          0.5326716 
288.1      0.1928354  1          0.5325661 
288.2      0.204458   1          0.5085655 
288.3      0.1932737  1          0.5323557 
288.4      0.1799494  1          0.5829495 
288.5      0.1872051  1          0.5569866 
288.6      0.1600126  1          0.6375604 
288.7      0.1382057  1          0.696778  
288.8      0.1163382  1          0.7608503 
288.9      0.1005046  1          0.7947416 
289        0.07758833 1          0.8668419 
289.1      0.08501694 1          0.8666445 
289.2      0.09984233 1          0.8296151 
289.3      0.1123505  1          0.7940357 
289.4      0.143575   1          0.6957359 
289.5      0.1564835  1          0.6653911 
289.6      0.1462293  1          0.6954386 
289.7      0.1343432  1          0.7266867 
289.8      0.1339882  1          0.7265295 
289.9      0.1312288  1          0.7263722 
290        0.1273898  1          0.7262151 
290.1      0.1326796  1          0.6946964 
290.2      0.1435591  1          0.66441   
290.3      0.1803097  1          0.5549846 
290.4      0.184659   1          0.5548737 
290.5      0.1758419  1          0.5804729 
290.6      0.1957401  1          0.5299449 
290.7      0.2248003  0.9477785  0.440243  
290.8      0.2226264  0.9391249  0.440161  
290.9      0.2050509  1          0.4830873 
291        0.2058216  1          0.4829948 
291.1      0.1984544  1          0.5057033 
291.2      0.2080373  0.9971605  0.4828097 
291.3      0.2296023  0.9108474  0.4195078 
291.4      0.2144759  0.9728503  0.460723  
291.5      0.22894    0.9158804  0.4193537 
291.6      0.2272141  0.921178   0.4192767 
291.7      0.2269237  0.9235764  0.4191998 
291.8      0.2356663  0.8936253  0.3996864 
291.9      0.227698   0.9244746  0.4190459 
292        0.219978   0.9591811  0.4391785 
292.1      0.2064009  1          0.4819787 
292.2      0.1903936  1          0.5282788 
292.3      0.1662377  1          0.6049842 
292.4      0.1466445  1          0.6613423 
292.5      0.1500257  1          0.6612034 
292.6      0.1348233  1          0.6910053 
292.7      0.1349894  1          0.6908584 
292.8      0.1266717  1          0.7218395 
292.9      0.1172551  1          0.7540554 
293        0.07816238 1          0.8590009 
293.1      0.0432532  1          0.9770817 
293.2      0.04065476 1          1         
293.3      0.04098556 1          1         
293.4      0.04009581 1          1         
293.5      0.03949948 1          1         
293.6      0.03973693 1          1         
293.7      0.0408134  1          1         
293.8      0.04188634 1          1         
293.9      0.04579374 1          1         
294        0.04581917 1          1         
294.1      0.04863118 1          1         
294.2      0.04885821 1          1         
294.3      0.05185103 1          1         
294.4      0.05105989 1          1         
294.5      0.0492554  1          1         
294.6      0.04866695 1          1         
294.7      0.05194063 1          1         
294.8      0.05219851 1          1         
294.9      0.05362232 1          1         
295        0.05340427 1          1         
295.1      0.05376992 1          1         
295.2      0.05437577 1          1         
295.3      0.05341004 1          1         
295.4      0.05264937 1          1         
295.5      0.05190639 1          1         
295.6      0.05086022 1          1         
295.7      0.04847097 1          1         
295.8      0.04726094 1          1         
295.9      0.04591525 1          1         
296        0.04609466 1          1         
296.1      0.04564775 1          1         
296.2      0.04538249 1          1         
296.3      0.04603925 1          1         
296.4      0.04563879 1          1         
296.5      0.04759762 1          1         
296.6      0.04619019 1          1         
296.7      0.04889978 1          1         
296.8      0.0535066  1          1         
296.9      0.05930134 1          1         
297        0.06257853 1          1         
297.1      0.06287584 1          1         
297.2      0.06580048 1          1         
297.3      0.06479742 1          1         
297.4      0.06484898 1          1         
297.5      0.05735021 1          1         
297.6      0.05093828 1          1         
297.7      0.04631794 1          1         
297.8      0.04703403 1          1         
297.9      0.04818862 1          1         
298        0.04847482 1          1         
298.1      0.07442319 1          0.9253322 
298.2      0.08203476 1          0.8863033 
298.3      0.05903327 1          0.9652635 
298.4      0.04502758 1          1         
298.5      0.04117338 1          1         
298.6      0.0407774  1          1         
298.7      0.03934848 1          1         
298.8      0.03838124 1          1         
298.9      0.03598061 1          1         
299        0.03620415 1          1         
299.1      0.03735522 1          1         
299.2      0.03607241 1          1         
299.3      0.03691001 1          1         
299.4      0.04289928 1          0.9627936 
299.5      0.03554113 1          1         
299.6      0.03875932 1          1         
299.7      0.05874913 1          0.9219318 
299.8      0.06947298 1          0.8830867 
299.9      0.03542972 1          1         
300        0.04291445 1          0.9614507 
300.1      0.03732891 1          1         
300.2      0.07130723 1          0.8822856 
300.3      0.0616347  1          0.9206623 
300.4      0.07415234 1          0.8818853 
300.5      0.09456337 1          0.8089653 
300.6      0.07759888 1          0.8444242 
300.7      0.08943284 1          0.8086076 
300.8      0.06700388 1          0.8810861 
300.9      0.07203253 1          0.8808864 
301        0.07407121 1          0.8806869 
301.1      0.05117234 1          0.9589971 
301.2      0.07880557 1          0.8802879 
301.3      0.09658047 1          0.8075359 
301.4      0.1367365  1          0.6782734 
301.5      0.1466024  1          0.648905  
301.6      0.1561847  1          0.6206746 
301.7      0.1577989  1          0.6205477 
301.8      0.1594573  1          0.6204208 
301.9      0.1814159  1          0.5673382 
302        0.1787281  1          0.5672253 
302.1      0.1922919  1          0.5421619 
302.2      0.1650695  1          0.6199138 
302.3      0.1609111  1          0.619787  
302.4      0.1347318  1          0.6768517 
302.5      0.08371222 1          0.8053998 
302.6      0.0876445  1          0.7711471 
302.7      0.04890354 1          0.8773056 
302.8      0.0188007  1          0.9966364 
302.9      0.01811692 1          1         
303        0.0195914  1          0.9961693 
303.1      0.01913364 1          0.9959361 
303.2      0.01705888 1          0.9957029 
303.3      0.01382413 1          1         
303.4      0.05278461 1          0.8391572 
303.5      0.06497007 1          0.8036268 
303.6      0.1057353  1          0.6751524 
303.7      0.1021185  1          0.6750112 
303.8      0.105169   1          0.6458244 
303.9      0.1024293  1          0.6747287 
304        0.1395453  1          0.5649744 
304.1      0.1555478  1          0.5161672 
304.2      0.1462178  1          0.5399334 
304.3      0.1082454  1          0.6451581 
304.4      0.1308627  1          0.590318  
304.5      0.1329647  1          0.5901993 
304.6      0.1186857  1          0.6447588 
304.7      0.0969312  1          0.7350584 
304.8      0.1134522  1          0.7035809 
304.9      0.1341816  1          0.6733196 
305        0.1337821  1          0.673179  
305.1      0.09740754 1          0.8008038 
305.2      0.1176824  1          0.7342713 
