~Version
 VERS              .         3.0                           : CWLS LOG ASCII STANDARD - VERSION 3.0
 WRAP              .         NO                            : ONE LINE PER DEPTH STEP
 DLM               .         SPACE                         : DELIMITING CHARACTER(SPACE TAB OR COMMA)
~Well Information
#_______________________________________________________________________________
#
#PARAMETER_NAME    .UNIT     VALUE                         : DESCRIPTION
#_______________________________________________________________________________
STRT               .m        0                             : First reference value
STOP               .m        964.2                         : Last reference value
STEP               .m        0.1                           : Step increment
NULL               .         -9999                         : Missing value
COMP               .         ICPetroleum                   : Company
WELL               .         318                           : Well name
FLD                .         Karatobe                      : Field
LOC                .                                       : Location
SRVC               .                                       : Service Company
CTRY               .         KZ                            : Country
DATE               .         21.12.2021                    : Service Date
LATI               .         0                             : Latitude
LONG               .         0                             : Longitude
GDAT               .         WGS 84                        : Geodetic Datum
CNTY               .                                       : 
COORDIN            .                                       : Grid System
COUNTRY            .         Kazakhstan                    : 
COUNTRY            .         Kazakhstan                    : 
EREF               .m        142.1                         : 
KB                 .         141.1                         : KB Elevation
ORIGINALWELLNAME   .         318                           : 
PROV               .                                       : Province
RWS                .         -999                          : Def_Rw
UWI                .                                       : Уникальный идентификатор скважины
WST                .         -999                          : Def_Rwt
X                  .km       466859.39                     : 
XCOORD             .                                       : X or East-West Coordinate
Y                  .km       5307894.01                    : 
YCOORD             .                                       : Y or North-South Coordinate
~Parameter Information Block
#_______________________________________________________________________________
#
#PARAMETER_NAME    .UNIT     VALUE                         : DESCRIPTION
#_______________________________________________________________________________
SET                .         Las                           : 
TLFamily_DEPT      .         Measured Depth                : 
TLFamily_PHI_FINAL .         Porosity                      : 
TLFamily_SW_AR     .         Water Saturation              : 
TLFamily_VSH_FINAL .         Shale Volume                  : 
~Curve Information
#_______________________________________________________________________________
#
#LOGNAME           .UNIT     LOG_ID                        : DESCRIPTION
#_______________________________________________________________________________
DEPT               .m                                      :  {F}
PHI_FINAL          .m3/m3                                  : Porosity {F}
SW_AR              .m3/m3                                  :  {F}
VSH_FINAL          .unitless                               : Vshale {F}
~Ascii
# ...
748.2      0.1604955  1          0.176855  
748.3000000000001 0.1599074  1          0.176855  
748.4000000000001 0.1740018  1          0.162934  
748.5      0.1846394  1          0.1427661 
748.6      0.1709248  1          0.1493954 
748.7      0.1781194  1          0.162934  
748.8000000000001 0.1760864  1          0.1698461 
748.9000000000001 0.1825571  1          0.1698461 
749        0.1860523  1          0.1839623 
749.1      0.2034978  1          0.1984771 
749.2      0.2030224  1          0.1984771 
749.3000000000001 0.2015118  1          0.1911692 
749.4000000000001 0.197817   1          0.1839623 
749.5      0.1804032  1          0.1911692 
749.6      0.173133   1          0.2058876 
749.7      0.1744524  1          0.2134019 
749.8000000000001 0.1737214  1          0.2058876 
749.9000000000001 0.1809914  1          0.1911692 
750        0.1800186  1          0.1984771 
750.1      0.178842   1          0.1984771 
750.2      0.1786385  1          0.1911692 
750.3000000000001 0.1974621  1          0.1911692 
750.4000000000001 0.2104031  1          0.1911692 
750.5      0.2222832  1          0.176855  
750.6      0.2022603  1          0.176855  
750.7      0.17491    1          0.1698461 
750.8000000000001 0.1663779  1          0.176855  
750.9000000000001 0.1652015  1          0.176855  
751        0.1743217  1          0.1698461 
751.1      0.1690277  1          0.1698461 
751.2      0.1766406  1          0.1839623 
751.3000000000001 0.1878169  1          0.1839623 
751.4000000000001 0.1946132  1          0.176855  
751.5      0.1789935  1          0.1839623 
751.6      0.1739326  1          0.1911692 
751.7      0.1706068  1          0.1984771 
751.8000000000001 0.1810838  1          0.176855  
751.9000000000001 0.1860523  1          0.1839623 
752        0.1942876  1          0.1839623 
752.1      0.2146132  1          0.176855  
752.2      0.2249729  1          0.176855  
752.3000000000001 0.237434   1          0.162934  
752.4000000000001 0.2322751  1          0.1698461 
752.5      0.2281054  1          0.1698461 
752.6      0.2022603  1          0.176855  
752.7      0.1828485  1          0.176855  
752.8000000000001 0.1740018  1          0.162934  
752.9000000000001 0.1745899  1          0.162934  
753        0.1734368  1          0.176855  
753.1      0.1598149  1          0.1911692 
753.2      0.157462   1          0.1911692 
753.3000000000001 0.1528485  1          0.176855  
753.4000000000001 0.1429596  1          0.1984771 
753.5      0.1496037  1          0.2058876 
753.6      0.1390155  1          0.2058876 
753.7      0.1591583  1          0.2134019 
753.8000000000001 0.1744524  1          0.2134019 
753.9000000000001 0.1315112  1          0.2134019 
754        0.1088421  1          0.1984771 
754.1      0.1153126  1          0.1984771 
754.2      0.1278169  1          0.1839623 
754.3000000000001 0.1317833  1          0.1984771 
754.4000000000001 0.1423714  1          0.1984771 
754.5      0.1532759  1          0.2134019 
754.6      0.14288    1          0.2287481 
754.7      0.1241047  1          0.252584  
754.8000000000001 0.1116186  1          0.2690368 
754.9000000000001 0.1093967  1          0.2945913 
755        0.09744243 1          0.3212359 
755.1      0.09833721 1          0.3681934 
755.2      0.09134179 1          0.3979779 
755.3000000000001 0.08598657 1          0.4081857 
755.4000000000001 0.08363366 1          0.4081857 
755.5      0.09136149 1          0.3879111 
755.6      0.08363366 1          0.4081857 
755.7      0.0913401  1          0.3779836 
755.8000000000001 0.113389   1          0.3490172 
755.9000000000001 0.1456777  1          0.3212359 
756        0.1591737  1          0.3033494 
756.1      0.1482202  1          0.2945913 
756.2      0.1315267  1          0.3033494 
756.3000000000001 0.1282202  1          0.2945913 
756.4000000000001 0.133854   1          0.2774366 
756.5      0.1339716  1          0.2690368 
756.6      0.1331135  1          0.2859542 
756.7      0.125056   1          0.3033494 
756.8000000000001 0.1218558  1          0.3122304 
756.9000000000001 0.1312676  1          0.3122304 
757        0.1310361  1          0.3490172 
757.1      0.1486188  1          0.3212359 
757.2      0.1453448  1          0.3303677 
757.3000000000001 0.1303836  1          0.3212359 
757.4000000000001 0.1292714  1          0.3490172 
757.5      0.1385037  1          0.3396275 
757.6      0.1379154  1          0.3396275 
757.7      0.1433891  1          0.3490172 
757.8000000000001 0.138095   1          0.3490172 
757.9000000000001 0.1341683  1          0.3303677 
758        0.1306792  1          0.3122304 
758.1      0.1195029  1          0.3122304 
758.2      0.1258672  1          0.2945913 
758.3000000000001 0.1127031  1          0.3033494 
758.4000000000001 0.1085855  1          0.3033494 
758.5      0.09939674 1          0.2945913 
758.6      0.1032657  1          0.2774366 
758.7      0.0960547  1          0.2859542 
758.8000000000001 0.09926571 1          0.2690368 
758.9000000000001 0.1147095  1          0.2445278 
759        0.1252329  1          0.2287481 
759.1      0.1320994  1          0.2134019 
759.2      0.1347244  1          0.1984771 
759.3000000000001 0.1343095  1          0.2058876 
759.4000000000001 0.133976   1          0.2210216 
759.5      0.1510348  1          0.2210216 
759.6      0.1570625  1          0.2445278 
759.7      0.1505755  1          0.236583  
759.8000000000001 0.1276342  1          0.252584  
759.9000000000001 0.1205255  1          0.2607531 
760        0.1235165  1          0.252584  
760.1      0.1129282  1          0.252584  
760.2      0.1239715  1          0.2690368 
760.3000000000001 0.1166429  1          0.2859542 
760.4000000000001 0.129148   1          0.2774366 
760.5      0.1260546  1          0.2859542 
760.6      0.1297363  1          0.2774366 
760.7      0.1344422  1          0.2774366 
760.8000000000001 0.1532657  1          0.2774366 
760.9000000000001 0.1479716  1          0.2774366 
761        0.1333833  1          0.2690368 
761.1      0.1382389  1          0.2445278 
761.2      0.1632759  1          0.2134019 
761.3000000000001 0.1645642  1          0.2210216 
761.4000000000001 0.1546447  1          0.2287481 
761.5      0.1635479  1          0.1984771 
761.6      0.1764891  1          0.1984771 
761.7      0.1796037  1          0.2058876 
761.8000000000001 0.1744524  1          0.2134019 
761.9000000000001 0.1809914  1          0.1911692 
762        0.1686385  1          0.1911692 
762.1      0.1641361  1          0.1984771 
762.2      0.1680502  1          0.1911692 
762.3000000000001 0.1729597  1          0.1984771 
762.4000000000001 0.1835479  1          0.1984771 
762.5      0.17857    1          0.2134019 
762.6      0.1903347  1          0.2134019 
762.7      0.1687623  1          0.2287481 
762.8000000000001 0.1729243  1          0.2287481 
762.9000000000001 0.1756846  1          0.2287481 
763        0.178174   1          0.2287481 
763.1      0.1757042  1          0.236583  
763.2      0.1937074  1          0.2287481 
763.3000000000001 0.1728024  1          0.252584  
763.4000000000001 0.1669977  1          0.2287481 
763.5      0.1320994  1          0.2134019 
763.6      0.1141362  1          0.1984771 
763.7      0.1116721  1          0.176855  
763.8000000000001 0.09040315 1          0.1911692 
763.9000000000001 0.08209941 1          0.2134019 
764        0.08680537 1          0.2134019 
764.1      0.08574067 1          0.2210216 
764.2      0.111752   1          0.236583  
764.3000000000001 0.1246447  1          0.2287481 
764.4000000000001 0.1234682  1          0.2287481 
764.5      0.13288    1          0.2287481 
764.6      0.1382226  1          0.236583  
764.7      0.1493505  1          0.2287481 
764.8000000000001 0.150527   1          0.2287481 
764.9000000000001 0.1511639  1          0.236583  
765        0.1335331  1          0.2445278 
765.1      0.1205753  1          0.252584  
765.2      0.1346929  1          0.252584  
