~Version
 VERS              .         3.0                           : CWLS LOG ASCII STANDARD - VERSION 3.0
 WRAP              .         NO                            : ONE LINE PER DEPTH STEP
 DLM               .         SPACE                         : DELIMITING CHARACTER(SPACE TAB OR COMMA)
~Well Information
#_______________________________________________________________________________
#
#PARAMETER_NAME    .UNIT     VALUE                         : DESCRIPTION
#_______________________________________________________________________________
STRT               .m        0                             : First reference value
STOP               .m        964.2                         : Last reference value
STEP               .m        0.1                           : Step increment
NULL               .         -9999                         : Missing value
COMP               .         ICPetroleum                   : Company
WELL               .         318                           : Well name
FLD                .         Karatobe                      : Field
LOC                .                                       : Location
SRVC               .                                       : Service Company
CTRY               .         KZ                            : Country
DATE               .         21.12.2021                    : Service Date
LATI               .         0                             : Latitude
LONG               .         0                             : Longitude
GDAT               .         WGS 84                        : Geodetic Datum
CNTY               .                                       : 
COORDIN            .                                       : Grid System
COUNTRY            .         Kazakhstan                    : 
COUNTRY            .         Kazakhstan                    : 
EREF               .m        142.1                         : 
KB                 .         141.1                         : KB Elevation
ORIGINALWELLNAME   .         318                           : 
PROV               .                                       : Province
RWS                .         -999                          : Def_Rw
UWI                .                                       : Уникальный идентификатор скважины
WST                .         -999                          : Def_Rwt
X                  .km       466859.39                     : 
XCOORD             .                                       : X or East-West Coordinate
Y                  .km       5307894.01                    : 
YCOORD             .                                       : Y or North-South Coordinate
~Parameter Information Block
#_______________________________________________________________________________
#
#PARAMETER_NAME    .UNIT     VALUE                         : DESCRIPTION
#_______________________________________________________________________________
SET                .         Las                           : 
TLFamily_DEPT      .         Measured Depth                : 
TLFamily_PHI_FINAL .         Porosity                      : 
TLFamily_SW_AR     .         Water Saturation              : 
TLFamily_VSH_FINAL .         Shale Volume                  : 
~Curve Information
#_______________________________________________________________________________
#
#LOGNAME           .UNIT     LOG_ID                        : DESCRIPTION
#_______________________________________________________________________________
DEPT               .m                                      :  {F}
PHI_FINAL          .m3/m3                                  : Porosity {F}
SW_AR              .m3/m3                                  :  {F}
VSH_FINAL          .unitless                               : Vshale {F}
~Ascii
# ...
341.7      0.08805736 1          0.7404947 
341.8      0.09817366 1          0.7097462 
341.9      0.1252867  1          0.6517959 
342        0.1493402  1          0.5980901 
342.1      0.1535931  1          0.5979732 
342.2      0.1566847  1          0.5978561 
342.3      0.166548   1          0.5724543 
342.4      0.1757848  1          0.548004  
342.5      0.1747327  1          0.5722333 
342.6      0.2107286  1          0.4800995 
342.7      0.1895964  1          0.5476908 
342.8      0.1856631  1          0.5719021 
342.9      0.1632016  1          0.6504903 
343        0.1851661  1          0.596922  
343.1      0.1521555  1          0.7078521 
343.2      0.1430509  1          0.7381867 
343.3      0.1406056  1          0.7696795 
343.4      0.09611634 1          0.9087402 
343.5      0.06989564 1          0.986436  
343.6      0.05564715 1          1         
343.7      0.04590672 1          1         
343.8      0.0473196  1          0.9857678 
343.9      0.04115779 1          1         
344        0.04565843 1          1         
344.1      0.03991222 1          1         
344.2      0.04188678 1          1         
344.3      0.03937335 1          1         
344.4      0.04192431 1          1         
344.5      0.0419258  1          1         
344.6      0.04478138 1          1         
344.7      0.03836248 1          1         
344.8      0.03656545 1          1         
344.9      0.03624235 1          1         
345        0.03529897 1          1         
345.1      0.0331823  1          1         
345.2      0.03467367 1          1         
345.3      0.03069287 1          1         
345.4      0.03759858 1          0.9427494 
345.5      0.02816708 1          0.9819959 
345.6      0.05472348 1          0.8677684 
345.7      0.08103687 1          0.7658091 
345.8      0.04357906 1          0.8673913 
345.9      0.04053713 1          0.8672029 
346        0.01356835 1          1         
346.1      0.01312065 1          1         
346.2      0.01185263 1          1         
346.3      0.01165116 1          1         
346.4      0.03755429 1          0.8662612 
346.5      0.01564162 1          0.979788  
346.6      0.0174642  1          0.9795678 
346.7      0.01657534 1          1         
346.8      0.01694501 1          1         
346.9      0.01902951 1          1         
347        0.02290678 1          0.9786873 
347.1      0.01960735 1          1         
347.2      0.01940137 1          1         
347.3      0.02020019 1          1         
347.4      0.02130157 1          1         
347.5      0.02128931 1          1         
347.6      0.02026532 1          1         
347.7      0.0182396  1          1         
347.8      0.01669778 1          1         
347.9      0.01709466 1          1         
348        0.01665207 1          1         
348.1      0.01730095 1          1         
348.2      0.01805079 1          1         
348.3      0.01679924 1          1         
348.4      0.01244569 1          1         
348.5      0.01139679 1          1         
348.6      0.009979166 1          1         
348.7      0.009434221 1          1         
348.8      0.0104942  1          1         
348.9      0.01095063 1          1         
349        0.01259295 1          1         
349.1      0.01322782 1          1         
349.2      0.0130543  1          1         
349.3      0.01488729 1          1         
349.4      0.01768403 1          1         
349.5      0.02045156 1          1         
349.6      0.02526765 1          1         
349.7      0.07712869 1          0.8252668 
349.8      0.1261551  1          0.6982237 
349.9      0.08442935 1          0.8249145 
350        0.09587022 1          0.8247384 
350.1      0.1052518  1          0.8245622 
350.2      0.1275478  1          0.7908947 
350.3      0.1346086  1          0.790728  
350.4      0.1415648  1          0.7905611 
350.5      0.12457    1          0.8586048 
350.6      0.08154234 1          1         
350.7      0.08165671 1          1         
350.8      0.08413195 1          1         
350.9      0.08096243 1          1         
351        0.08246329 1          1         
351.1      0.0885838  1          1         
351.2      0.09292362 1          1         
351.3      0.09341737 1          1         
351.4      0.09617238 1          1         
351.5      0.1611685  1          0.8221043 
351.6      0.1779975  1          0.7564318 
351.7      0.2121891  1          0.6125649 
351.8      0.1660969  1          0.6953924 
351.9      0.1557912  1          0.6665649 
352        0.1484242  1          0.6664314 
352.1      0.1306467  1          0.6949693 
352.2      0.1357987  1          0.6661646 
352.3      0.1649767  1          0.5862429 
352.4      0.15853    1          0.6117277 
352.5      0.15655    1          0.6116082 
352.6      0.1642229  1          0.5859039 
352.7      0.1381476  1          0.665498  
352.8      0.1570583  1          0.6112501 
352.9      0.1431125  1          0.6376737 
353        0.1480312  1          0.6375476 
353.1      0.1690138  1          0.5853395 
353.2      0.1448628  1          0.6372958 
353.3      0.154242   1          0.63717   
353.4      0.1383276  1          0.6645667 
353.5      0.1173905  1          0.7226601 
353.6      0.08924154 1          0.8184399 
353.7      0.0890885  1          0.7850928 
353.8      0.04136213 1          0.888271  
353.9      0.03646651 1          0.888078  
354        0.05557809 1          0.817745  
354.1      0.0833745  1          0.7217728 
354.2      0.1186966  1          0.6095837 
354.3      0.08925056 1          0.6918804 
354.4      0.09116232 1          0.6632403 
354.5      0.1000347  1          0.6356629 
354.6      0.08165421 1          0.6914609 
354.7      0.1102394  1          0.6089906 
354.8      0.08999863 1          0.6911817 
354.9      0.08578477 1          0.7205922 
355        0.08649454 1          0.7511152 
355.1      0.08933437 1          0.7827919 
355.2      0.07705627 1          0.8499655 
355.3      0.05586529 1          0.9223391 
355.4      0.03379864 1          1         
355.5      0.04146276 1          0.96028   
355.6      0.05243391 1          0.9217322 
355.7      0.08331837 1          0.8148027 
355.8      0.08044381 1          0.8146302 
355.9      0.04589882 1          0.9594278 
356        0.04102277 1          1         
356.1      0.04129232 1          1         
356.2      0.04478808 1          1         
356.3      0.04105841 1          1         
356.4      0.04043385 1          1         
356.5      0.03956769 1          1         
356.6      0.03645552 1          1         
356.7      0.03494977 1          1         
356.8      0.03390649 1          1         
356.9      0.03567516 1          1         
357        0.03583584 1          1         
357.1      0.03787113 1          1         
357.2      0.03146381 1          1         
357.3      0.03185894 1          1         
357.4      0.0315479  1          1         
357.5      0.02857862 1          1         
357.6      0.02869421 1          1         
357.7      0.028056   1          1         
357.8      0.02603465 1          1         
357.9      0.02368912 1          1         
358        0.02504472 1          1         
358.1      0.08192994 1          0.810679  
358.2      0.1294526  1          0.6582404 
358.3      0.1251823  1          0.6581096 
358.4      0.1237229  1          0.657979  
358.5      0.1261861  1          0.6578484 
358.6      0.1081637  1          0.7151748 
358.7      0.09655517 1          0.7454004 
358.8      0.06615335 1          0.8434452 
358.9      0.02643348 1          0.9925001 
359        0.02503647 1          1         
359.1      0.02546713 1          1         
359.2      0.02672846 1          1         
359.3      0.02700527 1          1         
359.4      0.02785752 1          1         
359.5      0.02984159 1          1         
359.6      0.03206819 1          1         
359.7      0.0320611  1          1         
359.8      0.03352917 1          1         
