~Version
 VERS              .         3.0                           : CWLS LOG ASCII STANDARD - VERSION 3.0
 WRAP              .         NO                            : ONE LINE PER DEPTH STEP
 DLM               .         SPACE                         : DELIMITING CHARACTER(SPACE TAB OR COMMA)
~Well Information
#_______________________________________________________________________________
#
#PARAMETER_NAME    .UNIT     VALUE                         : DESCRIPTION
#_______________________________________________________________________________
STRT               .m        0                             : First reference value
STOP               .m        964.2                         : Last reference value
STEP               .m        0.1                           : Step increment
NULL               .         -9999                         : Missing value
COMP               .         ICPetroleum                   : Company
WELL               .         318                           : Well name
FLD                .         Karatobe                      : Field
LOC                .                                       : Location
SRVC               .                                       : Service Company
CTRY               .         KZ                            : Country
DATE               .         21.12.2021                    : Service Date
LATI               .         0                             : Latitude
LONG               .         0                             : Longitude
GDAT               .         WGS 84                        : Geodetic Datum
CNTY               .                                       : 
COORDIN            .                                       : Grid System
COUNTRY            .         Kazakhstan                    : 
COUNTRY            .         Kazakhstan                    : 
EREF               .m        142.1                         : 
KB                 .         141.1                         : KB Elevation
ORIGINALWELLNAME   .         318                           : 
PROV               .                                       : Province
RWS                .         -999                          : Def_Rw
UWI                .                                       : Уникальный идентификатор скважины
WST                .         -999                          : Def_Rwt
X                  .km       466859.39                     : 
XCOORD             .                                       : X or East-West Coordinate
Y                  .km       5307894.01                    : 
YCOORD             .                                       : Y or North-South Coordinate
~Parameter Information Block
#_______________________________________________________________________________
#
#PARAMETER_NAME    .UNIT     VALUE                         : DESCRIPTION
#_______________________________________________________________________________
SET                .         Las                           : 
TLFamily_DEPT      .         Measured Depth                : 
TLFamily_PHI_FINAL .         Porosity                      : 
TLFamily_SW_AR     .         Water Saturation              : 
TLFamily_VSH_FINAL .         Shale Volume                  : 
~Curve Information
#_______________________________________________________________________________
#
#LOGNAME           .UNIT     LOG_ID                        : DESCRIPTION
#_______________________________________________________________________________
DEPT               .m                                      :  {F}
PHI_FINAL          .m3/m3                                  : Porosity {F}
SW_AR              .m3/m3                                  :  {F}
VSH_FINAL          .unitless                               : Vshale {F}
~Ascii
# ...
850.8000000000001 0.01371431 1          0.3879111 
850.9000000000001 0.01486958 1          0.3779836 
851        0.02665553 1          0.3879111 
851.1      0.03310651 1          0.3979779 
851.2      0.03833721 1          0.3681934 
851.3000000000001 0.03985964 1          0.3490172 
851.4000000000001 0.04144479 1          0.3396275 
851.5      0.03791549 1          0.3396275 
851.6      0.02764747 1          0.3585385 
851.7      0.01774906 1          0.3681934 
851.8000000000001 0.03705925 1          0.3585385 
851.9000000000001 0.02075363 1          0.3979779 
852        0.02069242 1          0.4081857 
852.1      0.02606734 1          0.3879111 
852.2      0.02898719 1          0.3779836 
852.3000000000001 0.03833721 1          0.3681934 
852.4000000000001 0.05262128 1          0.3396275 
852.5      0.06605463 1          0.2859542 
852.6      0.06939908 1          0.236583  
852.7      0.079815   1          0.1911692 
852.8000000000001 0.08522759 1          0.1427661 
852.9000000000001 0.08461219 1          0.0988585 
853        0.08838965 1          0.07001533
853.1      0.09614434 1          0.05364911
853.2      0.0757141  1          0.04311202
853.3000000000001 0.06225761 1          0.03286434
853.4000000000001 0.08255686 1          0.02784654
853.5      0.08224756 1          0.02289811
853.6      0.08314519 1          0.02784654
853.7      0.07284578 1          0.03286434
853.8000000000001 0.05487875 1          0.0379525 
853.9000000000001 0.06166928 1          0.03286434
854        0.06461052 1          0.03286434
854.1      0.07546689 1          0.0379525 
854.2      0.09049282 1          0.03286434
854.3000000000001 0.08218464 1          0.04311202
854.4000000000001 0.07673258 1          0.05364911
854.5      0.07589883 1          0.06448378
854.6      0.07884007 1          0.06448378
854.7      0.0761516  1          0.07562444
854.8000000000001 0.08673991 1          0.07562444
854.9000000000001 0.09060477 1          0.06448378
855        0.09119296 1          0.06448378
855.1      0.09379143 1          0.05364911
855.2      0.08732089 1          0.05364911
855.3000000000001 0.090262   1          0.05364911
855.4000000000001 0.08379146 1          0.05364911
855.5      0.09005763 1          0.04834389
855.6      0.0926149  1          0.05364911
855.7      0.08766367 1          0.06448378
855.8000000000001 0.07191899 1          0.07001533
855.9000000000001 0.0727824  1          0.08707971
856        0.07870936 1          0.0929281 
856.1      0.084387   1          0.07562444
856.2      0.07925308 1          0.08707971
856.3000000000001 0.08049058 1          0.104872  
856.4000000000001 0.07813767 1          0.104872  
856.5      0.06981957 1          0.1171533 
856.6      0.08570204 1          0.1171533 
856.7      0.08810887 1          0.1109699 
856.8000000000001 0.07869709 1          0.1109699 
856.9000000000001 0.08393732 1          0.1171533 
857        0.101671   1          0.0988585 
857.1      0.1075534  1          0.0988585 
857.2      0.1021941  1          0.08707971
857.3000000000001 0.08683176 1          0.08131219
857.4000000000001 0.06368373 1          0.07001533
857.5      0.05942831 1          0.06448378
857.6      0.0682519  1          0.06448378
857.7      0.07691506 1          0.05902873
857.8000000000001 0.07279744 1          0.05902873
857.9000000000001 0.07236953 1          0.06448378
858        0.07662495 1          0.07001533
858.1      0.08968101 1          0.07562444
858.2      0.09615169 1          0.07562444
858.3000000000001 0.09497517 1          0.07562444
858.4000000000001 0.1078014  1          0.07001533
858.5      0.105067   1          0.08131219
858.6      0.1021941  1          0.08707971
858.7      0.1074883  1          0.08707971
858.8000000000001 0.09631179 1          0.08707971
858.9000000000001 0.09859645 1          0.08131219
859        0.0957236  1          0.08707971
859.1      0.09461217 1          0.0988585 
859.2      0.0934318  1          0.104872  
859.3000000000001 0.09931415 1          0.104872  
859.4000000000001 0.09578471 1          0.104872  
859.5      0.1022388  1          0.0929281 
859.6      0.09343578 1          0.0988585 
859.7      0.103403   1          0.1109699 
859.8000000000001 0.103403   1          0.1109699 
859.9000000000001 0.1026813  1          0.1234234 
860        0.101268   1          0.1362286 
860.1      0.08541833 1          0.1561176 
860.2      0.08167212 1          0.176855  
860.3000000000001 0.08060671 1          0.1984771 
860.4000000000001 0.07628556 1          0.1911692 
860.5      0.07237145 1          0.1984771 
860.6      0.07648908 1          0.1984771 
860.7      0.08783894 1          0.2058876 
860.8000000000001 0.09725072 1          0.2058876 
860.9000000000001 0.0775858  1          0.2287481 
861        0.05588587 1          0.2445278 
861.1      0.06645798 1          0.236583  
861.2      0.08704612 1          0.236583  
861.3000000000001 0.09632897 1          0.2210216 
861.4000000000001 0.118842   1          0.1984771 
861.5      0.1310838  1          0.176855  
861.6      0.14459    1          0.162934  
861.7      0.1558159  1          0.1427661 
861.8000000000001 0.1506798  1          0.1362286 
861.9000000000001 0.1471504  1          0.1362286 
862        0.1590466  1          0.1297814 
862.1      0.1684584  1          0.1297814 
862.2      0.1653858  1          0.1362286 
862.3000000000001 0.1607125  1          0.1561176 
862.4000000000001 0.1677713  1          0.1561176 
862.5      0.1685719  1          0.1493954 
862.6      0.1544543  1          0.1493954 
862.7      0.1416488  1          0.162934  
862.8000000000001 0.1484394  1          0.1698461 
862.9000000000001 0.126378   1          0.176855  
863        0.1328485  1          0.176855  
863.1      0.1286385  1          0.1911692 
863.2      0.1206068  1          0.1984771 
863.3000000000001 0.1138642  1          0.2134019 
863.4000000000001 0.128842   1          0.1984771 
863.5      0.1304032  1          0.1911692 
863.6      0.1304956  1          0.176855  
863.7      0.1398841  1          0.162934  
863.8000000000001 0.1456307  1          0.1493954 
863.9000000000001 0.1505217  1          0.1427661 
864        0.1506798  1          0.1362286 
864.1      0.151268   1          0.1362286 
864.2      0.1516983  1          0.1427661 
864.3000000000001 0.1362191  1          0.1493954 
864.4000000000001 0.1283268  1          0.1362286 
864.5      0.1224445  1          0.1362286 
864.6      0.1242092  1          0.1362286 
864.7      0.1271504  1          0.1362286 
864.8000000000001 0.1255172  1          0.1297814 
864.9000000000001 0.1028746  1          0.1427661 
865        0.09228646 1          0.1427661 
865.1      0.08773858 1          0.1362286 
865.2      0.09610549 1          0.1297814 
865.3000000000001 0.09346285 1          0.1427661 
865.4000000000001 0.08993355 1          0.1427661 
865.5      0.08640412 1          0.1427661 
865.6      0.103621   1          0.1362286 
865.7      0.1061055  1          0.1297814 
865.8000000000001 0.09126803 1          0.1362286 
865.9000000000001 0.09110994 1          0.1427661 
866        0.09715036 1          0.1362286 
866.1      0.1083269  1          0.1362286 
866.2      0.1038661  1          0.1493954 
866.3000000000001 0.1254184  1          0.1561176 
866.4000000000001 0.1151783  1          0.162934  
866.5      0.1083595  1          0.1561176 
866.6      0.1115132  1          0.1493954 
866.7      0.1183269  1          0.1362286 
866.8000000000001 0.1181688  1          0.1427661 
866.9000000000001 0.1374666  1          0.1171533 
867        0.1445917  1          0.0929281 
867.1      0.1369446  1          0.0929281 
867.2      0.1485965  1          0.08131219
867.3000000000001 0.1397729  1          0.08131219
867.4000000000001 0.1409494  1          0.08131219
867.5      0.1336837  1          0.07001533
867.6      0.1382519  1          0.06448378
867.7      0.1272132  1          0.07001533
867.8000000000001 0.1254485  1          0.07001533
