~Version
 VERS              .         3.0                           : CWLS LOG ASCII STANDARD - VERSION 3.0
 WRAP              .         NO                            : ONE LINE PER DEPTH STEP
 DLM               .         SPACE                         : DELIMITING CHARACTER(SPACE TAB OR COMMA)
~Well Information
#_______________________________________________________________________________
#
#PARAMETER_NAME    .UNIT     VALUE                         : DESCRIPTION
#_______________________________________________________________________________
STRT               .m        0                             : First reference value
STOP               .m        964.2                         : Last reference value
STEP               .m        0.1                           : Step increment
NULL               .         -9999                         : Missing value
COMP               .         ICPetroleum                   : Company
WELL               .         318                           : Well name
FLD                .         Karatobe                      : Field
LOC                .                                       : Location
SRVC               .                                       : Service Company
CTRY               .         KZ                            : Country
DATE               .         21.12.2021                    : Service Date
LATI               .         0                             : Latitude
LONG               .         0                             : Longitude
GDAT               .         WGS 84                        : Geodetic Datum
CNTY               .                                       : 
COORDIN            .                                       : Grid System
COUNTRY            .         Kazakhstan                    : 
COUNTRY            .         Kazakhstan                    : 
EREF               .m        142.1                         : 
KB                 .         141.1                         : KB Elevation
ORIGINALWELLNAME   .         318                           : 
PROV               .                                       : Province
RWS                .         -999                          : Def_Rw
UWI                .                                       : Уникальный идентификатор скважины
WST                .         -999                          : Def_Rwt
X                  .km       466859.39                     : 
XCOORD             .                                       : X or East-West Coordinate
Y                  .km       5307894.01                    : 
YCOORD             .                                       : Y or North-South Coordinate
~Parameter Information Block
#_______________________________________________________________________________
#
#PARAMETER_NAME    .UNIT     VALUE                         : DESCRIPTION
#_______________________________________________________________________________
SET                .         Las                           : 
TLFamily_DEPT      .         Measured Depth                : 
TLFamily_PHI_FINAL .         Porosity                      : 
TLFamily_SW_AR     .         Water Saturation              : 
TLFamily_VSH_FINAL .         Shale Volume                  : 
~Curve Information
#_______________________________________________________________________________
#
#LOGNAME           .UNIT     LOG_ID                        : DESCRIPTION
#_______________________________________________________________________________
DEPT               .m                                      :  {F}
PHI_FINAL          .m3/m3                                  : Porosity {F}
SW_AR              .m3/m3                                  :  {F}
VSH_FINAL          .unitless                               : Vshale {F}
~Ascii
# ...
799.5      0.1199388  1          0.2287481 
799.6      0.1223566  1          0.2445278 
799.7      0.1241047  1          0.252584  
799.8000000000001 0.1164079  1          0.2607531 
799.9000000000001 0.1146929  1          0.252584  
800        0.1152329  1          0.2287481 
800.1      0.113976   1          0.2210216 
800.2      0.1184272  1          0.2058876 
800.3000000000001 0.111195   1          0.1984771 
800.4000000000001 0.1190154  1          0.2058876 
800.5      0.1192702  1          0.2210216 
800.6      0.1157407  1          0.2210216 
800.7      0.1079818  1          0.2134019 
800.8000000000001 0.1107801  1          0.2058876 
800.9000000000001 0.1164891  1          0.1984771 
801        0.1101919  1          0.2058876 
801.1      0.1059008  1          0.1984771 
801.2      0.1147244  1          0.1984771 
801.3000000000001 0.1264891  1          0.1984771 
801.4000000000001 0.1290154  1          0.2058876 
801.5      0.1245642  1          0.2210216 
801.6      0.1287623  1          0.2287481 
801.7      0.1333878  1          0.2210216 
801.8000000000001 0.1344523  1          0.2134019 
801.9000000000001 0.1337213  1          0.2058876 
802        0.1529597  1          0.1984771 
802.1      0.1622846  1          0.1839623 
802.2      0.1556994  1          0.1839623 
802.3000000000001 0.1484007  1          0.1839623 
802.4000000000001 0.1466181  1          0.1911692 
802.5      0.147611   1          0.1911692 
802.6      0.1350753  1          0.2058876 
802.7      0.1270245  1          0.2210216 
802.8000000000001 0.141566   1          0.2134019 
802.9000000000001 0.136954   1          0.2287481 
803        0.1428388  1          0.2210216 
803.1      0.1510058  1          0.2287481 
803.2      0.1658286  1          0.2210216 
803.3000000000001 0.1729597  1          0.1984771 
803.4000000000001 0.1679818  1          0.2134019 
803.5      0.1714558  1          0.2134019 
803.6      0.1672811  1          0.2134019 
803.7      0.1702643  1          0.2058876 
803.8000000000001 0.1602521  1          0.2210216 
803.9000000000001 0.160923   1          0.2134019 
804        0.1545643  1          0.2210216 
804.1      0.1584273  1          0.2058876 
804.2      0.1547244  1          0.1984771 
804.3000000000001 0.1657897  1          0.176855  
804.4000000000001 0.1595817  1          0.1839623 
804.5      0.1441361  1          0.1984771 
804.6      0.1372508  1          0.2058876 
804.7      0.1260743  1          0.2058876 
804.8000000000001 0.1187624  1          0.2287481 
804.9000000000001 0.1193991  1          0.236583  
805        0.1240564  1          0.2287481 
805.1      0.1448978  1          0.2058876 
805.2      0.1348977  1          0.2058876 
805.3000000000001 0.1382538  1          0.1984771 
805.4000000000001 0.127462   1          0.1911692 
805.5      0.1217833  1          0.1984771 
805.6      0.1272287  1          0.1839623 
805.7      0.141195   1          0.1984771 
805.8000000000001 0.1604955  1          0.176855  
805.9000000000001 0.1590741  1          0.1839623 
806        0.1566721  1          0.1984771 
806.1      0.1550406  1          0.2134019 
806.2      0.1608222  1          0.2210216 
806.3000000000001 0.1687004  1          0.2210216 
806.4000000000001 0.1774046  1          0.2210216 
806.5      0.1855058  1          0.2134019 
806.6      0.1873021  1          0.2287481 
806.7      0.1924426  1          0.1984771 
806.8000000000001 0.1904162  1          0.2058876 
806.9000000000001 0.1819566  1          0.2058876 
807        0.1646574  1          0.2287481 
807.1      0.1605364  1          0.2210216 
807.2      0.133976   1          0.2210216 
807.3000000000001 0.1122113  1          0.2210216 
807.4000000000001 0.103533   1          0.2445278 
807.5      0.09993737 1          0.2607531 
807.6      0.09370165 1          0.2859542 
807.7      0.08656169 1          0.3122304 
807.8000000000001 0.08633022 1          0.3490172 
807.9000000000001 0.08882399 1          0.3585385 
808        0.09539611 1          0.3681934 
808.1      0.1142813  1          0.3779836 
808.2      0.143693   1          0.3779836 
808.3000000000001 0.1419497  1          0.3879111 
808.4000000000001 0.128095   1          0.3490172 
808.5      0.1228008  1          0.3490172 
808.6      0.1072224  1          0.3779836 
808.7      0.1170592  1          0.3585385 
808.8000000000001 0.1194122  1          0.3585385 
808.9000000000001 0.1129416  1          0.3585385 
809        0.1075067  1          0.3490172 
809.1      0.1068541  1          0.3212359 
809.2      0.1021482  1          0.3212359 
809.3000000000001 0.1112271  1          0.3303677 
809.4000000000001 0.1182202  1          0.2945913 
809.5      0.1146907  1          0.2945913 
809.6      0.1005731  1          0.2945913 
809.7      0.1011613  1          0.2945913 
809.8000000000001 0.09479696 1          0.3122304 
809.9000000000001 0.1013487  1          0.2859542 
810        0.1070438  1          0.2945913 
810.1      0.1111614  1          0.2945913 
810.2      0.1046908  1          0.2945913 
810.3000000000001 0.10429    1          0.2859542 
810.4000000000001 0.1199373  1          0.2607531 
810.5      0.1269976  1          0.2287481 
810.6      0.1396037  1          0.2058876 
810.7      0.141195   1          0.1984771 
810.8000000000001 0.1494303  1          0.1984771 
810.9000000000001 0.1406067  1          0.1984771 
811        0.1504032  1          0.1911692 
811.1      0.1625228  1          0.1839623 
811.2      0.1582537  1          0.1984771 
811.3000000000001 0.174154   1          0.2058876 
811.4000000000001 0.1649418  1          0.2287481 
811.5      0.158448   1          0.236583  
811.6      0.1520708  1          0.252584  
811.7      0.1606298  1          0.2287481 
811.8000000000001 0.1612003  1          0.2287481 
811.9000000000001 0.1551017  1          0.2210216 
812        0.1437796  1          0.2445278 
812.1      0.1344646  1          0.2445278 
812.2      0.1299656  1          0.2445278 
812.3000000000001 0.1324413  1          0.252584  
812.4000000000001 0.13234    1          0.252584  
812.5      0.1305256  1          0.2607531 
812.6      0.1228786  1          0.2607531 
812.7      0.1205753  1          0.252584  
812.8000000000001 0.1098539  1          0.2690368 
812.9000000000001 0.1157362  1          0.2690368 
813        0.1116186  1          0.2690368 
813.1      0.102795   1          0.2690368 
813.2      0.1163244  1          0.2690368 
813.3000000000001 0.1144422  1          0.2774366 
813.4000000000001 0.09450118 1          0.3212359 
813.5      0.07181542 1          0.3303677 
813.6      0.06379778 1          0.3396275 
813.7      0.0709718  1          0.3212359 
813.8000000000001 0.07976197 1          0.3033494 
813.9000000000001 0.09076055 1          0.2859542 
814        0.10429    1          0.2859542 
814.1      0.1156186  1          0.2774366 
814.2      0.1199871  1          0.252584  
814.3000000000001 0.1299871  1          0.252584  
814.4000000000001 0.1146929  1          0.252584  
814.5      0.1076341  1          0.252584  
814.6      0.1076341  1          0.252584  
814.7      0.1222902  1          0.2607531 
814.8000000000001 0.1187608  1          0.2607531 
814.9000000000001 0.1192657  1          0.2690368 
815        0.1122068  1          0.2690368 
815.1      0.09211485 1          0.3033494 
815.2      0.08273649 1          0.3212359 
815.3000000000001 0.08379775 1          0.3396275 
815.4000000000001 0.09162438 1          0.3490172 
815.5      0.102444   1          0.3122304 
815.6      0.09917372 1          0.3033494 
815.7      0.1089958  1          0.2859542 
815.8000000000001 0.1141025  1          0.2945913 
815.9000000000001 0.1256187  1          0.2774366 
816        0.1357362  1          0.2690368 
816.1      0.1445598  1          0.2690368 
816.2      0.146795   1          0.2774366 
816.3000000000001 0.125056   1          0.3033494 
816.4000000000001 0.1229261  1          0.2945913 
816.5      0.129148   1          0.2774366 
