~Version
 VERS              .         3.0                           : CWLS LOG ASCII STANDARD - VERSION 3.0
 WRAP              .         NO                            : ONE LINE PER DEPTH STEP
 DLM               .         SPACE                         : DELIMITING CHARACTER(SPACE TAB OR COMMA)
~Well Information
#_______________________________________________________________________________
#
#PARAMETER_NAME    .UNIT     VALUE                         : DESCRIPTION
#_______________________________________________________________________________
STRT               .m        0                             : First reference value
STOP               .m        964.2                         : Last reference value
STEP               .m        0.1                           : Step increment
NULL               .         -9999                         : Missing value
COMP               .         ICPetroleum                   : Company
WELL               .         318                           : Well name
FLD                .         Karatobe                      : Field
LOC                .                                       : Location
SRVC               .                                       : Service Company
CTRY               .         KZ                            : Country
DATE               .         21.12.2021                    : Service Date
LATI               .         0                             : Latitude
LONG               .         0                             : Longitude
GDAT               .         WGS 84                        : Geodetic Datum
CNTY               .                                       : 
COORDIN            .                                       : Grid System
COUNTRY            .         Kazakhstan                    : 
COUNTRY            .         Kazakhstan                    : 
EREF               .m        142.1                         : 
KB                 .         141.1                         : KB Elevation
ORIGINALWELLNAME   .         318                           : 
PROV               .                                       : Province
RWS                .         -999                          : Def_Rw
UWI                .                                       : Уникальный идентификатор скважины
WST                .         -999                          : Def_Rwt
X                  .km       466859.39                     : 
XCOORD             .                                       : X or East-West Coordinate
Y                  .km       5307894.01                    : 
YCOORD             .                                       : Y or North-South Coordinate
~Parameter Information Block
#_______________________________________________________________________________
#
#PARAMETER_NAME    .UNIT     VALUE                         : DESCRIPTION
#_______________________________________________________________________________
SET                .         Las                           : 
TLFamily_DEPT      .         Measured Depth                : 
TLFamily_PHI_FINAL .         Porosity                      : 
TLFamily_SW_AR     .         Water Saturation              : 
TLFamily_VSH_FINAL .         Shale Volume                  : 
~Curve Information
#_______________________________________________________________________________
#
#LOGNAME           .UNIT     LOG_ID                        : DESCRIPTION
#_______________________________________________________________________________
DEPT               .m                                      :  {F}
PHI_FINAL          .m3/m3                                  : Porosity {F}
SW_AR              .m3/m3                                  :  {F}
VSH_FINAL          .unitless                               : Vshale {F}
~Ascii
# ...
645.6      0.2481057  1          0.2192509 
645.7      0.2460403  1          0.2192253 
645.8000000000001 0.2432092  1          0.2191998 
645.9000000000001 0.2347706  1          0.2380751 
646        0.2326504  1          0.2479344 
646.1      0.2292184  1          0.2580951 
646.2      0.2218758  1          0.2793927 
646.3000000000001 0.2216754  1          0.2793578 
646.4000000000001 0.2033215  1          0.3260505 
646.5      0.206627   1          0.3260078 
646.6      0.2018569  1          0.3515337 
646.7      0.2004488  1          0.364862  
646.8000000000001 0.1949386  1          0.3928062 
646.9000000000001 0.1915938  1          0.4073955 
647        0.1627165  1          0.4705497 
647.1      0.1572257  1          0.487515  
647.2      0.1399476  1          0.5609705 
647.3000000000001 0.1178694  1          0.6438723 
647.4000000000001 0.05400481 1          0.8155211 
647.5      0.03422351 1          0.9008826 
647.6      0.04763557 1          0.8713617 
647.7      0.07342134 1          0.8151017 
647.8000000000001 0.09092844 1          0.7881637 
647.9000000000001 0.1331854  1          0.6886201 
648        0.1508047  1          0.665486  
648.1      0.1611739  1          0.6653786 
648.2      0.1934193  1          0.6002734 
648.3000000000001 0.1969503  1          0.6211882 
648.4000000000001 0.2258289  1          0.5599375 
648.5      0.2475349  1          0.5040215 
648.6      0.218756   1          0.5795279 
648.7      0.1938785  1          0.6424322 
648.8000000000001 0.2014272  1          0.6206969 
648.9000000000001 0.187628   1          0.6645197 
649        0.1689401  1          0.7110652 
649.1      0.1342902  1          0.8131497 
649.2      0.1423557  1          0.7862945 
649.3000000000001 0.1557104  1          0.7351061 
649.4000000000001 0.1522309  1          0.7601201 
649.5      0.1575823  1          0.7348619 
649.6      0.1150447  1          0.8399671 
649.7      0.09558935 1          0.8681741 
649.8000000000001 0.0889856  1          0.8680229 
649.9000000000001 0.1013434  1          0.8395321 
650        0.1327227  1          0.7342519 
650.1      0.14619    1          0.6861555 
650.2      0.1530247  1          0.6631281 
650.3000000000001 0.1403225  1          0.6630213 
650.4000000000001 0.1616791  1          0.5982102 
650.5      0.1531381  1          0.6405889 
650.6      0.1626632  1          0.5980232 
650.7      0.1565398  1          0.6188362 
650.8000000000001 0.1700007  1          0.5978364 
650.9000000000001 0.1789023  1          0.5577962 
651        0.1870994  1          0.5021532 
651.1      0.1846907  1          0.5020787 
651.2      0.2021154  1          0.4845839 
651.3000000000001 0.2015812  1          0.5383846 
651.4000000000001 0.2025512  1          0.5573696 
651.5      0.1942402  1          0.5769324 
651.6      0.191567   1          0.5768433 
651.7      0.1531076  1          0.6615285 
651.8000000000001 0.1624393  1          0.6392631 
651.9000000000001 0.1217046  1          0.7569429 
652        0.0660715  1          0.8937773 
652.1      0.03484919 1          1         
652.2      0.03365087 1          1         
652.3000000000001 0.03137336 1          1         
652.4000000000001 0.02857345 1          1         
652.5      0.03076247 1          1         
652.6      0.03302399 1          1         
652.7      0.03490629 1          1         
652.8000000000001 0.04046175 1          0.9532598 
652.9000000000001 0.03399926 1          0.9530894 
653        0.04508264 1          0.8632039 
653.1      0.03683877 1          0.8920546 
653.2      0.01956704 1          0.9525787 
653.3000000000001 0.02704412 1          0.9216173 
653.4000000000001 0.01095703 1          0.9839664 
653.5      0.02549155 1          0.9212915 
653.6      0.05635625 1          0.8341986 
653.7      0.06805291 1          0.8067907 
653.8000000000001 0.0748102  1          0.7802051 
653.9000000000001 0.08854866 1          0.7295232 
654        0.0925782  1          0.7052537 
654.1      0.08761099 1          0.7051383 
654.2      0.1146289  1          0.6368278 
654.3000000000001 0.07472301 1          0.7539136 
654.4000000000001 0.04935021 1          0.8330529 
654.5      0.05633517 1          0.8056933 
654.6      0.04713814 1          0.832767  
654.7      0.06687441 1          0.7790228 
654.8000000000001 0.09384481 1          0.7043313 
654.9000000000001 0.1110612  1          0.658138  
655        0.1206455  1          0.6580325 
655.1      0.1296461  1          0.6359186 
655.2      0.1566873  1          0.5541459 
655.3000000000001 0.156419   1          0.5735615 
655.4000000000001 0.1714188  1          0.5539771 
655.5      0.1680212  1          0.5934739 
655.6      0.176077   1          0.5933816 
655.7      0.2085113  1          0.5164734 
655.8000000000001 0.2225928  1          0.4985996 
655.9000000000001 0.2443479  1          0.4482542 
656        0.2659229  1          0.387866  
656.1      0.2537883  1          0.4022166 
656.2      0.238297   1          0.4322983 
656.3000000000001 0.2236392  1          0.4642407 
656.4000000000001 0.2053713  1          0.5159347 
656.5      0.1887265  1          0.5925527 
656.6      0.1439402  1          0.7262793 
656.7      0.1317369  1          0.7764065 
656.8000000000001 0.08168524 1          0.946487  
656.9000000000001 0.06437717 1          1         
657        0.07194835 1          0.9776165 
657.1      0.06217597 1          1         
657.2      0.0629245  1          0.9772658 
657.3000000000001 0.07154847 1          0.9151338 
657.4000000000001 0.0518229  1          0.9149727 
657.5      0.04044195 1          0.9453099 
657.6      0.02856988 1          1         
657.7      0.02844945 1          1         
657.8000000000001 0.02927636 1          0.9762146 
657.9000000000001 0.02325826 1          1         
658        0.06046985 1          0.8279293 
658.1      0.01257912 1          0.9756897 
658.2      0.01256001 1          0.9441352 
658.3000000000001 0.02470022 1          0.8553199 
658.4000000000001 0.05614213 1          0.7741943 
658.5      0.09820191 1          0.6543587 
658.6      0.07317267 1          0.7238923 
658.7      0.08779473 1          0.6766631 
658.8000000000001 0.09781875 1          0.6540454 
658.9000000000001 0.1068396  1          0.6109141 
659        0.09830651 1          0.6320044 
659.1      0.1096209  1          0.6107231 
659.2      0.09545767 1          0.6536281 
659.3000000000001 0.06333012 1          0.7476681 
659.4000000000001 0.0971275  1          0.6534197 
659.5      0.09933633 1          0.6533155 
659.6      0.09673557 1          0.6532113 
659.7      0.1007326  1          0.6313061 
659.8000000000001 0.06983383 1          0.6986123 
659.9000000000001 0.04672291 1          0.7469244 
660        0.03902693 1          0.7721216 
660.1      0.04603121 1          0.7466769 
660.2      0.01900914 1          0.8525226 
660.3000000000001 0.004202736 1          0.9718549 
660.4000000000001 0.0006770384 1          1         
660.5      0.0009969018 1          1         
660.6      0.001067732 1          1         
660.7      0.001111174 1          1         
660.8000000000001 0.0008051337 1          1         
660.9000000000001 0.0004572562 1          1         
661        0          1          1         
661.1      0          1          1         
661.2      0          1          1         
661.3000000000001 0.001878962 1          0.938962  
661.4000000000001 0.02590401 1          0.7963305 
661.5      0.03744493 1          0.7701871 
661.6      0.06833631 1          0.6735122 
661.7      0.1053968  1          0.5679604 
661.8000000000001 0.09355512 1          0.6081537 
661.9000000000001 0.06787791 1          0.6962336 
662        0.07114315 1          0.6961207 
662.1      0.04507971 1          0.7694156 
662.2      0.04204216 1          0.769287  
662.3000000000001 0.06745844 1          0.7195107 
662.4000000000001 0.0631732  1          0.7438394 
662.5      0.06321091 1          0.7689019 
662.6      0.05949865 1          0.7687735 
