~Version Information
#-------------------
Vers.          2.0: CWLS log ASCII Standart - VERSION 2.0
WRAP.          YES: Multiple lines per depth step
~Well Information Block
#----------------------
#MNEM.UNIT    VALUE: DESCRIPTION
#----.----  -------: -------------
STRT.M           0: First Depth In File
STOP.M       964.2: Last Depth In File
STEP.M         0.1: Depth Increment
NULL.      -999.25: Null Value
COMP.             : Company Name
WELL.          318: Well Name
FLD .     KARATUBE: Field
LOC .             : Location
CTRY.             : Country
SRVC. STEPANOV D.V.: Service Company
DATE.     25/07/05: Date
UWI .             : Unique Well ID
~Parameter Information
#---------------------
#MNEM.UNIT    VALUE: DESCRIPTION
#----.----  -------: ---------------
UPNG.         6085: 
UPGR.          691: 
FD  .G/C3     1.14: Density of hole liquid
GGRD.DC/M    0.033: Geothermal gradient
VELO.M/HR      400: Log velocity
NGGR.         0.11: Factor to sensitivity
~Curve Information Block
#-----------------------
#MNEM.UNIT         : CURVE DESCRIPTION
#----.----         : -----------------
DEPT.M            : Depth column
DEVI.DEG          : deviation
AZIM.DEG          : Azimuth
PZ  .OHMM         : apparent resistance, M11N1A sonde
GZ3 .OHMM         : apparent resistance, A2.0M0.5N sonde
GZ3B.OHMM         : apparent resistance, N0.5M2A sonde
SP  .MV           : Static polarization
LL3 .OHMM         : Laterolog
GZ5 .OHMM         : apparent resistance, A8.0M1.0N sonde
GZ4 .OHMM         : apparent resistance, A4.0M0.5N sonde
GZ1 .OHMM         : apparent resistance, A0.4M0.1N sonde
GZ2 .OHMM         : apparent resistance, A1.0M0.1N sonde
SP  .             : Static polarization
MINV.OHMM         : Mikrogradient Sonde
MNOR.OHMM         : Mikropotential Sonde
MLL .OHMM         : Microlaterolog 
MCAL.M            : Microcaliper
RHOB.G/C3         :  Gamma-Gamma Log Density
GR  .MKR/H        : Gamma ray log
RNGL.C/C          : Neuton Gamma Loging      
Ro05.OHMM         : Resistifity IPD1(0.5m zond)
Ro20.OHMM         : Resistifity IPD5 (2m zond)
Ro14.OHMM         : Resistifity IPD4 (1.4m zond)
Ro10.OHMM         : Resistifity IPD3(1m zond)
Ro07.OHMM         : Resistifity IPD2 (0.7m zond)
CAL1.MM           : Profile1
CAL2.MM           : Profile1
CALI.M            : Caliper
BSC .M            : BS
NGP .DECF         :  Neutron Porosity from NGL
T1  .MKS          : Time of wave run - 1 cannel
T2  .MKS          : Time of wave run - 2 cannel
DTP .MKS/M        : Interval time of run of longitudal wave
~Other Information
#-----------------
~Ascii Log Data
# ...
   849.200 
     0.105    169.340      2.560      2.780      3.800   -351.400      2.410 
     1.520      2.510      1.850      3.290    -18.127      1.440      1.550 
     1.651      0.219      2.385      7.000      1.360      1.651      2.541 
     2.643      2.353      2.025    218.100    245.000      0.233      0.215 
     0.345    443.664    609.681    334.575 
   849.300 
     0.112    164.781      2.480      2.790      3.780   -351.900      2.380 
     1.530      2.550      1.770      3.230    -17.723      1.030      1.190 
     1.455      0.221      2.369      7.000      1.330      1.455      2.412 
     2.447      2.062      1.735    223.900    224.100      0.225      0.215 
     0.361    443.590    606.648    328.431 
   849.400 
     0.120    160.219      2.540      2.790      3.840   -352.200      2.290 
     1.540      2.590      1.830      3.190    -17.420      0.845      1.040 
     1.235      0.221      2.364      7.300      1.340      1.235      2.316 
     2.287      1.927      1.587    237.400    244.900      0.242      0.215 
     0.352    442.092    603.614    327.546 
   849.500 
     0.129    163.296      2.620      2.790      3.860   -352.600      2.210 
     1.550      2.630      1.840      3.230    -17.217      1.100      1.430 
     1.505      0.220      2.370      7.500      1.310      1.505      2.290 
     2.349      2.131      1.883    223.100    257.000      0.241      0.215 
     0.366    439.173    601.550    326.662 
   849.600 
     0.138    167.219      2.530      2.740      3.840   -352.900      2.160 
     1.560      2.660      1.810      3.280    -17.013      1.065      1.470 
     1.860      0.218      2.357      7.300      1.330      1.860      2.317 
     2.496      2.423      2.244    220.800    264.300      0.244      0.215 
     0.355    437.985    599.486    324.318 
   849.700 
     0.144    169.653      2.460      2.690      3.940   -353.100      2.180 
     1.570      2.680      1.790      3.310    -16.910      0.835      1.240 
     1.664      0.217      2.346      7.300      1.320      1.664      2.336 
     2.530      2.364      2.075    224.500    257.800      0.242      0.215 
     0.360    439.391    598.896    321.812 
   849.800 
     0.144    169.861      2.530      2.670      4.070   -353.300      2.210 
     1.570      2.700      1.810      3.310    -16.907      0.765      0.930 
     1.499      0.216      2.367      7.300      1.330      1.499      2.344 
     2.401      2.205      1.916    224.200    261.300      0.244      0.215 
     0.355    440.844    598.306    319.687 
   849.900 
     0.144    170.069      2.590      2.660      4.260   -353.300      2.190 
     1.570      2.710      1.800      3.340    -17.004      0.785      1.030 
     1.465      0.217      2.397      7.600      1.320      1.465      2.300 
     2.317      2.145      1.881    221.600    252.400      0.238      0.215 
     0.363    442.345    596.904    317.561 
   850.000 
     0.136    167.109      2.530      2.650      4.450   -353.300      2.150 
     1.570      2.710      1.750      3.360    -17.200      0.700      0.930 
     1.425      0.217      2.377      7.800      1.310      1.425      2.267 
     2.309      2.116      1.823    226.600    271.500      0.251      0.215 
     0.364    442.243    595.413    317.002 
   850.100 
     0.127    163.356      2.530      2.650      4.700   -353.200      2.130 
     1.560      2.710      1.700      3.400    -17.497      0.775      1.070 
     1.477      0.218      2.376      8.000      1.330      1.477      2.304 
     2.374      2.137      1.807    227.000    249.300      0.240      0.215 
     0.360    440.543    594.777    316.444 
   850.200 
     0.124    162.726      2.670      2.680      5.010   -352.900      2.120 
     1.550      2.700      1.680      3.460    -17.694      0.950      1.010 
     1.514      0.219      2.377      8.100      1.390      1.514      2.394 
     2.499      2.221      1.864    228.100    244.800      0.238      0.215 
     0.337    437.545    594.141    317.518 
   850.300 
     0.135    169.362      2.700      2.740      5.340   -352.600      2.150 
     1.540      2.700      1.740      3.530    -18.091      1.235      1.330 
     1.593      0.220      2.384      8.600      1.330      1.593      2.535 
     2.712      2.401      2.038    219.700    239.500      0.231      0.215 
     0.367    433.252    596.638    318.592 
   850.400 
     0.145    176.003      2.610      2.820      5.650   -352.300      2.230 
     1.530      2.690      1.790      3.650    -18.387      1.225      1.170 
     1.844      0.221      2.387      8.900      1.360      1.844      2.702 
     2.948      2.662      2.372    224.400    237.800      0.233      0.215 
     0.355    430.746    599.134    318.010 
   850.500 
     0.154    177.415      2.620      2.890      5.910   -351.800      2.380 
     1.530      2.690      1.850      3.710    -18.684      1.390      1.340 
     1.953      0.221      2.369      8.500      1.400      1.953      2.811 
     3.109      2.839      2.505    219.600    219.400      0.221      0.215 
     0.343    430.922    598.931    317.247 
   850.600 
     0.162    176.590      2.740      2.970      6.060   -351.300      2.530 
     1.540      2.690      1.870      3.710    -19.081      1.310      1.280 
     1.902      0.221      2.389      8.300      1.410      1.902      2.832 
     3.060      2.740      2.382    218.700    217.400      0.219      0.215 
     0.339    431.128    598.728    318.873 
   850.700 
     0.169    175.565      2.750      3.010      6.100   -350.800      2.610 
     1.550      2.700      1.860      3.630    -19.477      1.330      1.320 
     1.687      0.221      2.399      7.700      1.400      1.687      2.746 
     2.843      2.485      2.107    221.300    223.700      0.223      0.215 
     0.338    431.364    599.806    320.501 
   850.800 
     0.167    172.742      2.720      3.000      6.140   -350.200      2.570 
     1.560      2.710      1.890      3.510    -19.874      0.825      0.810 
     1.545      0.221      2.403      7.400      1.430      1.545      2.629 
     2.623      2.279      1.942    230.100    237.900      0.235      0.215 
     0.320    430.210    601.027    325.033 
   850.900 
     0.166    169.916      2.760      2.950      6.160   -349.600      2.460 
     1.580      2.730      1.880      3.470    -20.271      0.890      0.880 
     1.626      0.221      2.406      7.300      1.420      1.626      2.523 
     2.512      2.238      1.965    225.100    241.500      0.235      0.215 
     0.323    426.970    599.860    329.566 
   851.000 
     0.168    172.539      2.920      2.880      6.200   -349.000      2.340 
     1.590      2.740      1.850      3.450    -20.668      0.965      0.960 
     1.570      0.222      2.381      7.400      1.380      1.570      2.440 
     2.462      2.212      1.920    222.700    223.200      0.224      0.215 
     0.344    425.520    598.693    332.071 
   851.100 
     0.172    178.795      2.920      2.810      6.340   -348.400      2.270 
     1.590      2.750      1.820      3.390    -20.964      0.920      0.920 
     1.445      0.222      2.365      7.500      1.380      1.445      2.411 
     2.431      2.154      1.851    225.800    253.000      0.241      0.215 
     0.337    425.853    597.312    334.576 
   851.200 
     0.175    184.193      2.840      2.770      6.570   -347.900      2.240 
     1.600      2.750      1.830      3.390    -21.161      1.025      1.040 
     1.643      0.222      2.371      7.200      1.330      1.643      2.421 
     2.476      2.278      2.071    230.400    275.200      0.256      0.215 
     0.350    427.007    595.905    334.538 
   851.300 
     0.173    181.911      2.860      2.930      6.820   -347.500      2.220 
     1.600      2.740      1.840      3.440    -21.258      1.155      1.190 
     1.777      0.221      2.378      7.000      1.310      1.777      2.440 
     2.574      2.461      2.235    222.800    280.700      0.256      0.215 
     0.358    428.982    594.897    334.218 
