~Version Information
#-------------------
Vers.          2.0: CWLS log ASCII Standart - VERSION 2.0
WRAP.          YES: Multiple lines per depth step
~Well Information Block
#----------------------
#MNEM.UNIT    VALUE: DESCRIPTION
#----.----  -------: -------------
STRT.M           0: First Depth In File
STOP.M       964.2: Last Depth In File
STEP.M         0.1: Depth Increment
NULL.      -999.25: Null Value
COMP.             : Company Name
WELL.          318: Well Name
FLD .     KARATUBE: Field
LOC .             : Location
CTRY.             : Country
SRVC. STEPANOV D.V.: Service Company
DATE.     25/07/05: Date
UWI .             : Unique Well ID
~Parameter Information
#---------------------
#MNEM.UNIT    VALUE: DESCRIPTION
#----.----  -------: ---------------
UPNG.         6085: 
UPGR.          691: 
FD  .G/C3     1.14: Density of hole liquid
GGRD.DC/M    0.033: Geothermal gradient
VELO.M/HR      400: Log velocity
NGGR.         0.11: Factor to sensitivity
~Curve Information Block
#-----------------------
#MNEM.UNIT         : CURVE DESCRIPTION
#----.----         : -----------------
DEPT.M            : Depth column
DEVI.DEG          : deviation
AZIM.DEG          : Azimuth
PZ  .OHMM         : apparent resistance, M11N1A sonde
GZ3 .OHMM         : apparent resistance, A2.0M0.5N sonde
GZ3B.OHMM         : apparent resistance, N0.5M2A sonde
SP  .MV           : Static polarization
LL3 .OHMM         : Laterolog
GZ5 .OHMM         : apparent resistance, A8.0M1.0N sonde
GZ4 .OHMM         : apparent resistance, A4.0M0.5N sonde
GZ1 .OHMM         : apparent resistance, A0.4M0.1N sonde
GZ2 .OHMM         : apparent resistance, A1.0M0.1N sonde
SP  .             : Static polarization
MINV.OHMM         : Mikrogradient Sonde
MNOR.OHMM         : Mikropotential Sonde
MLL .OHMM         : Microlaterolog 
MCAL.M            : Microcaliper
RHOB.G/C3         :  Gamma-Gamma Log Density
GR  .MKR/H        : Gamma ray log
RNGL.C/C          : Neuton Gamma Loging      
Ro05.OHMM         : Resistifity IPD1(0.5m zond)
Ro20.OHMM         : Resistifity IPD5 (2m zond)
Ro14.OHMM         : Resistifity IPD4 (1.4m zond)
Ro10.OHMM         : Resistifity IPD3(1m zond)
Ro07.OHMM         : Resistifity IPD2 (0.7m zond)
CAL1.MM           : Profile1
CAL2.MM           : Profile1
CALI.M            : Caliper
BSC .M            : BS
NGP .DECF         :  Neutron Porosity from NGL
T1  .MKS          : Time of wave run - 1 cannel
T2  .MKS          : Time of wave run - 2 cannel
DTP .MKS/M        : Interval time of run of longitudal wave
~Other Information
#-----------------
~Ascii Log Data
# ...
   794.200 
     0.268    259.033      2.920      3.750      3.360   -345.600      2.530 
     2.400      3.110      2.310      4.200    -29.229      1.605      1.500 
     2.314      0.216      2.317      6.100      1.410      2.314      2.512 
     2.668      2.666      2.354    215.700    217.900      0.217      0.215 
     0.329    417.568    587.831    346.090 
   794.300 
     0.256    259.851      2.930      3.720      3.320   -345.200      2.510 
     2.410      3.130      2.320      4.270    -29.325      1.655      1.560 
     2.490      0.217      2.322      5.700      1.400      2.490      2.543 
     2.742      2.734      2.445    217.300    221.400      0.220      0.215 
     0.330    421.254    593.204    348.312 
   794.400 
     0.245    260.669      2.850      3.690      3.270   -344.800      2.540 
     2.420      3.150      2.300      4.330    -29.522      1.650      1.560 
     2.412      0.218      2.316      5.900      1.400      2.412      2.537 
     2.704      2.647      2.354    217.100    216.300      0.217      0.215 
     0.332    425.902    598.582    350.907 
   794.500 
     0.254    258.928      2.800      3.690      3.230   -344.600      2.580 
     2.420      3.180      2.310      4.350    -29.519      1.460      1.390 
     2.264      0.218      2.337      6.100      1.400      2.264      2.455 
     2.574      2.480      2.173    217.300    217.200      0.218      0.215 
     0.333    431.983    605.283    353.501 
   794.600 
     0.267    256.903      2.750      3.670      3.160   -344.300      2.590 
     2.420      3.210      2.370      4.360    -29.615      1.485      1.420 
     1.985      0.219      2.327      6.200      1.430      1.985      2.336 
     2.362      2.230      1.953    218.000    218.400      0.219      0.215 
     0.322    438.662    611.983    357.468 
   794.700 
     0.275    254.869      2.660      3.650      3.090   -344.200      2.500 
     2.410      3.230      2.330      4.330    -29.512      1.295      1.260 
     1.630      0.219      2.328      6.600      1.370      1.630      2.155 
     2.137      1.938      1.615    218.700    218.100      0.219      0.215 
     0.346    445.943    618.408    361.589 
   794.800 
     0.276    252.820      2.610      3.530      3.030   -344.300      2.330 
     2.390      3.250      2.270      4.240    -29.409      1.000      0.990 
     1.234      0.218      2.314      6.900      1.320      1.234      2.014 
     1.972      1.711      1.346    220.700    222.100      0.222      0.215 
     0.366    452.413    624.797    365.263 
   794.900 
     0.277    250.770      2.530      3.370      2.980   -344.500      2.130 
     2.370      3.280      2.170      4.060    -29.306      0.760      0.760 
     1.152      0.218      2.317      7.200      1.260      1.152      1.922 
     1.889      1.610      1.280    221.700    227.400      0.225      0.215 
     0.393    457.678    631.086    368.937 
   795.000 
     0.278    250.666      2.390      3.210      2.950   -344.700      1.930 
     2.350      3.290      2.030      3.860    -29.302      0.795      0.810 
     1.194      0.218      2.301      7.400      1.270      1.194      1.887 
     1.909      1.674      1.374    220.500    231.400      0.227      0.215 
     0.389    462.316    637.371    369.693 
   795.100 
     0.278    250.778      2.360      3.060      2.950   -344.900      1.780 
     2.340      3.280      1.870      3.730    -29.299      0.910      0.940 
     1.350      0.217      2.279      7.400      1.290      1.350      1.905 
     1.983      1.774      1.526    215.900    224.000      0.221      0.215 
     0.383    466.331    641.263    370.449 
   795.200 
     0.276    251.263      2.340      2.970      2.970   -345.000      1.710 
     2.330      3.250      1.770      3.660    -29.396      0.990      0.940 
     1.394      0.216      2.298      7.400      1.260      1.394      1.941 
     2.023      1.811      1.608    217.200    228.400      0.224      0.215 
     0.395    470.490    644.891    368.692 
   795.300 
     0.269    252.617      2.380      2.910      3.020   -345.000      1.690 
     2.320      3.220      1.730      3.600    -29.392      0.930      0.890 
     1.288      0.214      2.315      7.500      1.260      1.288      1.963 
     2.003      1.744      1.533    213.500    225.200      0.220      0.215 
     0.397    474.790    646.095    366.657 
   795.400 
     0.262    253.972      2.400      2.880      3.110   -345.000      1.700 
     2.300      3.190      1.700      3.530    -29.389      0.905      0.870 
     1.179      0.213      2.312      7.500      1.270      1.179      1.969 
     1.959      1.678      1.457    212.600    225.400      0.220      0.215 
     0.393    477.097    647.298    363.633 
   795.500 
     0.266    253.672      2.380      2.840      3.210   -345.000      1.690 
     2.280      3.150      1.680      3.440    -29.286      0.905      0.860 
     1.168      0.213      2.277      7.400      1.250      1.168      1.983 
     1.964      1.678      1.427    212.900    235.100      0.225      0.215 
     0.399    476.416    646.665    360.610 
   795.600 
     0.273    252.960      2.510      2.810      3.290   -345.000      1.690 
     2.260      3.120      1.600      3.340    -29.283      1.010      0.950 
     1.227      0.214      2.289      7.300      1.290      1.227      2.035 
     2.040      1.755      1.487    211.900    226.400      0.220      0.215 
     0.383    473.739    646.032    356.791 
   795.700 
     0.278    252.499      2.590      2.780      3.370   -344.900      1.700 
     2.240      3.080      1.550      3.240    -29.279      1.090      1.020 
     1.326      0.215      2.282      7.100      1.360      1.326      2.127 
     2.190      1.904      1.594    215.300    225.200      0.221      0.215 
     0.351    469.063    646.428    352.883 
   795.800 
     0.278    252.626      2.630      2.790      3.430   -344.700      1.750 
     2.230      3.050      1.600      3.170    -29.376      1.120      1.050 
     1.610      0.216      2.279      6.700      1.360      1.610      2.235 
     2.354      2.165      1.922    215.500    219.900      0.219      0.215 
     0.350    460.062    646.938    348.874 
   795.900 
     0.278    252.752      2.700      2.830      3.470   -344.300      1.830 
     2.210      3.030      1.710      3.160    -29.673      1.190      1.110 
     1.972      0.217      2.269      6.400      1.360      1.972      2.367 
     2.545      2.414      2.192    215.500    221.300      0.219      0.215 
     0.348    444.570    646.219    344.863 
   796.000 
     0.287    253.194      2.740      2.850      3.490   -343.900      1.940 
     2.190      3.000      1.780      3.220    -29.970      1.295      1.210 
     2.195      0.218      2.278      6.300      1.370      2.195      2.473 
     2.696      2.541      2.281    216.800    221.400      0.220      0.215 
     0.344    433.983    645.501    341.802 
   796.100 
     0.299    253.715      2.790      2.910      3.500   -343.500      2.060 
     2.180      2.980      1.830      3.290    -30.266      1.380      1.280 
     2.376      0.217      2.285      6.200      1.390      2.376      2.534 
     2.740      2.572      2.330    217.100    221.600      0.220      0.215 
     0.336    428.281    624.761    338.741 
   796.200 
     0.306    254.495      2.910      2.930      3.500   -343.100      2.250 
     2.160      2.960      1.800      3.330    -30.563      1.490      1.390 
     2.639      0.216      2.263      6.200      1.390      2.639      2.541 
     2.740      2.629      2.440    214.800    220.500      0.219      0.215 
     0.336    422.545    601.801    338.723 
   796.300 
     0.293    256.313      2.900      2.960      3.500   -342.800      2.410 
     2.140      2.950      1.850      3.400    -30.860      1.580      1.470 
     2.726      0.214      2.261      6.000      1.420      2.726      2.525 
     2.730      2.670      2.487    213.600    220.100      0.218      0.215 
     0.325    416.784    594.860    339.044 
