~Version Information
#-------------------
Vers.          2.0: CWLS log ASCII Standart - VERSION 2.0
WRAP.          YES: Multiple lines per depth step
~Well Information Block
#----------------------
#MNEM.UNIT    VALUE: DESCRIPTION
#----.----  -------: -------------
STRT.M           0: First Depth In File
STOP.M       964.2: Last Depth In File
STEP.M         0.1: Depth Increment
NULL.      -999.25: Null Value
COMP.             : Company Name
WELL.          318: Well Name
FLD .     KARATUBE: Field
LOC .             : Location
CTRY.             : Country
SRVC. STEPANOV D.V.: Service Company
DATE.     25/07/05: Date
UWI .             : Unique Well ID
~Parameter Information
#---------------------
#MNEM.UNIT    VALUE: DESCRIPTION
#----.----  -------: ---------------
UPNG.         6085: 
UPGR.          691: 
FD  .G/C3     1.14: Density of hole liquid
GGRD.DC/M    0.033: Geothermal gradient
VELO.M/HR      400: Log velocity
NGGR.         0.11: Factor to sensitivity
~Curve Information Block
#-----------------------
#MNEM.UNIT         : CURVE DESCRIPTION
#----.----         : -----------------
DEPT.M            : Depth column
DEVI.DEG          : deviation
AZIM.DEG          : Azimuth
PZ  .OHMM         : apparent resistance, M11N1A sonde
GZ3 .OHMM         : apparent resistance, A2.0M0.5N sonde
GZ3B.OHMM         : apparent resistance, N0.5M2A sonde
SP  .MV           : Static polarization
LL3 .OHMM         : Laterolog
GZ5 .OHMM         : apparent resistance, A8.0M1.0N sonde
GZ4 .OHMM         : apparent resistance, A4.0M0.5N sonde
GZ1 .OHMM         : apparent resistance, A0.4M0.1N sonde
GZ2 .OHMM         : apparent resistance, A1.0M0.1N sonde
SP  .             : Static polarization
MINV.OHMM         : Mikrogradient Sonde
MNOR.OHMM         : Mikropotential Sonde
MLL .OHMM         : Microlaterolog 
MCAL.M            : Microcaliper
RHOB.G/C3         :  Gamma-Gamma Log Density
GR  .MKR/H        : Gamma ray log
RNGL.C/C          : Neuton Gamma Loging      
Ro05.OHMM         : Resistifity IPD1(0.5m zond)
Ro20.OHMM         : Resistifity IPD5 (2m zond)
Ro14.OHMM         : Resistifity IPD4 (1.4m zond)
Ro10.OHMM         : Resistifity IPD3(1m zond)
Ro07.OHMM         : Resistifity IPD2 (0.7m zond)
CAL1.MM           : Profile1
CAL2.MM           : Profile1
CALI.M            : Caliper
BSC .M            : BS
NGP .DECF         :  Neutron Porosity from NGL
T1  .MKS          : Time of wave run - 1 cannel
T2  .MKS          : Time of wave run - 2 cannel
DTP .MKS/M        : Interval time of run of longitudal wave
~Other Information
#-----------------
~Ascii Log Data
# ...
   305.800 
     0.077     95.839      3.930      5.490      5.360   -342.400      3.240 
     3.970      5.200      2.370      5.540    -26.871      1.080      1.060 
     2.440      0.221      1.991      8.000      1.240      2.440      3.958 
     3.968      3.305      2.869    216.200    224.000      0.222      0.215 
     0.409    545.736    825.776    541.887 
   305.900 
     0.075     90.538      3.900      5.490      5.400   -342.900      3.260 
     3.960      5.210      2.390      5.520    -27.568      1.110      1.100 
     2.537      0.221      1.990      8.000      1.250      2.537      4.011 
     4.062      3.410      2.989    215.200    223.700      0.221      0.215 
     0.404    547.632    825.353    548.837 
   306.000 
     0.072     85.240      3.890      5.520      5.430   -343.700      3.320 
     3.950      5.210      2.390      5.500    -28.164      1.120      1.110 
     2.572      0.220      2.001      8.100      1.270      2.572      4.055 
     4.129      3.482      3.048    214.800    224.000      0.221      0.215 
     0.395    549.572    833.081    555.858 
   306.100 
     0.080     84.957      3.930      5.590      5.450   -344.300      3.360 
     3.930      5.210      2.360      5.470    -28.561      1.135      1.130 
     2.570      0.219      2.018      8.000      1.290      2.570      4.084 
     4.118      3.503      3.050    214.100    223.300      0.221      0.215 
     0.386    552.090    841.717    562.119 
   306.200 
     0.088     84.674      3.900      5.620      5.450   -344.600      3.370 
     3.920      5.220      2.380      5.440    -28.358      1.155      1.150 
     2.311      0.218      2.019      7.900      1.280      2.311      4.040 
     4.037      3.407      2.876    212.300    222.400      0.219      0.215 
     0.391    555.960    839.415    568.380 
   306.300 
     0.094     88.095      3.840      5.620      5.460   -344.500      3.350 
     3.920      5.220      2.380      5.400    -28.155      1.185      1.190 
     2.180      0.219      2.004      7.900      1.270      2.180      3.972 
     3.923      3.311      2.773    212.600    220.500      0.218      0.215 
     0.396    556.447    837.114    567.498 
   306.400 
     0.092    100.144      3.740      5.620      5.450   -344.100      3.290 
     3.900      5.230      2.420      5.360    -27.951      1.245      1.280 
     2.170      0.220      2.012      8.100      1.280      2.170      3.892 
     3.817      3.289      2.765    212.700    223.600      0.220      0.215 
     0.392    551.854    834.715    566.616 
   306.500 
     0.091    112.190      3.700      5.600      5.430   -343.800      3.240 
     3.890      5.230      2.410      5.300    -27.748      1.260      1.350 
     2.144      0.221      2.009      8.200      1.260      2.144      3.793 
     3.754      3.236      2.708    212.600    224.500      0.220      0.215 
     0.401    546.301    832.292    567.039 
   306.600 
     0.090    117.397      3.650      5.610      5.430   -343.700      3.200 
     3.870      5.230      2.410      5.230    -27.645      1.275      1.410 
     2.076      0.223      2.012      8.200      1.240      2.076      3.734 
     3.702      3.169      2.650    213.200    226.700      0.222      0.215 
     0.410    539.788    829.261    567.608 
   306.700 
     0.090    118.048      3.590      5.600      5.420   -343.700      3.170 
     3.860      5.230      2.400      5.180    -27.641      1.345      1.320 
     2.028      0.224      2.016      8.900      1.230      2.028      3.690 
     3.670      3.156      2.652    213.500    228.000      0.222      0.215 
     0.419    537.063    826.163    562.570 
   306.800 
     0.090    118.698      3.620      5.560      5.410   -343.900      3.140 
     3.840      5.230      2.400      5.150    -27.738      1.350      1.330 
     2.054      0.225      2.028      8.800      1.250      2.054      3.667 
     3.690      3.182      2.684    213.900    228.900      0.223      0.215 
     0.408    538.126    821.279    557.534 
   306.900 
     0.091    125.812      3.650      5.510      5.430   -343.900      3.140 
     3.820      5.230      2.370      5.100    -27.635      1.260      1.250 
     2.066      0.225      2.024      8.800      1.260      2.066      3.642 
     3.696      3.182      2.643    214.500    230.500      0.224      0.215 
     0.403    539.233    816.392    553.431 
   307.000 
     0.091    133.639      3.700      5.420      5.450   -343.900      3.120 
     3.800      5.220      2.280      5.040    -27.532      1.150      1.140 
     2.064      0.225      2.015      8.900      1.250      2.064      3.620 
     3.645      3.099      2.552    212.500    229.600      0.223      0.215 
     0.409    540.406    809.448    549.563 
   307.100 
     0.095    140.085      3.730      5.350      5.450   -343.500      3.080 
     3.790      5.210      2.210      4.940    -27.228      1.050      1.040 
     1.945      0.225      2.005      8.600      1.250      1.945      3.571 
     3.565      2.971      2.387    213.900    230.300      0.224      0.215 
     0.406    541.965    802.503    549.558 
   307.200 
     0.113    141.000      3.750      5.300      5.450   -343.000      3.030 
     3.770      5.200      2.210      4.880    -26.725      1.005      0.990 
     1.930      0.225      2.012      8.800      1.230      1.930      3.532 
     3.494      2.880      2.311    214.200    230.100      0.224      0.215 
     0.417    544.102    806.644    549.984 
   307.300 
     0.131    141.914      3.750      5.220      5.430   -342.600      3.020 
     3.750      5.170      2.170      4.830    -26.422      0.935      0.930 
     1.932      0.225      2.014      8.800      1.240      1.932      3.503 
     3.465      2.830      2.284    215.900    230.700      0.225      0.215 
     0.412    546.385    812.013    549.189 
   307.400 
     0.140    139.970      3.710      5.140      5.440   -342.200      3.040 
     3.720      5.140      2.160      4.800    -26.118      0.890      0.890 
     1.895      0.225      2.038      8.900      1.240      1.895      3.517 
     3.488      2.807      2.261    216.400    229.900      0.225      0.215 
     0.413    549.010    816.466    548.394 
   307.500 
     0.138    135.169      3.670      5.060      5.450   -341.900      3.060 
     3.690      5.110      2.130      4.750    -25.815      0.870      0.870 
     1.942      0.224      2.053      9.200      1.250      1.942      3.571 
     3.559      2.876      2.359    224.800    229.200      0.229      0.215 
     0.408    548.955    820.818    545.737 
   307.600 
     0.136    130.367      3.690      5.020      5.470   -341.800      3.100 
     3.660      5.070      2.120      4.740    -25.612      0.875      0.880 
     2.137      0.225      2.045      9.000      1.260      2.137      3.636 
     3.699      3.027      2.559    217.400    229.400      0.225      0.215 
     0.404    546.216    825.122    543.080 
   307.700 
     0.145    129.897      3.770      4.980      5.480   -341.700      3.150 
     3.640      5.030      2.110      4.730    -25.409      0.880      0.880 
     2.270      0.225      2.042      8.700      1.250      2.270      3.709 
     3.800      3.164      2.714    217.500    229.100      0.225      0.215 
     0.407    544.840    829.414    546.522 
   307.800 
     0.155    130.510      3.800      4.960      5.470   -341.400      3.200 
     3.620      5.000      2.110      4.730    -25.205      0.890      0.900 
     2.309      0.225      2.037      8.900      1.250      2.309      3.757 
     3.824      3.194      2.736    218.500    228.100      0.225      0.215 
     0.408    545.507    835.842    550.639 
   307.900 
     0.166    131.123      3.800      4.920      5.430   -341.200      3.210 
     3.600      4.960      2.120      4.760    -25.102      0.890      0.900 
     2.261      0.225      2.041      8.700      1.280      2.261      3.764 
     3.797      3.187      2.698    218.000    229.100      0.225      0.215 
     0.393    546.494    842.273    552.776 
