~Version Information
#-------------------
Vers.          2.0: CWLS log ASCII Standart - VERSION 2.0
WRAP.          YES: Multiple lines per depth step
~Well Information Block
#----------------------
#MNEM.UNIT    VALUE: DESCRIPTION
#----.----  -------: -------------
STRT.M           0: First Depth In File
STOP.M       964.2: Last Depth In File
STEP.M         0.1: Depth Increment
NULL.      -999.25: Null Value
COMP.             : Company Name
WELL.          318: Well Name
FLD .     KARATUBE: Field
LOC .             : Location
CTRY.             : Country
SRVC. STEPANOV D.V.: Service Company
DATE.     25/07/05: Date
UWI .             : Unique Well ID
~Parameter Information
#---------------------
#MNEM.UNIT    VALUE: DESCRIPTION
#----.----  -------: ---------------
UPNG.         6085: 
UPGR.          691: 
FD  .G/C3     1.14: Density of hole liquid
GGRD.DC/M    0.033: Geothermal gradient
VELO.M/HR      400: Log velocity
NGGR.         0.11: Factor to sensitivity
~Curve Information Block
#-----------------------
#MNEM.UNIT         : CURVE DESCRIPTION
#----.----         : -----------------
DEPT.M            : Depth column
DEVI.DEG          : deviation
AZIM.DEG          : Azimuth
PZ  .OHMM         : apparent resistance, M11N1A sonde
GZ3 .OHMM         : apparent resistance, A2.0M0.5N sonde
GZ3B.OHMM         : apparent resistance, N0.5M2A sonde
SP  .MV           : Static polarization
LL3 .OHMM         : Laterolog
GZ5 .OHMM         : apparent resistance, A8.0M1.0N sonde
GZ4 .OHMM         : apparent resistance, A4.0M0.5N sonde
GZ1 .OHMM         : apparent resistance, A0.4M0.1N sonde
GZ2 .OHMM         : apparent resistance, A1.0M0.1N sonde
SP  .             : Static polarization
MINV.OHMM         : Mikrogradient Sonde
MNOR.OHMM         : Mikropotential Sonde
MLL .OHMM         : Microlaterolog 
MCAL.M            : Microcaliper
RHOB.G/C3         :  Gamma-Gamma Log Density
GR  .MKR/H        : Gamma ray log
RNGL.C/C          : Neuton Gamma Loging      
Ro05.OHMM         : Resistifity IPD1(0.5m zond)
Ro20.OHMM         : Resistifity IPD5 (2m zond)
Ro14.OHMM         : Resistifity IPD4 (1.4m zond)
Ro10.OHMM         : Resistifity IPD3(1m zond)
Ro07.OHMM         : Resistifity IPD2 (0.7m zond)
CAL1.MM           : Profile1
CAL2.MM           : Profile1
CALI.M            : Caliper
BSC .M            : BS
NGP .DECF         :  Neutron Porosity from NGL
T1  .MKS          : Time of wave run - 1 cannel
T2  .MKS          : Time of wave run - 2 cannel
DTP .MKS/M        : Interval time of run of longitudal wave
~Other Information
#-----------------
~Ascii Log Data
# ...
   523.600 
     0.276    276.593      2.140      2.660      2.000   -349.700      1.900 
     1.570      2.670      1.950      2.970    -30.835      1.255      1.130 
     2.131      0.213      2.066      2.500      1.440      2.131      1.773 
     1.907      1.801      1.939    212.800    211.700      0.214      0.215 
     0.307    494.917    732.120    458.020 
   523.700 
     0.239    273.632      2.090      2.690      2.020   -349.700      1.890 
     1.550      2.660      1.910      2.940    -30.732      1.275      1.150 
     1.980      0.213      2.075      2.500      1.470      1.980      1.776 
     1.897      1.762      1.864    213.500    212.700      0.215      0.215 
     0.297    492.071    732.146    463.101 
   523.800 
     0.202    270.671      2.030      2.640      2.050   -349.400      1.900 
     1.540      2.650      1.850      2.940    -30.629      1.230      1.110 
     1.982      0.213      2.074      2.600      1.460      1.982      1.801 
     1.917      1.784      1.864    217.500    213.000      0.217      0.215 
     0.299    490.772    739.647    468.342 
   523.900 
     0.200    272.173      2.060      2.640      2.060   -349.200      1.900 
     1.530      2.650      1.860      2.940    -30.425      1.360      1.220 
     2.409      0.212      2.075      2.700      1.450      2.409      1.832 
     1.980      1.881      2.041    216.600    215.300      0.217      0.215 
     0.302    490.630    747.988    474.630 
   524.000 
     0.222    276.642      2.050      2.610      2.050   -349.100      1.910 
     1.530      2.640      1.940      2.970    -30.222      1.725      1.550 
     2.682      0.211      2.069      2.800      1.430      2.682      1.851 
     2.016      1.932      2.151    213.200    205.500      0.211      0.215 
     0.312    491.645    759.309    481.030 
   524.100 
     0.243    281.111      2.020      2.580      2.060   -349.000      1.930 
     1.510      2.650      1.900      2.950    -30.119      1.435      1.310 
     1.979      0.211      2.069      2.900      1.440      1.979      1.829 
     1.938      1.769      1.769    212.000    205.500      0.210      0.215 
     0.310    492.617    770.629    489.371 
   524.200 
     0.227    279.284      2.050      2.540      2.040   -348.800      1.870 
     1.500      2.660      1.850      2.900    -30.016      1.285      1.160 
     1.730      0.211      2.078      2.900      1.430      1.730      1.784 
     1.830      1.629      1.606    211.600    209.500      0.212      0.215 
     0.312    493.546    761.918    498.203 
   524.300 
     0.210    277.458      2.030      2.490      2.010   -348.500      1.780 
     1.500      2.670      1.850      2.860    -29.812      1.320      1.190 
     1.799      0.211      2.081      2.900      1.410      1.799      1.709 
     1.774      1.632      1.648    211.400    209.900      0.212      0.215 
     0.318    494.377    753.210    507.700 
   524.400 
     0.194    275.295      1.940      2.440      1.950   -348.300      1.760 
     1.490      2.680      1.850      2.850    -29.809      1.320      1.190 
     1.817      0.212      2.085      2.700      1.420      1.817      1.637 
     1.753      1.627      1.649    212.200    211.800      0.214      0.215 
     0.314    494.979    753.480    517.272 
   524.500 
     0.178    272.349      1.960      2.360      1.870   -348.300      1.760 
     1.490      2.680      1.830      2.830    -29.706      1.375      1.250 
     1.871      0.212      2.081      2.700      1.420      1.871      1.587 
     1.686      1.576      1.621    212.400    213.700      0.215      0.215 
     0.313    495.437    753.750    518.934 
   524.600 
     0.162    269.401      2.000      2.290      1.810   -348.300      1.760 
     1.480      2.690      1.800      2.800    -29.502      1.430      1.290 
     1.712      0.212      2.078      2.500      1.420      1.712      1.509 
     1.570      1.470      1.522    212.200    214.000      0.215      0.215 
     0.312    495.752    752.449    520.596 
   524.700 
     0.168    271.308      1.940      2.220      1.760   -348.300      1.740 
     1.480      2.690      1.780      2.730    -29.499      1.330      1.210 
     1.477      0.212      2.076      2.600      1.420      1.477      1.437 
     1.457      1.325      1.352    212.100    214.100      0.215      0.215 
     0.313    496.637    750.753    510.640 
   524.800 
     0.184    275.292      1.900      2.110      1.730   -348.200      1.690 
     1.470      2.700      1.720      2.650    -29.496      1.255      1.140 
     1.331      0.212      2.058      2.800      1.430      1.331      1.380 
     1.363      1.250      1.288    212.300    213.500      0.214      0.215 
     0.310    498.092    746.998    500.688 
   524.900 
     0.198    279.282      1.870      2.090      1.710   -348.000      1.630 
     1.470      2.700      1.680      2.580    -29.393      1.225      1.110 
     1.364      0.212      2.068      2.900      1.410      1.364      1.357 
     1.355      1.250      1.335    211.400    212.600      0.214      0.215 
     0.318    504.096    743.240    495.890 
   525.000 
     0.185    283.302      1.870      2.090      1.710   -348.000      1.620 
     1.460      2.690      1.640      2.560    -29.489      1.165      1.060 
     1.463      0.212      2.069      2.900      1.420      1.463      1.380 
     1.394      1.298      1.411    212.500    213.700      0.215      0.215 
     0.314    514.638    738.130    491.095 
   525.100 
     0.172    287.325      1.890      2.050      1.710   -347.900      1.620 
     1.450      2.680      1.630      2.580    -29.486      1.140      1.040 
     1.644      0.212      2.055      2.800      1.410      1.644      1.426 
     1.469      1.383      1.512    212.500    214.500      0.215      0.215 
     0.317    519.665    733.020    483.772 
   525.200 
     0.163    288.455      1.920      2.030      1.740   -348.000      1.640 
     1.430      2.680      1.660      2.630    -29.483      1.210      1.100 
     1.810      0.212      2.070      2.600      1.400      1.810      1.485 
     1.530      1.446      1.602    212.800    214.800      0.215      0.215 
     0.319    519.174    733.271    475.811 
   525.300 
     0.157    286.704      1.910      1.950      1.750   -348.200      1.660 
     1.410      2.670      1.770      2.640    -29.480      1.265      1.150 
     1.823      0.211      2.069      2.700      1.400      1.823      1.516 
     1.559      1.478      1.591    213.000    212.700      0.214      0.215 
     0.320    517.935    733.522    467.158 
   525.400 
     0.152    284.951      1.920      1.950      1.740   -348.200      1.670 
     1.400      2.670      1.760      2.620    -29.476      1.265      1.140 
     1.713      0.210      2.079      2.800      1.400      1.713      1.517 
     1.546      1.471      1.538    211.200    211.200      0.213      0.215 
     0.321    515.570    732.940    458.500 
   525.500 
     0.173    286.690      1.890      2.000      1.720   -348.100      1.680 
     1.380      2.660      1.680      2.570    -29.373      1.290      1.160 
     1.500      0.209      2.065      2.900      1.420      1.500      1.487 
     1.505      1.443      1.430    210.600    211.900      0.213      0.215 
     0.315    513.965    732.359    449.597 
   525.600 
     0.200    289.301      1.860      2.000      1.710   -348.100      1.650 
     1.380      2.660      1.600      2.520    -29.270      1.275      1.150 
     1.427      0.209      2.039      2.800      1.430      1.427      1.448 
     1.458      1.391      1.378    210.200    211.800      0.213      0.215 
     0.311    513.118    730.972    440.693 
   525.700 
     0.227    291.910      1.870      1.980      1.720   -348.200      1.620 
     1.380      2.650      1.560      2.490    -29.266      1.280      1.160 
     1.405      0.209      2.040      2.800      1.390      1.405      1.413 
     1.414      1.331      1.354    210.900    211.600      0.213      0.215 
     0.324    511.842    729.494    433.868 
