~Version Information
#-------------------
Vers.          2.0: CWLS log ASCII Standart - VERSION 2.0
WRAP.          YES: Multiple lines per depth step
~Well Information Block
#----------------------
#MNEM.UNIT    VALUE: DESCRIPTION
#----.----  -------: -------------
STRT.M           0: First Depth In File
STOP.M       964.2: Last Depth In File
STEP.M         0.1: Depth Increment
NULL.      -999.25: Null Value
COMP.             : Company Name
WELL.          318: Well Name
FLD .     KARATUBE: Field
LOC .             : Location
CTRY.             : Country
SRVC. STEPANOV D.V.: Service Company
DATE.     25/07/05: Date
UWI .             : Unique Well ID
~Parameter Information
#---------------------
#MNEM.UNIT    VALUE: DESCRIPTION
#----.----  -------: ---------------
UPNG.         6085: 
UPGR.          691: 
FD  .G/C3     1.14: Density of hole liquid
GGRD.DC/M    0.033: Geothermal gradient
VELO.M/HR      400: Log velocity
NGGR.         0.11: Factor to sensitivity
~Curve Information Block
#-----------------------
#MNEM.UNIT         : CURVE DESCRIPTION
#----.----         : -----------------
DEPT.M            : Depth column
DEVI.DEG          : deviation
AZIM.DEG          : Azimuth
PZ  .OHMM         : apparent resistance, M11N1A sonde
GZ3 .OHMM         : apparent resistance, A2.0M0.5N sonde
GZ3B.OHMM         : apparent resistance, N0.5M2A sonde
SP  .MV           : Static polarization
LL3 .OHMM         : Laterolog
GZ5 .OHMM         : apparent resistance, A8.0M1.0N sonde
GZ4 .OHMM         : apparent resistance, A4.0M0.5N sonde
GZ1 .OHMM         : apparent resistance, A0.4M0.1N sonde
GZ2 .OHMM         : apparent resistance, A1.0M0.1N sonde
SP  .             : Static polarization
MINV.OHMM         : Mikrogradient Sonde
MNOR.OHMM         : Mikropotential Sonde
MLL .OHMM         : Microlaterolog 
MCAL.M            : Microcaliper
RHOB.G/C3         :  Gamma-Gamma Log Density
GR  .MKR/H        : Gamma ray log
RNGL.C/C          : Neuton Gamma Loging      
Ro05.OHMM         : Resistifity IPD1(0.5m zond)
Ro20.OHMM         : Resistifity IPD5 (2m zond)
Ro14.OHMM         : Resistifity IPD4 (1.4m zond)
Ro10.OHMM         : Resistifity IPD3(1m zond)
Ro07.OHMM         : Resistifity IPD2 (0.7m zond)
CAL1.MM           : Profile1
CAL2.MM           : Profile1
CALI.M            : Caliper
BSC .M            : BS
NGP .DECF         :  Neutron Porosity from NGL
T1  .MKS          : Time of wave run - 1 cannel
T2  .MKS          : Time of wave run - 2 cannel
DTP .MKS/M        : Interval time of run of longitudal wave
~Other Information
#-----------------
~Ascii Log Data
# ...
   198.000 
     0.228    232.232      5.840      8.180      7.350   -314.900      5.070 
     6.100      7.670      2.880      7.310     -2.403      1.155      1.090 
     2.905      0.238      2.029      7.400      1.140      2.905      5.527 
     5.551      4.612      3.741    236.300    224.100      0.231      0.215 
     0.453    593.260    857.396    541.775 
   198.100 
     0.224    234.329      5.730      8.210      7.250   -314.700      5.100 
     6.090      7.690      2.830      7.320     -2.299      1.145      1.080 
     2.869      0.238      2.034      7.200      1.120      2.869      5.516 
     5.521      4.555      3.686    237.300    224.900      0.232      0.215 
     0.463    595.952    860.438    544.358 
   198.200 
     0.219    236.426      5.690      8.260      7.100   -314.600      5.110 
     6.100      7.720      2.790      7.350     -2.496      1.120      1.060 
     2.854      0.237      2.020      7.300      1.110      2.854      5.481 
     5.470      4.507      3.639    236.900    225.300      0.232      0.215 
     0.470    599.228    863.824    546.963 
   198.300 
     0.233    238.724      5.650      8.320      6.970   -314.900      5.090 
     6.110      7.750      2.800      7.400     -2.593      1.090      1.030 
     2.788      0.236      1.996      7.800      1.130      2.788      5.430 
     5.407      4.435      3.559    237.000    226.500      0.233      0.215 
     0.461    602.376    867.211    549.742 
   198.400 
     0.246    241.022      5.650      8.350      6.860   -314.800      5.040 
     6.100      7.770      2.830      7.440     -2.590      1.080      1.020 
     2.728      0.234      1.997      7.800      1.130      2.728      5.390 
     5.335      4.369      3.497    237.600    226.500      0.233      0.215 
     0.461    605.393    872.576    552.522 
   198.500 
     0.255    243.136      5.600      8.370      6.780   -314.900      5.000 
     6.090      7.800      2.870      7.460     -2.686      1.090      1.030 
     2.784      0.232      2.006      7.600      1.110      2.784      5.368 
     5.307      4.385      3.559    239.600    227.400      0.234      0.215 
     0.471    608.366    878.163    556.048 
   198.600 
     0.244    244.517      5.540      8.430      6.680   -315.000      4.920 
     6.070      7.840      2.850      7.450     -2.783      1.090      1.030 
     2.830      0.230      2.002      7.800      1.120      2.830      5.351 
     5.307      4.410      3.611    231.900    227.000      0.230      0.215 
     0.468    611.271    883.361    559.574 
   198.700 
     0.233    245.898      5.460      8.470      6.570   -315.400      4.870 
     6.060      7.880      2.820      7.440     -3.080      1.095      1.040 
     2.837      0.227      1.988      7.700      1.150      2.837      5.318 
     5.247      4.365      3.605    229.800    223.900      0.227      0.215 
     0.451    613.511    888.558    563.870 
   198.800 
     0.226    247.622      5.420      8.490      6.470   -315.600      4.780 
     6.090      7.930      2.760      7.430     -3.377      1.120      1.060 
     2.728      0.222      1.979      7.700      1.140      2.728      5.226 
     5.115      4.209      3.442    227.800    221.300      0.225      0.215 
     0.458    615.088    893.997    568.167 
   198.900 
     0.223    249.689      5.360      8.510      6.370   -315.700      4.740 
     6.130      7.970      2.760      7.390     -3.573      1.155      1.100 
     2.508      0.220      1.994      7.900      1.140      2.508      5.110 
     4.934      4.001      3.215    227.700    224.900      0.227      0.215 
     0.458    616.037    899.461    573.910 
   199.000 
     0.220    251.757      5.270      8.550      6.310   -316.100      4.660 
     6.150      8.000      2.720      7.310     -3.670      1.145      1.090 
     2.359      0.220      2.002      7.900      1.150      2.359      4.954 
     4.734      3.800      3.048    231.900    233.800      0.234      0.215 
     0.450    616.046    903.557    579.816 
   199.100 
     0.216    249.900      5.220      8.590      6.270   -316.200      4.610 
     6.150      8.010      2.670      7.230     -3.667      1.100      1.050 
     2.300      0.219      1.999      7.700      1.180      2.300      4.837 
     4.630      3.731      2.977    237.500    233.400      0.236      0.215 
     0.431    615.564    907.652    585.732 
   199.200 
     0.212    247.063      5.180      8.620      6.270   -316.100      4.540 
     6.160      8.010      2.610      7.160     -3.663      1.070      1.020 
     2.316      0.219      1.995      7.500      1.140      2.316      4.771 
     4.576      3.715      2.984    243.800    233.700      0.240      0.215 
     0.450    614.592    911.808    591.647 
   199.300 
     0.209    244.851      5.110      8.620      6.230   -316.100      4.490 
     6.210      8.030      2.570      7.160     -3.760      0.995      0.960 
     2.278      0.221      2.010      7.600      1.140      2.278      4.725 
     4.550      3.690      2.941    244.900    233.900      0.240      0.215 
     0.451    612.945    915.972    598.886 
   199.400 
     0.213    248.247      5.150      8.650      6.210   -316.000      4.460 
     6.260      8.070      2.580      7.150     -3.657      0.975      0.930 
     2.286      0.224      2.013      7.600      1.130      2.286      4.684 
     4.511      3.648      2.911    242.400    236.200      0.240      0.215 
     0.457    610.625    920.890    606.272 
   199.500 
     0.217    251.643      5.070      8.690      6.190   -316.000      4.400 
     6.300      8.100      2.620      7.160     -3.554      0.975      0.930 
     2.189      0.229      2.002      7.500      1.120      2.189      4.638 
     4.452      3.578      2.813    239.100    236.500      0.239      0.215 
     0.462    607.908    925.809    613.964 
   199.600 
     0.221    253.540      5.000      8.710      6.170   -315.900      4.360 
     6.330      8.120      2.650      7.120     -3.550      0.985      0.940 
     2.106      0.235      2.006      7.700      1.080      2.106      4.590 
     4.381      3.485      2.734    238.400    244.100      0.242      0.215 
     0.477    604.598    930.456    621.656 
   199.700 
     0.224    251.944      4.930      8.720      6.160   -315.800      4.280 
     6.340      8.150      2.630      7.060     -3.547      0.990      0.950 
     2.126      0.237      2.002      7.600      1.060      2.126      4.546 
     4.340      3.482      2.771    236.600    245.400      0.242      0.215 
     0.477    600.843    935.101    631.376 
   199.800 
     0.227    250.348      4.990      8.660      6.160   -315.900      4.230 
     6.360      8.190      2.640      7.020     -3.544      0.960      0.920 
     2.079      0.238      1.999      7.600      1.070      2.079      4.507 
     4.324      3.494      2.780    239.100    247.300      0.244      0.215 
     0.476    596.642    938.265    641.323 
   199.900 
     0.230    248.774      4.970      8.640      6.170   -315.800      4.210 
     6.380      8.220      2.610      6.960     -3.540      0.920      0.890 
     2.106      0.238      1.995      7.700      1.120      2.106      4.481 
     4.328      3.538      2.822    243.400    248.700      0.247      0.215 
     0.461    591.791    941.263    651.537 
   200.000 
     0.234    247.210      4.840      8.620      6.180   -315.800      4.170 
     6.440      8.260      2.590      6.890     -3.337      0.885      0.860 
     2.160      0.237      1.984      8.100      1.120      2.160      4.448 
     4.324      3.596      2.902    232.700    249.800      0.243      0.215 
     0.465    586.289    942.560    661.753 
   200.100 
     0.238    245.646      4.740      8.580      6.200   -315.600      4.130 
     6.490      8.280      2.620      6.860     -3.134      0.915      0.900 
     2.052      0.236      1.987      7.900      1.130      2.052      4.373 
     4.252      3.517      2.794    236.600    234.000      0.237      0.215 
     0.460    587.237    943.856    670.747 
