~Version Information
#-------------------
Vers.          2.0: CWLS log ASCII Standart - VERSION 2.0
WRAP.          YES: Multiple lines per depth step
~Well Information Block
#----------------------
#MNEM.UNIT    VALUE: DESCRIPTION
#----.----  -------: -------------
STRT.M           0: First Depth In File
STOP.M       964.2: Last Depth In File
STEP.M         0.1: Depth Increment
NULL.      -999.25: Null Value
COMP.             : Company Name
WELL.          318: Well Name
FLD .     KARATUBE: Field
LOC .             : Location
CTRY.             : Country
SRVC. STEPANOV D.V.: Service Company
DATE.     25/07/05: Date
UWI .             : Unique Well ID
~Parameter Information
#---------------------
#MNEM.UNIT    VALUE: DESCRIPTION
#----.----  -------: ---------------
UPNG.         6085: 
UPGR.          691: 
FD  .G/C3     1.14: Density of hole liquid
GGRD.DC/M    0.033: Geothermal gradient
VELO.M/HR      400: Log velocity
NGGR.         0.11: Factor to sensitivity
~Curve Information Block
#-----------------------
#MNEM.UNIT         : CURVE DESCRIPTION
#----.----         : -----------------
DEPT.M            : Depth column
DEVI.DEG          : deviation
AZIM.DEG          : Azimuth
PZ  .OHMM         : apparent resistance, M11N1A sonde
GZ3 .OHMM         : apparent resistance, A2.0M0.5N sonde
GZ3B.OHMM         : apparent resistance, N0.5M2A sonde
SP  .MV           : Static polarization
LL3 .OHMM         : Laterolog
GZ5 .OHMM         : apparent resistance, A8.0M1.0N sonde
GZ4 .OHMM         : apparent resistance, A4.0M0.5N sonde
GZ1 .OHMM         : apparent resistance, A0.4M0.1N sonde
GZ2 .OHMM         : apparent resistance, A1.0M0.1N sonde
SP  .             : Static polarization
MINV.OHMM         : Mikrogradient Sonde
MNOR.OHMM         : Mikropotential Sonde
MLL .OHMM         : Microlaterolog 
MCAL.M            : Microcaliper
RHOB.G/C3         :  Gamma-Gamma Log Density
GR  .MKR/H        : Gamma ray log
RNGL.C/C          : Neuton Gamma Loging      
Ro05.OHMM         : Resistifity IPD1(0.5m zond)
Ro20.OHMM         : Resistifity IPD5 (2m zond)
Ro14.OHMM         : Resistifity IPD4 (1.4m zond)
Ro10.OHMM         : Resistifity IPD3(1m zond)
Ro07.OHMM         : Resistifity IPD2 (0.7m zond)
CAL1.MM           : Profile1
CAL2.MM           : Profile1
CALI.M            : Caliper
BSC .M            : BS
NGP .DECF         :  Neutron Porosity from NGL
T1  .MKS          : Time of wave run - 1 cannel
T2  .MKS          : Time of wave run - 2 cannel
DTP .MKS/M        : Interval time of run of longitudal wave
~Other Information
#-----------------
~Ascii Log Data
# ...
   902.000 
     0.384    231.383     11.630     20.210     22.080   -340.400     10.360 
    11.740     17.630      4.270     14.260    -26.797      2.290      1.990 
     7.660      0.211      2.361      3.500      1.670      7.660     14.692 
    14.744     11.494      9.752    211.800    211.500      0.212      0.215 
     0.251    343.666    474.462    273.992 
   902.100 
     0.382    231.413     11.500     20.310     21.930   -339.700     10.120 
    11.870     17.840      4.290     14.300    -26.793      2.020      1.750 
     7.087      0.211      2.366      3.400      1.620      7.087     14.364 
    14.413     11.116      9.290    211.800    212.400      0.213      0.215 
     0.261    346.114    476.401    278.188 
   902.200 
     0.375    230.997     11.480     20.390     21.730   -340.000      9.930 
    12.000     18.040      4.280     14.350    -26.590      2.285      1.980 
     7.028      0.211      2.344      3.400      1.600      7.028     14.119 
    14.265     11.066      9.227    210.800    211.400      0.211      0.215 
     0.267    348.370    478.341    276.484 
   902.300 
     0.367    230.582     11.520     20.480     21.460   -340.800      9.860 
    12.120     18.230      4.210     14.310    -26.387      2.090      1.830 
     6.486      0.211      2.344      3.100      1.640      6.486     13.856 
    14.167     10.741      8.628    211.700    212.500      0.213      0.215 
     0.256    350.335    480.296    273.638 
   902.400 
     0.368    229.997     11.550     20.510     21.190   -340.700      9.720 
    12.240     18.400      4.150     14.200    -26.184      1.930      1.690 
     6.515      0.211      2.341      3.300      1.640      6.515     13.693 
    13.951     10.431      8.383    211.500    211.500      0.212      0.215 
     0.257    351.237    482.253    273.736 
   902.500 
     0.373    229.341     11.470     20.560     20.910   -340.200      9.380 
    12.370     18.560      4.090     14.070    -26.080      1.975      1.730 
     6.545      0.211      2.325      3.300      1.620      6.545     13.488 
    13.693     10.163      8.159    210.900    212.700      0.212      0.215 
     0.261    351.077    483.952    273.870 
   902.600 
     0.376    229.145     11.450     20.550     20.640   -340.800      9.080 
    12.490     18.700      4.080     13.920    -25.977      1.895      1.670 
     6.227      0.211      2.334      3.300      1.610      6.227     13.178 
    13.222      9.644      7.679    211.600    211.600      0.212      0.215 
     0.264    350.668    485.623    274.330 
   902.700 
     0.371    230.786     11.580     20.480     20.430   -341.500      8.800 
    12.600     18.820      4.070     13.760    -25.774      1.900      1.670 
     6.291      0.212      2.338      3.500      1.620      6.291     12.942 
    12.754      9.202      7.474    212.000    211.500      0.212      0.215 
     0.262    349.885    486.004    274.790 
   902.800 
     0.367    232.427     11.560     20.450     20.300   -341.200      8.660 
    12.690     18.940      4.060     13.630    -25.570      1.860      1.640 
     6.333      0.212      2.356      3.400      1.630      6.333     12.796 
    12.390      8.920      7.401    212.000    212.200      0.213      0.215 
     0.259    348.496    486.385    275.491 
   902.900 
     0.359    231.693     11.650     20.420     20.200   -340.900      8.650 
    12.770     19.050      4.010     13.480    -25.567      1.950      1.730 
     6.362      0.211      2.360      3.400      1.600      6.362     12.796 
    12.351      8.860      7.419    212.300    211.900      0.213      0.215 
     0.266    346.501    486.988    276.193 
   903.000 
     0.349    229.379     11.700     20.390     20.070   -341.600      8.700 
    12.840     19.150      4.000     13.320    -25.464      1.895      1.680 
     6.097      0.211      2.349      3.500      1.650      6.097     13.157 
    12.672      8.968      7.410    212.200    212.000      0.213      0.215 
     0.255    344.403    487.617    277.787 
   903.100 
     0.344    228.295     11.940     20.440     19.700   -342.000      8.860 
    12.920     19.220      3.990     13.400    -25.261      1.895      1.680 
     6.478      0.210      2.362      3.500      1.610      6.478     13.927 
    13.809      9.808      8.004    212.600    212.400      0.213      0.215 
     0.264    342.150    488.933    279.480 
   903.200 
     0.362    232.116     12.060     20.550     19.090   -341.500      9.580 
    12.980     19.260      4.090     13.670    -25.057      1.675      1.510 
     7.095      0.209      2.360      3.600      1.640      7.095     15.140 
    14.980     10.757      8.968    212.600    212.000      0.213      0.215 
     0.257    339.969    490.251    282.030 
   903.300 
     0.379    235.936     12.230     20.700     18.290   -342.100     11.270 
    13.040     19.280      4.200     13.930    -24.954      1.605      1.460 
     7.576      0.209      2.369      3.500      1.650      7.576     16.281 
    16.251     11.494      9.497    212.400    210.800      0.212      0.215 
     0.255    337.864    493.271    284.579 
   903.400 
     0.373    236.150     12.360     21.070     17.290   -342.800     13.160 
    13.090     19.310      4.310     14.230    -24.851      1.570      1.430 
     8.190      0.209      2.404      3.500      1.710      8.190     17.326 
    17.260     12.080     10.047    212.700    212.300      0.213      0.215 
     0.241    336.248    496.483    288.091 
   903.500 
     0.357    234.821     12.520     21.630     16.110   -342.400     14.200 
    13.140     19.360      4.460     14.630    -24.748      1.655      1.520 
     9.328      0.209      2.413      3.500      1.690      9.328     18.154 
    17.871     12.734     10.951    212.200    211.600      0.212      0.215 
     0.246    335.367    500.816    291.707 
   903.600 
     0.349    234.187     12.560     22.060     14.860   -342.400     14.810 
    13.170     19.400      4.580     15.050    -24.544      1.495      1.410 
    10.355      0.208      2.421      3.500      1.700     10.355     18.517 
    18.517     13.288     11.547    212.100    211.900      0.213      0.215 
     0.244    334.549    505.149    295.332 
   903.700 
     0.356    235.176     12.530     22.610     13.880   -343.400     15.240 
    13.210     19.520      4.690     15.500    -24.441      1.340      1.300 
    11.184      0.208      2.427      3.500      1.710     11.184     18.854 
    18.969     13.740     12.390    212.300    211.900      0.213      0.215 
     0.242    333.791    496.618    298.959 
   903.800 
     0.364    236.164     12.540     23.130     12.670   -343.200     15.360 
    13.260     19.660      4.780     16.000    -24.338      1.255      1.250 
    11.150      0.207      2.404      3.500      1.720     11.150     18.969 
    19.084     14.046     13.027    212.400    211.800      0.213      0.215 
     0.239    333.579    486.662    301.459 
   903.900 
     0.359    235.957     12.590     23.660     11.550   -342.900     15.200 
    13.300     19.840      4.860     16.480    -24.234      1.310      1.150 
    11.050      0.208      2.405      3.400      1.750     11.050     19.007 
    19.358     14.539     13.693    213.400    212.000      0.213      0.215 
     0.233    333.911    475.489    303.834 
   904.000 
     0.352    235.451     12.460     24.210     10.610   -343.600     15.040 
    13.360     20.040      4.970     17.090    -24.031      1.440      1.250 
    12.331      0.209      2.404      3.300      1.730     12.331     19.007 
    19.842     15.694     15.609    213.500    212.100      0.213      0.215 
     0.237    334.328    464.330    302.174 
   904.100 
     0.344    234.701     12.290     24.770      9.690   -343.400     14.980 
    13.440     20.280      5.030     17.620    -23.928      1.340      1.170 
    13.027      0.209      2.415      3.200      1.750     13.027     18.969 
    20.303     17.129     16.681    211.800    212.900      0.213      0.215 
     0.232    334.875    464.407    300.514 
