~Version Information
#-------------------
Vers.          2.0: CWLS log ASCII Standart - VERSION 2.0
WRAP.          YES: Multiple lines per depth step
~Well Information Block
#----------------------
#MNEM.UNIT    VALUE: DESCRIPTION
#----.----  -------: -------------
STRT.M           0: First Depth In File
STOP.M       964.2: Last Depth In File
STEP.M         0.1: Depth Increment
NULL.      -999.25: Null Value
COMP.             : Company Name
WELL.          318: Well Name
FLD .     KARATUBE: Field
LOC .             : Location
CTRY.             : Country
SRVC. STEPANOV D.V.: Service Company
DATE.     25/07/05: Date
UWI .             : Unique Well ID
~Parameter Information
#---------------------
#MNEM.UNIT    VALUE: DESCRIPTION
#----.----  -------: ---------------
UPNG.         6085: 
UPGR.          691: 
FD  .G/C3     1.14: Density of hole liquid
GGRD.DC/M    0.033: Geothermal gradient
VELO.M/HR      400: Log velocity
NGGR.         0.11: Factor to sensitivity
~Curve Information Block
#-----------------------
#MNEM.UNIT         : CURVE DESCRIPTION
#----.----         : -----------------
DEPT.M            : Depth column
DEVI.DEG          : deviation
AZIM.DEG          : Azimuth
PZ  .OHMM         : apparent resistance, M11N1A sonde
GZ3 .OHMM         : apparent resistance, A2.0M0.5N sonde
GZ3B.OHMM         : apparent resistance, N0.5M2A sonde
SP  .MV           : Static polarization
LL3 .OHMM         : Laterolog
GZ5 .OHMM         : apparent resistance, A8.0M1.0N sonde
GZ4 .OHMM         : apparent resistance, A4.0M0.5N sonde
GZ1 .OHMM         : apparent resistance, A0.4M0.1N sonde
GZ2 .OHMM         : apparent resistance, A1.0M0.1N sonde
SP  .             : Static polarization
MINV.OHMM         : Mikrogradient Sonde
MNOR.OHMM         : Mikropotential Sonde
MLL .OHMM         : Microlaterolog 
MCAL.M            : Microcaliper
RHOB.G/C3         :  Gamma-Gamma Log Density
GR  .MKR/H        : Gamma ray log
RNGL.C/C          : Neuton Gamma Loging      
Ro05.OHMM         : Resistifity IPD1(0.5m zond)
Ro20.OHMM         : Resistifity IPD5 (2m zond)
Ro14.OHMM         : Resistifity IPD4 (1.4m zond)
Ro10.OHMM         : Resistifity IPD3(1m zond)
Ro07.OHMM         : Resistifity IPD2 (0.7m zond)
CAL1.MM           : Profile1
CAL2.MM           : Profile1
CALI.M            : Caliper
BSC .M            : BS
NGP .DECF         :  Neutron Porosity from NGL
T1  .MKS          : Time of wave run - 1 cannel
T2  .MKS          : Time of wave run - 2 cannel
DTP .MKS/M        : Interval time of run of longitudal wave
~Other Information
#-----------------
~Ascii Log Data
# ...
   250.800 
     0.361    344.886      3.720      3.800      4.480   -334.100      3.090 
     3.330      4.280      2.130      4.570    -17.773      0.740      0.910 
     1.983      0.219      1.943      8.600      1.190      1.983      3.319 
     3.249      2.734      2.507    209.400    229.100      0.220      0.215 
     0.438    583.177    866.483    560.955 
   250.900 
     0.353    345.435      3.650      3.890      4.470   -333.800      3.130 
     3.250      4.190      2.100      4.620    -17.570      0.745      0.990 
     1.989      0.218      1.943      8.300      1.170      1.989      3.476 
     3.393      2.807      2.528    208.500    225.800      0.218      0.215 
     0.448    579.509    869.234    564.469 
   251.000 
     0.345    345.983      3.640      4.010      4.450   -333.700      3.200 
     3.180      4.120      2.100      4.650    -17.366      0.835      0.970 
     2.084      0.220      1.958      8.200      1.210      2.084      3.630 
     3.568      2.920      2.616    207.500    222.900      0.216      0.215 
     0.427    571.946    873.127    568.801 
   251.100 
     0.362    346.673      3.620      4.160      4.420   -333.500      3.280 
     3.110      4.050      2.120      4.670    -17.163      0.890      0.880 
     2.095      0.223      1.970      8.300      1.200      2.095      3.784 
     3.705      2.989      2.623    209.000    227.500      0.219      0.215 
     0.431    571.466    877.148    571.564 
   251.200 
     0.380    347.364      3.590      4.290      4.370   -333.400      3.340 
     3.060      4.010      2.110      4.680    -17.060      0.970      0.950 
     2.046      0.226      1.964      8.200      1.190      2.046      3.878 
     3.797      2.991      2.559    215.900    233.500      0.226      0.215 
     0.433    578.071    876.939    574.326 
   251.300 
     0.391    347.737      3.650      4.420      4.290   -333.200      3.380 
     3.010      3.990      2.070      4.670    -16.956      1.125      1.110 
     1.908      0.227      1.964      8.100      1.190      1.908      3.919 
     3.803      2.934      2.447    224.400    226.800      0.227      0.215 
     0.432    586.186    876.729    577.145 
   251.400 
     0.381    346.844      3.650      4.560      4.200   -333.000      3.380 
     2.970      3.960      2.100      4.640    -16.753      1.160      1.160 
     1.719      0.227      1.961      8.400      1.190      1.719      3.912 
     3.774      2.876      2.293    236.500    227.500      0.233      0.215 
     0.431    596.563    876.431    579.964 
   251.500 
     0.371    345.951      3.660      4.660      4.130   -332.600      3.350 
     2.930      3.940      2.110      4.630    -16.550      1.055      1.070 
     1.632      0.227      1.948      8.400      1.190      1.632      3.923 
     3.817      2.936      2.297    249.300    231.300      0.242      0.215 
     0.428    600.382    876.133    581.869 
   251.600 
     0.367    345.605      3.610      4.770      4.080   -332.400      3.290 
     2.880      3.920      2.120      4.650    -16.347      1.090      1.120 
     1.944      0.227      1.945      8.500      1.160      1.944      3.958 
     4.022      3.241      2.629    252.500    226.100      0.241      0.215 
     0.445    597.641    876.127    583.672 
   251.700 
     0.367    345.624      3.490      4.920      4.000   -332.400      3.220 
     2.840      3.900      2.150      4.700    -16.243      1.115      1.100 
     2.116      0.228      1.943      8.600      1.200      2.116      3.947 
     4.163      3.562      2.909    205.800    230.700      0.220      0.215 
     0.433    594.878    876.153    582.676 
   251.800 
     0.367    345.642      3.440      5.000      3.960   -332.300      3.160 
     2.810      3.880      2.140      4.690    -16.040      1.230      1.210 
     1.947      0.229      1.947      8.600      1.170      1.947      3.827 
     4.011      3.357      2.712    204.100    235.000      0.221      0.215 
     0.449    592.065    877.083    581.680 
   251.900 
     0.373    344.118      3.400      5.060      3.920   -332.000      3.090 
     2.780      3.870      2.120      4.630    -15.937      1.155      1.150 
     1.704      0.229      1.947      8.700      1.160      1.704      3.627 
     3.658      2.984      2.401    205.200    232.600      0.220      0.215 
     0.455    596.363    878.013    573.366 
   252.000 
     0.380    342.594      3.400      5.070      3.880   -331.900      2.980 
     2.760      3.870      2.090      4.570    -15.834      0.850      0.860 
     1.811      0.228      1.939      8.900      1.170      1.811      3.302 
     3.313      2.755      2.328    208.300    246.600      0.229      0.215 
     0.447    607.776    879.994    565.051 
   252.100 
     0.383    341.382      3.410      5.050      3.870   -331.800      2.870 
     2.740      3.860      2.040      4.510    -15.830      0.770      0.780 
     1.501      0.224      1.944      9.100      1.180      1.501      3.087 
     3.099      2.510      1.992    196.000    251.300      0.226      0.215 
     0.445    615.080    882.237    558.639 
   252.200 
     0.375    341.417      3.410      4.980      3.900   -331.700      2.740 
     2.730      3.850      1.970      4.420    -15.827      0.805      0.840 
     1.438      0.218      1.941      9.300      1.110      1.438      2.984 
     2.964      2.356      1.895    196.900    256.700      0.229      0.215 
     0.483    616.219    882.762    552.439 
   252.300 
     0.368    341.452      3.350      4.910      3.930   -331.700      2.650 
     2.710      3.840      1.910      4.320    -15.724      0.860      0.850 
     1.444      0.214      1.954      9.500      1.160      1.444      2.957 
     2.991      2.394      1.954    198.400    240.700      0.221      0.215 
     0.461    617.001    883.287    553.253 
   252.400 
     0.366    341.459      3.310      4.850      3.980   -331.800      2.640 
     2.690      3.830      1.950      4.340    -15.720      0.920      0.910 
     1.505      0.213      1.970      9.600      1.160      1.505      3.017 
     3.114      2.492      2.073    200.000    240.400      0.221      0.215 
     0.461    617.248    883.636    554.068 
   252.500 
     0.374    341.425      3.210      4.800      4.030   -331.800      2.680 
     2.670      3.810      1.980      4.350    -15.617      1.000      0.990 
     1.632      0.216      1.975      9.600      1.150      1.632      3.084 
     3.223      2.591      2.199    200.800    214.700      0.209      0.215 
     0.473    617.255    883.966    551.883 
   252.600 
     0.382    341.391      3.180      4.750      4.060   -331.800      2.730 
     2.640      3.800      1.970      4.270    -15.514      1.030      1.020 
     1.454      0.220      1.973      9.200      1.190      1.454      3.116 
     3.202      2.507      2.041    200.700    218.500      0.211      0.215 
     0.447    617.102    883.506    548.949 
   252.700 
     0.369    342.820      3.160      4.700      4.080   -331.900      2.790 
     2.620      3.800      1.930      4.180    -15.611      0.975      0.970 
     1.432      0.223      1.962      8.800      1.210      1.432      3.119 
     3.144      2.447      2.040    200.100    231.400      0.217      0.215 
     0.431    616.659    882.990    540.926 
   252.800 
     0.346    344.877      3.180      4.670      4.090   -331.800      2.790 
     2.590      3.810      1.940      4.150    -15.507      0.950      0.950 
     1.603      0.222      1.956      8.600      1.210      1.603      3.094 
     3.082      2.535      2.200    201.500    239.800      0.222      0.215 
     0.427    615.927    882.759    532.902 
   252.900 
     0.324    346.933      3.150      4.590      4.110   -331.700      2.780 
     2.560      3.790      1.960      4.110    -15.604      0.915      0.920 
     1.654      0.220      1.951      8.900      1.200      1.654      3.029 
     3.046      2.539      2.212    201.700    238.600      0.221      0.215 
     0.434    615.260    882.527    530.918 
