~Version Information
#-------------------
Vers.          2.0: CWLS log ASCII Standart - VERSION 2.0
WRAP.          YES: Multiple lines per depth step
~Well Information Block
#----------------------
#MNEM.UNIT    VALUE: DESCRIPTION
#----.----  -------: -------------
STRT.M           0: First Depth In File
STOP.M       964.2: Last Depth In File
STEP.M         0.1: Depth Increment
NULL.      -999.25: Null Value
COMP.             : Company Name
WELL.          318: Well Name
FLD .     KARATUBE: Field
LOC .             : Location
CTRY.             : Country
SRVC. STEPANOV D.V.: Service Company
DATE.     25/07/05: Date
UWI .             : Unique Well ID
~Parameter Information
#---------------------
#MNEM.UNIT    VALUE: DESCRIPTION
#----.----  -------: ---------------
UPNG.         6085: 
UPGR.          691: 
FD  .G/C3     1.14: Density of hole liquid
GGRD.DC/M    0.033: Geothermal gradient
VELO.M/HR      400: Log velocity
NGGR.         0.11: Factor to sensitivity
~Curve Information Block
#-----------------------
#MNEM.UNIT         : CURVE DESCRIPTION
#----.----         : -----------------
DEPT.M            : Depth column
DEVI.DEG          : deviation
AZIM.DEG          : Azimuth
PZ  .OHMM         : apparent resistance, M11N1A sonde
GZ3 .OHMM         : apparent resistance, A2.0M0.5N sonde
GZ3B.OHMM         : apparent resistance, N0.5M2A sonde
SP  .MV           : Static polarization
LL3 .OHMM         : Laterolog
GZ5 .OHMM         : apparent resistance, A8.0M1.0N sonde
GZ4 .OHMM         : apparent resistance, A4.0M0.5N sonde
GZ1 .OHMM         : apparent resistance, A0.4M0.1N sonde
GZ2 .OHMM         : apparent resistance, A1.0M0.1N sonde
SP  .             : Static polarization
MINV.OHMM         : Mikrogradient Sonde
MNOR.OHMM         : Mikropotential Sonde
MLL .OHMM         : Microlaterolog 
MCAL.M            : Microcaliper
RHOB.G/C3         :  Gamma-Gamma Log Density
GR  .MKR/H        : Gamma ray log
RNGL.C/C          : Neuton Gamma Loging      
Ro05.OHMM         : Resistifity IPD1(0.5m zond)
Ro20.OHMM         : Resistifity IPD5 (2m zond)
Ro14.OHMM         : Resistifity IPD4 (1.4m zond)
Ro10.OHMM         : Resistifity IPD3(1m zond)
Ro07.OHMM         : Resistifity IPD2 (0.7m zond)
CAL1.MM           : Profile1
CAL2.MM           : Profile1
CALI.M            : Caliper
BSC .M            : BS
NGP .DECF         :  Neutron Porosity from NGL
T1  .MKS          : Time of wave run - 1 cannel
T2  .MKS          : Time of wave run - 2 cannel
DTP .MKS/M        : Interval time of run of longitudal wave
~Other Information
#-----------------
~Ascii Log Data
# ...
   413.600 
     0.343    197.394      2.960      3.460      4.020   -343.000      2.450 
     2.040      3.070      2.060      4.150    -25.639      1.295      1.170 
     2.083      0.217      2.026     10.500      1.230      2.083      2.541 
     2.606      2.416      2.330    213.200    217.800      0.217      0.215 
     0.431    533.047    784.590    497.342 
   413.700 
     0.351    197.288      2.960      3.450      4.030   -342.700      2.430 
     2.060      3.090      2.070      4.110    -25.436      1.245      1.140 
     2.006      0.217      2.034     10.600      1.230      2.006      2.541 
     2.591      2.391      2.265    213.400    218.300      0.217      0.215 
     0.432    533.727    771.683    498.405 
   413.800 
     0.374    194.185      2.960      3.440      4.040   -342.400      2.430 
     2.070      3.100      2.130      4.100    -25.233      1.255      1.140 
     1.920      0.217      2.024     10.500      1.250      1.920      2.526 
     2.554      2.354      2.209    213.500    217.500      0.217      0.215 
     0.421    534.114    771.608    499.306 
   413.900 
     0.397    191.082      2.940      3.460      4.060   -342.000      2.410 
     2.090      3.100      2.160      4.080    -25.129      1.250      1.140 
     1.872      0.217      2.024     10.800      1.240      1.872      2.516 
     2.528      2.338      2.161    215.200    218.700      0.218      0.215 
     0.427    534.590    771.534    496.582 
   414.000 
     0.381    193.624      2.940      3.470      4.130   -341.700      2.380 
     2.110      3.110      2.140      4.010    -25.026      1.185      1.090 
     1.834      0.217      2.017     10.800      1.210      1.834      2.512 
     2.539      2.328      2.121    215.600    218.500      0.218      0.215 
     0.443    535.198    770.978    493.858 
   414.100 
     0.362    196.794      2.880      3.490      4.220   -341.500      2.350 
     2.120      3.110      2.070      3.920    -25.123      1.170      1.070 
     1.838      0.219      2.022     10.300      1.210      1.838      2.535 
     2.589      2.354      2.126    215.200    218.500      0.218      0.215 
     0.440    535.443    770.369    485.068 
   414.200 
     0.347    198.988      2.920      3.480      4.260   -341.700      2.340 
     2.130      3.110      2.100      3.910    -25.519      1.215      1.110 
     1.878      0.219      2.011      9.800      1.190      1.878      2.582 
     2.664      2.424      2.184    213.100    217.700      0.217      0.215 
     0.448    535.327    770.380    475.604 
   414.300 
     0.351    197.284      2.920      3.480      4.300   -342.000      2.360 
     2.140      3.120      2.080      3.900    -26.016      1.280      1.170 
     1.953      0.218      2.006      9.400      1.190      1.953      2.627 
     2.750      2.528      2.270    214.800    215.400      0.216      0.215 
     0.445    534.972    770.460    474.597 
   414.400 
     0.355    195.579      2.980      3.480      4.320   -342.500      2.400 
     2.160      3.120      2.110      3.890    -26.613      1.385      1.260 
     2.033      0.218      2.006      8.700      1.160      2.033      2.676 
     2.820      2.599      2.338    214.600    214.500      0.216      0.215 
     0.457    534.261    770.099    473.590 
   414.500 
     0.354    194.694      3.050      3.480      4.350   -343.300      2.460 
     2.170      3.130      2.170      3.940    -27.310      1.335      1.220 
     2.019      0.217      2.006      8.600      1.190      2.019      2.708 
     2.841      2.610      2.341    214.200    214.200      0.215      0.215 
     0.440    533.647    769.738    472.953 
   414.600 
     0.346    194.627      3.050      3.470      4.380   -344.100      2.530 
     2.180      3.140      2.190      3.930    -28.006      1.305      1.190 
     2.084      0.215      1.995      8.500      1.210      2.084      2.714 
     2.841      2.627      2.401    213.500    213.500      0.215      0.215 
     0.430    533.131    770.098    472.356 
   414.700 
     0.339    194.560      3.020      3.440      4.410   -345.100      2.570 
     2.200      3.160      2.210      3.970    -28.803      1.285      1.160 
     2.184      0.214      1.973      8.600      1.210      2.184      2.710 
     2.845      2.656      2.471    213.600    213.400      0.215      0.215 
     0.430    532.242    770.539    472.384 
   414.800 
     0.343    195.174      3.020      3.410      4.410   -345.900      2.600 
     2.210      3.170      2.200      3.970    -29.400      1.285      1.180 
     2.292      0.214      1.961      8.500      1.220      2.292      2.704 
     2.839      2.664      2.552    213.400    212.800      0.214      0.215 
     0.425    530.980    770.180    472.481 
   414.900 
     0.351    195.959      3.070      3.370      4.400   -346.800      2.640 
     2.220      3.170      2.190      3.980    -29.997      1.295      1.190 
     2.351      0.213      1.971      8.500      1.220      2.351      2.692 
     2.820      2.647      2.572    213.500    213.300      0.215      0.215 
     0.425    529.899    769.820    473.082 
   415.000 
     0.357    196.314      3.050      3.340      4.360   -347.500      2.670 
     2.230      3.170      2.210      3.980    -30.193      1.255      1.150 
     2.399      0.213      1.971      8.700      1.280      2.399      2.686 
     2.788      2.610      2.576    213.100    213.000      0.214      0.215 
     0.397    529.000    768.791    473.684 
   415.100 
     0.352    194.952      3.030      3.330      4.350   -347.800      2.690 
     2.240      3.170      2.220      4.030    -30.190      1.255      1.140 
     2.534      0.213      1.970      8.600      1.250      2.534      2.668 
     2.765      2.612      2.645    213.400    212.600      0.214      0.215 
     0.411    528.371    767.761    474.877 
   415.200 
     0.348    193.590      3.160      3.320      4.320   -347.600      2.720 
     2.260      3.170      2.260      4.090    -30.087      1.300      1.180 
     2.591      0.213      1.993      8.900      1.220      2.591      2.656 
     2.748      2.610      2.660    213.400    212.600      0.214      0.215 
     0.427    528.014    766.717    476.135 
   415.300 
     0.344    193.706      3.210      3.310      4.270   -347.500      2.730 
     2.280      3.160      2.300      4.100    -29.783      1.290      1.170 
     2.525      0.213      1.998      8.900      1.210      2.525      2.645 
     2.718      2.554      2.587    213.300    212.700      0.214      0.215 
     0.432    527.815    765.673    476.841 
   415.400 
     0.341    195.298      3.190      3.310      4.200   -346.900      2.740 
     2.290      3.170      2.280      4.150    -29.280      1.305      1.180 
     2.508      0.213      2.005      8.800      1.210      2.508      2.631 
     2.686      2.517      2.543    212.900    212.700      0.214      0.215 
     0.432    527.775    766.085    477.547 
   415.500 
     0.338    196.890      3.270      3.310      4.090   -346.600      2.720 
     2.300      3.160      2.260      4.200    -28.877      1.345      1.220 
     2.436      0.213      2.022      8.800      1.180      2.436      2.608 
     2.664      2.496      2.501    213.400    213.600      0.215      0.215 
     0.447    527.960    766.497    478.447 
   415.600 
     0.343    195.697      3.290      3.320      3.960   -346.100      2.690 
     2.300      3.150      2.270      4.270    -28.674      1.330      1.220 
     2.354      0.213      2.020      8.900      1.160      2.354      2.587 
     2.633      2.452      2.452    213.800    213.800      0.215      0.215 
     0.459    528.372    767.112    479.346 
   415.700 
     0.350    193.808      3.270      3.310      3.850   -345.900      2.660 
     2.300      3.140      2.250      4.240    -28.370      1.310      1.200 
     2.303      0.213      2.020      8.900      1.190      2.303      2.569 
     2.608      2.426      2.414    213.300    213.500      0.215      0.215 
     0.443    528.683    767.727    480.460 
