~Version Information
#-------------------
Vers.          2.0: CWLS log ASCII Standart - VERSION 2.0
WRAP.          YES: Multiple lines per depth step
~Well Information Block
#----------------------
#MNEM.UNIT    VALUE: DESCRIPTION
#----.----  -------: -------------
STRT.M           0: First Depth In File
STOP.M       964.2: Last Depth In File
STEP.M         0.1: Depth Increment
NULL.      -999.25: Null Value
COMP.             : Company Name
WELL.          318: Well Name
FLD .     KARATUBE: Field
LOC .             : Location
CTRY.             : Country
SRVC. STEPANOV D.V.: Service Company
DATE.     25/07/05: Date
UWI .             : Unique Well ID
~Parameter Information
#---------------------
#MNEM.UNIT    VALUE: DESCRIPTION
#----.----  -------: ---------------
UPNG.         6085: 
UPGR.          691: 
FD  .G/C3     1.14: Density of hole liquid
GGRD.DC/M    0.033: Geothermal gradient
VELO.M/HR      400: Log velocity
NGGR.         0.11: Factor to sensitivity
~Curve Information Block
#-----------------------
#MNEM.UNIT         : CURVE DESCRIPTION
#----.----         : -----------------
DEPT.M            : Depth column
DEVI.DEG          : deviation
AZIM.DEG          : Azimuth
PZ  .OHMM         : apparent resistance, M11N1A sonde
GZ3 .OHMM         : apparent resistance, A2.0M0.5N sonde
GZ3B.OHMM         : apparent resistance, N0.5M2A sonde
SP  .MV           : Static polarization
LL3 .OHMM         : Laterolog
GZ5 .OHMM         : apparent resistance, A8.0M1.0N sonde
GZ4 .OHMM         : apparent resistance, A4.0M0.5N sonde
GZ1 .OHMM         : apparent resistance, A0.4M0.1N sonde
GZ2 .OHMM         : apparent resistance, A1.0M0.1N sonde
SP  .             : Static polarization
MINV.OHMM         : Mikrogradient Sonde
MNOR.OHMM         : Mikropotential Sonde
MLL .OHMM         : Microlaterolog 
MCAL.M            : Microcaliper
RHOB.G/C3         :  Gamma-Gamma Log Density
GR  .MKR/H        : Gamma ray log
RNGL.C/C          : Neuton Gamma Loging      
Ro05.OHMM         : Resistifity IPD1(0.5m zond)
Ro20.OHMM         : Resistifity IPD5 (2m zond)
Ro14.OHMM         : Resistifity IPD4 (1.4m zond)
Ro10.OHMM         : Resistifity IPD3(1m zond)
Ro07.OHMM         : Resistifity IPD2 (0.7m zond)
CAL1.MM           : Profile1
CAL2.MM           : Profile1
CALI.M            : Caliper
BSC .M            : BS
NGP .DECF         :  Neutron Porosity from NGL
T1  .MKS          : Time of wave run - 1 cannel
T2  .MKS          : Time of wave run - 2 cannel
DTP .MKS/M        : Interval time of run of longitudal wave
~Other Information
#-----------------
~Ascii Log Data
# ...
   143.000 
     0.105     18.303     -0.080     -0.050      0.040   -369.600      1.010 
  -999.250     24.390      0.040      0.020    691.094   -999.250   -999.250 
  -999.250   -999.250   -999.250      3.400      0.870   -999.250   -999.250 
  -999.250   -999.250   -999.250   -999.250   -999.250   -999.250      0.215 
     0.495    373.725   -999.250   -999.250 
   143.100 
     0.098     19.051     -0.090     -0.040      0.040   -368.100      0.980 
  -999.250     19.870     -0.010      0.020    691.737   -999.250   -999.250 
  -999.250   -999.250   -999.250      3.500      0.890   -999.250   -999.250 
  -999.250   -999.250   -999.250   -999.250   -999.250   -999.250      0.215 
     0.495    368.577   -999.250   -999.250 
   143.200 
     0.092     19.799     -0.130     -0.040      0.040   -366.900      1.010 
  -999.250     16.390      0.000      0.010    692.080   -999.250   -999.250 
  -999.250   -999.250   -999.250      3.500      0.860   -999.250   -999.250 
  -999.250   -999.250   -999.250   -999.250   -999.250   -999.250      0.215 
     0.495    360.727    456.556   -999.250 
   143.300 
     0.099    118.134     -0.040     -0.010      0.030   -362.100      1.030 
  -999.250     13.160      0.020     -0.010    691.023   -999.250   -999.250 
  -999.250   -999.250   -999.250      3.500      0.880   -999.250   -999.250 
  -999.250   -999.250   -999.250   -999.250   -999.250   -999.250      0.215 
     0.495    351.501    451.830   -999.250 
   143.400 
     0.110    240.829      0.020      0.000      0.030   -362.600      1.060 
  -999.250     10.400      0.030     -0.010    690.567   -999.250   -999.250 
  -999.250   -999.250   -999.250      3.400      0.910   -999.250   -999.250 
  -999.250   -999.250   -999.250   -999.250   -999.250   -999.250      0.215 
     0.495    340.902    444.675   -999.250 
   143.500 
     0.119    339.378      0.030      0.000      0.030   -362.100      1.110 
  -999.250      8.240      0.050     -0.010    690.910   -999.250   -999.250 
  -999.250   -999.250   -999.250      3.500      0.920   -999.250   -999.250 
  -999.250   -999.250   -999.250   -999.250   -999.250   -999.250      0.215 
     0.495    332.729    437.250   -999.250 
   143.600 
     0.109    221.046     -0.030      0.010      0.020   -363.700      1.160 
  -999.250      6.540      0.040      0.010    690.253   -999.250   -999.250 
  -999.250   -999.250   -999.250      3.500      0.930   -999.250   -999.250 
  -999.250   -999.250   -999.250   -999.250   -999.250   -999.250      0.215 
     0.495    328.203    427.223   -999.250 
   143.700 
     0.098    102.697     -0.050      0.030      0.010   -359.600      1.210 
    29.910      5.370      0.080      0.040    689.396   -999.250   -999.250 
  -999.250   -999.250   -999.250      3.300      0.920   -999.250   -999.250 
  -999.250   -999.250   -999.250   -999.250   -999.250   -999.250      0.215 
     0.495    324.994    417.197    162.879 
   143.800 
     0.093     54.574     -0.130      0.040      0.000   -358.400      1.250 
    17.350      4.330      0.110      0.060    689.839   -999.250   -999.250 
  -999.250   -999.250   -999.250      3.400      0.930   -999.250   -999.250 
  -999.250   -999.250   -999.250   -999.250   -999.250   -999.250      0.215 
     0.495    323.104    412.972    162.493 
   143.900 
     0.104    170.200     -0.150      0.050      0.010   -358.100      1.300 
    15.590      3.530      0.140      0.060    690.082   -999.250   -999.250 
  -999.250   -999.250   -999.250      3.300      0.910   -999.250   -999.250 
  -999.250   -999.250   -999.250   -999.250   -999.250   -999.250      0.215 
     0.495    322.173    409.393    163.194 
   144.000 
     0.114    285.844     -0.090      0.020      0.010   -356.400      1.390 
    13.580      2.870      0.130      0.070    690.225   -999.250   -999.250 
  -999.250   -999.250   -999.250      3.400      0.900   -999.250   -999.250 
  -999.250   -999.250   -999.250   -999.250   -999.250   -999.250      0.215 
     0.495    322.684    407.842    164.017 
   144.100 
     0.118    306.534     -0.080      0.010      0.020   -353.900      1.450 
    11.730      2.320      0.160      0.060    689.669   -999.250   -999.250 
  -999.250   -999.250   -999.250      3.400      0.900   -999.250   -999.250 
  -999.250   -999.250   -999.250   -999.250   -999.250   -999.250      0.215 
     0.495    323.049    406.292    164.749 
   144.200 
     0.112    184.873     -0.080     -0.010      0.030   -352.000      1.480 
    12.120      1.910      0.160      0.050    688.312   -999.250   -999.250 
  -999.250   -999.250   -999.250      3.500      0.880   -999.250   -999.250 
  -999.250   -999.250   -999.250   -999.250   -999.250   -999.250      0.215 
     0.495    323.269    406.169    165.482 
   144.300 
     0.107     63.213     -0.040     -0.010      0.040   -351.800      1.510 
    13.630      1.610      0.130      0.040    -12.945   -999.250   -999.250 
  -999.250   -999.250   -999.250      3.500      0.900   -999.250   -999.250 
  -999.250   -999.250   -999.250   -999.250   -999.250   -999.250      0.215 
     0.495    323.539    406.205    166.079 
   144.400 
     0.109     26.369     -0.100     -0.020      0.030   -351.200      1.580 
    14.090      1.360      0.090      0.030    -12.602   -999.250   -999.250 
  -999.250   -999.250   -999.250      3.500      0.930   -999.250   -999.250 
  -999.250   -999.250   -999.250   -999.250   -999.250   -999.250      0.215 
     0.495    323.885    406.253    166.662 
   144.500 
     0.115     25.843     -0.120     -0.020      0.040   -350.800      1.610 
    15.600      1.200      0.090      0.030    -12.359   -999.250   -999.250 
  -999.250   -999.250   -999.250      3.500      0.950   -999.250   -999.250 
  -999.250   -999.250   -999.250   -999.250   -999.250   -999.250      0.215 
     0.495    324.101    406.301    166.605 
   144.600 
     0.121     25.337     -0.110     -0.010      0.030   -350.400      1.730 
    17.520      1.050      0.100      0.050    -12.016   -999.250   -999.250 
  -999.250   -999.250   -999.250      3.400      0.930   -999.250   -999.250 
  -999.250   -999.250   -999.250   -999.250   -999.250   -999.250      0.215 
     0.495    324.125    406.373    166.548 
   144.700 
     0.124    148.120     -0.120     -0.020      0.030   -349.800      1.710 
    18.440      0.920      0.100      0.060    -11.673   -999.250   -999.250 
  -999.250   -999.250   -999.250      3.200      0.960   -999.250   -999.250 
  -999.250   -999.250   -999.250   -999.250   -999.250   -999.250      0.215 
     0.495    324.154    406.449    166.124 
   144.800 
     0.126    270.903     -0.140     -0.010      0.030   -349.100      1.660 
    17.560      0.800      0.080      0.060    -11.329   -999.250   -999.250 
  -999.250   -999.250   -999.250      3.300      0.940   -999.250   -999.250 
  -999.250   -999.250   -999.250   -999.250   -999.250   -999.250      0.215 
     0.495    324.187    406.562    165.659 
   144.900 
     0.128    319.599     -0.140      0.010      0.020   -348.400      1.790 
    16.750      0.720      0.050      0.070    -10.886   -999.250   -999.250 
  -999.250   -999.250   -999.250      3.400      0.940   -999.250   -999.250 
  -999.250   -999.250   -999.250   -999.250   -999.250   -999.250      0.215 
     0.495    324.228    406.681    165.455 
   145.000 
     0.128    195.587     -0.140      0.030      0.020   -347.600      1.930 
    15.700      0.650      0.000      0.080    -10.443   -999.250   -999.250 
  -999.250   -999.250   -999.250      3.400      0.930   -999.250   -999.250 
  -999.250   -999.250   -999.250   -999.250   -999.250   -999.250      0.215 
     0.495    324.276    406.848    165.250 
   145.100 
     0.128     71.595     -0.070      0.020      0.020   -346.700      2.020 
    16.360      0.620     -0.010      0.090    -10.000   -999.250   -999.250 
  -999.250   -999.250   -999.250      3.400      0.950   -999.250   -999.250 
  -999.250   -999.250   -999.250   -999.250   -999.250   -999.250      0.215 
     0.495    324.335    407.016    165.102 
