~Version Information
#-------------------
Vers.          2.0: CWLS log ASCII Standart - VERSION 2.0
WRAP.          YES: Multiple lines per depth step
~Well Information Block
#----------------------
#MNEM.UNIT    VALUE: DESCRIPTION
#----.----  -------: -------------
STRT.M           0: First Depth In File
STOP.M       964.2: Last Depth In File
STEP.M         0.1: Depth Increment
NULL.      -999.25: Null Value
COMP.             : Company Name
WELL.          318: Well Name
FLD .     KARATUBE: Field
LOC .             : Location
CTRY.             : Country
SRVC. STEPANOV D.V.: Service Company
DATE.     25/07/05: Date
UWI .             : Unique Well ID
~Parameter Information
#---------------------
#MNEM.UNIT    VALUE: DESCRIPTION
#----.----  -------: ---------------
UPNG.         6085: 
UPGR.          691: 
FD  .G/C3     1.14: Density of hole liquid
GGRD.DC/M    0.033: Geothermal gradient
VELO.M/HR      400: Log velocity
NGGR.         0.11: Factor to sensitivity
~Curve Information Block
#-----------------------
#MNEM.UNIT         : CURVE DESCRIPTION
#----.----         : -----------------
DEPT.M            : Depth column
DEVI.DEG          : deviation
AZIM.DEG          : Azimuth
PZ  .OHMM         : apparent resistance, M11N1A sonde
GZ3 .OHMM         : apparent resistance, A2.0M0.5N sonde
GZ3B.OHMM         : apparent resistance, N0.5M2A sonde
SP  .MV           : Static polarization
LL3 .OHMM         : Laterolog
GZ5 .OHMM         : apparent resistance, A8.0M1.0N sonde
GZ4 .OHMM         : apparent resistance, A4.0M0.5N sonde
GZ1 .OHMM         : apparent resistance, A0.4M0.1N sonde
GZ2 .OHMM         : apparent resistance, A1.0M0.1N sonde
SP  .             : Static polarization
MINV.OHMM         : Mikrogradient Sonde
MNOR.OHMM         : Mikropotential Sonde
MLL .OHMM         : Microlaterolog 
MCAL.M            : Microcaliper
RHOB.G/C3         :  Gamma-Gamma Log Density
GR  .MKR/H        : Gamma ray log
RNGL.C/C          : Neuton Gamma Loging      
Ro05.OHMM         : Resistifity IPD1(0.5m zond)
Ro20.OHMM         : Resistifity IPD5 (2m zond)
Ro14.OHMM         : Resistifity IPD4 (1.4m zond)
Ro10.OHMM         : Resistifity IPD3(1m zond)
Ro07.OHMM         : Resistifity IPD2 (0.7m zond)
CAL1.MM           : Profile1
CAL2.MM           : Profile1
CALI.M            : Caliper
BSC .M            : BS
NGP .DECF         :  Neutron Porosity from NGL
T1  .MKS          : Time of wave run - 1 cannel
T2  .MKS          : Time of wave run - 2 cannel
DTP .MKS/M        : Interval time of run of longitudal wave
~Other Information
#-----------------
~Ascii Log Data
# ...
   686.400 
     0.050     31.259      3.110      3.520      2.160   -342.400      2.590 
     2.680      3.360      2.630      4.460    -36.400      1.310      1.240 
     3.151      0.208      2.143      9.000      1.280      3.151      2.102 
     2.019      1.888      2.287    211.600    209.200      0.212      0.215 
     0.400    486.469    687.135    400.283 
   686.500 
     0.058     31.658      3.010      3.530      2.170   -342.500      2.520 
     2.620      3.310      2.590      4.490    -36.210      1.335      1.270 
     3.136      0.208      2.151      9.200      1.320      3.136      2.046 
     1.988      1.859      2.245    212.300    209.400      0.213      0.215 
     0.383    485.728    686.430    400.043 
   686.600 
     0.076     19.111      2.970      3.520      2.180   -342.600      2.420 
     2.560      3.250      2.560      4.500    -36.121      1.385      1.310 
     3.116      0.207      2.174      9.100      1.290      3.116      1.993 
     1.958      1.830      2.211    212.000    208.200      0.212      0.215 
     0.396    484.794    685.725    399.530 
   686.700 
     0.095      6.572      2.810      3.510      2.170   -342.700      2.330 
     2.490      3.210      2.510      4.510    -36.031      1.435      1.360 
     3.215      0.207      2.170      9.400      1.280      3.215      1.932 
     1.944      1.836      2.267    212.000    208.600      0.212      0.215 
     0.402    483.571    684.722    399.017 
   686.800 
     0.086    114.818      2.850      3.500      2.180   -342.600      2.270 
     2.430      3.160      2.480      4.520    -36.142      1.410      1.340 
     3.338      0.207      2.172      9.500      1.260      3.338      1.889 
     1.930      1.856      2.353    212.600    209.000      0.213      0.215 
     0.412    482.396    683.719    398.479 
   686.900 
     0.069    253.276      2.840      3.470      2.190   -342.500      2.210 
     2.380      3.110      2.400      4.430    -36.052      1.400      1.330 
     3.338      0.207      2.202      9.500      1.250      3.338      1.836 
     1.892      1.840      2.377    210.800    208.600      0.212      0.215 
     0.417    481.267    682.596    397.940 
   687.000 
     0.064    350.461      2.770      3.370      2.220   -342.500      2.140 
     2.320      3.070      2.400      4.310    -36.063      1.385      1.320 
     3.226      0.207      2.221      9.700      1.270      3.226      1.778 
     1.841      1.797      2.341    210.800    209.700      0.212      0.215 
     0.409    480.204    681.461    397.476 
   687.100 
     0.084    351.710      2.720      3.240      2.240   -342.500      2.090 
     2.270      3.010      2.370      4.200    -35.973      1.340      1.270 
     3.164      0.207      2.230      9.800      1.250      3.164      1.720 
     1.776      1.761      2.332    210.600    209.200      0.212      0.215 
     0.419    479.291    680.445    397.011 
   687.200 
     0.103    352.957      2.650      3.120      2.300   -342.500      2.070 
     2.210      2.960      2.360      4.110    -35.884      1.330      1.260 
     3.067      0.207      2.219     10.200      1.200      3.067      1.671 
     1.726      1.728      2.312    211.200    209.800      0.212      0.215 
     0.447    478.422    679.429    396.833 
   687.300 
     0.103    253.761      2.620      3.030      2.370   -342.500      2.050 
     2.150      2.910      2.360      4.020    -35.694      1.330      1.260 
     2.989      0.206      2.220     10.000      1.220      2.989      1.631 
     1.684      1.714      2.306    209.700    210.500      0.212      0.215 
     0.435    477.620    678.236    396.655 
   687.400 
     0.098    129.436      2.530      2.920      2.440   -342.600      2.020 
     2.100      2.860      2.330      3.940    -35.605      1.320      1.260 
     2.918      0.205      2.229      9.700      1.260      2.918      1.600 
     1.648      1.712      2.300    210.200    210.100      0.212      0.215 
     0.413    476.682    676.998    396.630 
   687.500 
     0.094     17.652      2.580      2.830      2.470   -342.700      2.010 
     2.050      2.820      2.330      3.850    -35.515      1.245      1.190 
     2.848      0.205      2.238      9.800      1.300      2.848      1.572 
     1.618      1.704      2.256    210.700    211.000      0.213      0.215 
     0.395    475.542    676.182    396.621 
   687.600 
     0.094     17.897      2.630      2.770      2.500   -343.000      2.000 
     2.000      2.790      2.290      3.750    -35.326      1.140      1.090 
     2.728      0.205      2.258     10.100      1.310      2.728      1.547 
     1.591      1.689      2.186    208.800    210.400      0.212      0.215 
     0.393    474.477    675.413    396.535 
   687.700 
     0.094     18.143      2.660      2.660      2.550   -343.200      1.990 
     1.970      2.760      2.240      3.660    -35.236      1.165      1.110 
     2.618      0.207      2.269     10.600      1.330      2.618      1.524 
     1.567      1.679      2.134    208.900    210.600      0.212      0.215 
     0.387    473.586    674.350    396.450 
   687.800 
     0.098     20.554      2.680      2.650      2.610   -343.200      1.990 
     1.930      2.710      2.170      3.600    -35.147      1.245      1.190 
     2.608      0.208      2.256     10.900      1.340      2.608      1.507 
     1.558      1.684      2.117    209.000    211.000      0.212      0.215 
     0.384    472.543    673.256    396.212 
   687.900 
     0.106     25.134      2.630      2.670      2.680   -343.300      1.990 
     1.900      2.660      2.160      3.540    -35.057      1.330      1.280 
     2.565      0.209      2.256     10.600      1.320      2.565      1.495 
     1.557      1.684      2.091    208.900    211.000      0.212      0.215 
     0.391    471.346    671.951    395.936 
   688.000 
     0.114     29.712      2.620      2.590      2.750   -343.400      1.980 
     1.870      2.610      2.170      3.470    -35.168      1.380      1.340 
     2.424      0.210      2.246     10.600      1.310      2.424      1.486 
     1.556      1.672      2.031    211.000    210.900      0.213      0.215 
     0.395    470.132    670.593    395.830 
   688.100 
     0.150     36.872      2.680      2.540      2.820   -343.400      1.980 
     1.840      2.570      2.140      3.430    -35.178      1.430      1.360 
     2.341      0.210      2.250     10.500      1.280      2.341      1.472 
     1.549      1.661      1.974    211.400    210.700      0.213      0.215 
     0.408    468.901    669.262    395.743 
   688.200 
     0.193     44.669      2.630      2.480      2.920   -343.400      1.990 
     1.800      2.530      2.110      3.410    -35.289      1.475      1.390 
     2.348      0.210      2.252     10.500      1.270      2.348      1.461 
     1.551      1.667      1.979    211.600    211.600      0.213      0.215 
     0.413    468.179    667.930    395.595 
   688.300 
     0.224     50.291      2.580      2.420      3.020   -343.400      2.010 
     1.770      2.500      2.070      3.420    -35.299      1.495      1.420 
     2.308      0.211      2.266     10.400      1.290      2.308      1.452 
     1.559      1.675      1.978    211.200    211.100      0.213      0.215 
     0.403    468.223    666.508    395.441 
   688.400 
     0.210     47.217      2.630      2.400      3.090   -343.300      2.030 
     1.740      2.470      2.140      3.430    -35.410      1.480      1.390 
     2.338      0.211      2.276     10.200      1.290      2.338      1.453 
     1.574      1.687      2.002    210.100    211.100      0.212      0.215 
     0.402    468.005    665.084    395.152 
   688.500 
     0.196     44.145      2.780      2.350      3.130   -343.200      2.050 
     1.720      2.450      2.150      3.460    -35.320      1.495      1.400 
     2.374      0.212      2.292      9.900      1.280      2.374      1.460 
     1.595      1.714      2.037    212.000    211.800      0.214      0.215 
     0.404    467.611    664.682    394.830 
