~Version Information
#-------------------
Vers.          2.0: CWLS log ASCII Standart - VERSION 2.0
WRAP.          YES: Multiple lines per depth step
~Well Information Block
#----------------------
#MNEM.UNIT    VALUE: DESCRIPTION
#----.----  -------: -------------
STRT.M           0: First Depth In File
STOP.M       964.2: Last Depth In File
STEP.M         0.1: Depth Increment
NULL.      -999.25: Null Value
COMP.             : Company Name
WELL.          318: Well Name
FLD .     KARATUBE: Field
LOC .             : Location
CTRY.             : Country
SRVC. STEPANOV D.V.: Service Company
DATE.     25/07/05: Date
UWI .             : Unique Well ID
~Parameter Information
#---------------------
#MNEM.UNIT    VALUE: DESCRIPTION
#----.----  -------: ---------------
UPNG.         6085: 
UPGR.          691: 
FD  .G/C3     1.14: Density of hole liquid
GGRD.DC/M    0.033: Geothermal gradient
VELO.M/HR      400: Log velocity
NGGR.         0.11: Factor to sensitivity
~Curve Information Block
#-----------------------
#MNEM.UNIT         : CURVE DESCRIPTION
#----.----         : -----------------
DEPT.M            : Depth column
DEVI.DEG          : deviation
AZIM.DEG          : Azimuth
PZ  .OHMM         : apparent resistance, M11N1A sonde
GZ3 .OHMM         : apparent resistance, A2.0M0.5N sonde
GZ3B.OHMM         : apparent resistance, N0.5M2A sonde
SP  .MV           : Static polarization
LL3 .OHMM         : Laterolog
GZ5 .OHMM         : apparent resistance, A8.0M1.0N sonde
GZ4 .OHMM         : apparent resistance, A4.0M0.5N sonde
GZ1 .OHMM         : apparent resistance, A0.4M0.1N sonde
GZ2 .OHMM         : apparent resistance, A1.0M0.1N sonde
SP  .             : Static polarization
MINV.OHMM         : Mikrogradient Sonde
MNOR.OHMM         : Mikropotential Sonde
MLL .OHMM         : Microlaterolog 
MCAL.M            : Microcaliper
RHOB.G/C3         :  Gamma-Gamma Log Density
GR  .MKR/H        : Gamma ray log
RNGL.C/C          : Neuton Gamma Loging      
Ro05.OHMM         : Resistifity IPD1(0.5m zond)
Ro20.OHMM         : Resistifity IPD5 (2m zond)
Ro14.OHMM         : Resistifity IPD4 (1.4m zond)
Ro10.OHMM         : Resistifity IPD3(1m zond)
Ro07.OHMM         : Resistifity IPD2 (0.7m zond)
CAL1.MM           : Profile1
CAL2.MM           : Profile1
CALI.M            : Caliper
BSC .M            : BS
NGP .DECF         :  Neutron Porosity from NGL
T1  .MKS          : Time of wave run - 1 cannel
T2  .MKS          : Time of wave run - 2 cannel
DTP .MKS/M        : Interval time of run of longitudal wave
~Other Information
#-----------------
~Ascii Log Data
# ...
   360.800 
     0.343    280.389      2.960      3.770      4.530   -342.500      2.630 
     3.130      4.140      1.870      4.040    -25.569      0.925      0.930 
     1.790      0.197      2.049     10.000      1.240      1.790      3.260 
     3.349      2.929      2.469    225.300    203.200      0.216      0.215 
     0.423    607.136    881.389    560.436 
   360.900 
     0.358    278.765      3.020      3.830      4.610   -342.300      2.700 
     3.110      4.110      1.900      4.000    -25.366      0.950      0.960 
     1.638      0.198      2.061     10.100      1.240      1.638      3.226 
     3.187      2.696      2.267    221.200    204.200      0.214      0.215 
     0.425    603.109    881.273    560.096 
   361.000 
     0.373    277.142      3.010      3.880      4.600   -342.200      2.750 
     3.080      4.080      1.930      4.050    -25.162      0.920      0.950 
     1.543      0.198      2.065     10.700      1.240      1.543      3.161 
     3.084      2.552      2.094    216.100    205.500      0.212      0.215 
     0.429    597.884    878.290    559.579 
   361.100 
     0.385    276.400      3.030      3.920      4.610   -342.200      2.790 
     3.050      4.060      1.980      4.070    -24.959      0.900      0.940 
     1.533      0.198      2.067     10.700      1.230      1.533      3.121 
     3.050      2.517      2.071    210.200    205.700      0.209      0.215 
     0.436    591.472    874.987    555.869 
   361.200 
     0.394    276.541      3.100      3.960      4.590   -342.100      2.820 
     3.020      4.040      1.960      4.030    -24.856      0.970      1.040 
     1.557      0.199      2.066     11.000      1.270      1.557      3.116 
     3.067      2.537      2.088    201.100    204.900      0.205      0.215 
     0.420    583.284    870.996    551.359 
   361.300 
     0.402    276.681      3.170      3.980      4.570   -342.200      2.840 
     3.000      4.020      1.970      4.060    -24.953      0.995      1.110 
     1.580      0.201      2.064     11.300      1.230      1.580      3.156 
     3.114      2.563      2.134    200.100    206.400      0.205      0.215 
     0.442    581.932    867.007    542.829 
   361.400 
     0.381    278.071      3.250      4.010      4.600   -342.300      2.870 
     2.990      4.000      2.020      4.040    -24.949      1.005      1.080 
     1.727      0.202      2.058     11.300      1.240      1.727      3.220 
     3.197      2.654      2.282    200.400    208.600      0.206      0.215 
     0.436    590.844    861.867    534.296 
   361.500 
     0.356    279.600      3.210      4.070      4.620   -342.300      2.890 
     2.970      3.990      2.050      4.000    -25.046      0.965      1.090 
     1.847      0.203      2.075     11.500      1.220      1.847      3.276 
     3.278      2.771      2.443    200.400    209.900      0.207      0.215 
     0.447    593.734    856.598    531.833 
   361.600 
     0.343    280.659      3.220      4.110      4.660   -342.300      2.910 
     2.960      3.980      2.080      4.060    -25.043      0.925      1.020 
     1.795      0.203      2.060     11.500      1.230      1.795      3.324 
     3.308      2.777      2.404    201.700    210.400      0.208      0.215 
     0.442    590.606    851.887    530.045 
   361.700 
     0.359    280.622      3.210      4.160      4.650   -342.400      2.930 
     2.960      3.980      2.120      4.090    -25.139      0.950      1.000 
     1.794      0.204      2.065     11.600      1.260      1.794      3.368 
     3.292      2.765      2.391    203.200    210.700      0.209      0.215 
     0.427    587.693    847.238    528.055 
   361.800 
     0.376    280.586      3.290      4.180      4.620   -342.300      2.970 
     2.960      3.970      2.170      4.080    -25.236      0.960      1.040 
     1.834      0.204      2.072     11.300      1.210      1.834      3.399 
     3.330      2.815      2.447    200.500    212.600      0.208      0.215 
     0.451    584.995    842.620    526.065 
   361.900 
     0.377    278.716      3.410      4.230      4.660   -342.300      3.010 
     2.960      3.980      2.190      4.170    -25.233      0.945      1.070 
     1.866      0.205      2.075     10.700      1.150      1.866      3.459 
     3.399      2.905      2.512    200.400    212.900      0.209      0.215 
     0.481    582.432    838.000    521.909 
   362.000 
     0.369    275.626      3.480      4.300      4.710   -342.400      3.060 
     2.960      3.980      2.190      4.190    -25.130      0.925      1.130 
     1.933      0.206      2.087     10.300      1.180      1.933      3.526 
     3.506      3.024      2.606    203.600    213.800      0.210      0.215 
     0.460    580.003    834.551    517.512 
   362.100 
     0.361    272.535      3.500      4.330      4.700   -342.100      3.110 
     2.960      3.990      2.170      4.320    -25.126      0.935      1.180 
     2.032      0.208      2.084     10.300      1.190      2.032      3.581 
     3.587      3.106      2.724    205.600    219.600      0.215      0.215 
     0.452    577.811    831.103    508.129 
   362.200 
     0.352    273.752      3.530      4.390      4.680   -342.000      3.170 
     2.960      4.000      2.170      4.340    -25.123      0.975      1.120 
     2.069      0.210      2.081     10.100      1.230      2.069      3.602 
     3.611      3.126      2.761    209.000    223.200      0.218      0.215 
     0.428    575.976    828.547    498.193 
   362.300 
     0.342    275.446      3.550      4.380      4.690   -341.800      3.220 
     2.960      4.010      2.180      4.410    -25.220      0.935      0.950 
     2.073      0.211      2.079      9.800      1.190      2.073      3.587 
     3.556      3.070      2.740    212.700    232.200      0.225      0.215 
     0.444    574.370    825.992    496.793 
   362.400 
     0.343    276.718      3.540      4.400      4.710   -341.700      3.240 
     2.960      4.030      2.190      4.440    -25.317      0.885      0.910 
     2.046      0.209      2.052      9.400      1.220      2.046      3.520 
     3.479      2.982      2.686    213.000    227.600      0.223      0.215 
     0.427    573.107    823.905    495.392 
   362.500 
     0.359    277.356      3.520      4.450      4.710   -341.700      3.190 
     2.970      4.050      2.220      4.520    -25.513      0.905      0.950 
     1.928      0.207      2.055      9.300      1.220      1.928      3.444 
     3.371      2.863      2.525    213.300    215.300      0.216      0.215 
     0.429    571.763    821.870    494.771 
   362.600 
     0.376    277.995      3.500      4.510      4.760   -342.000      3.130 
     2.980      4.070      2.260      4.580    -25.810      0.885      0.950 
     1.714      0.206      2.058      9.300      1.220      1.714      3.393 
     3.265      2.724      2.341    203.400    214.700      0.211      0.215 
     0.431    570.299    818.489    494.150 
   362.700 
     0.364    279.263      3.490      4.480      4.880   -342.200      3.060 
     3.000      4.080      2.270      4.640    -26.107      0.815      0.910 
     1.662      0.204      2.039      9.400      1.210      1.662      3.416 
     3.262      2.684      2.287    201.200    216.900      0.211      0.215 
     0.437    568.528    814.958    493.970 
   362.800 
     0.339    280.800      3.560      4.510      5.020   -342.600      3.010 
     3.020      4.100      2.250      4.690    -26.503      0.740      0.890 
     1.660      0.203      2.026      9.300      1.220      1.660      3.506 
     3.419      2.824      2.387    200.300    218.900      0.212      0.215 
     0.431    566.451    808.215    493.791 
   362.900 
     0.315    282.336      3.600      4.580      5.180   -343.000      3.000 
     3.040      4.120      2.250      4.770    -26.900      0.720      0.860 
     1.807      0.202      2.032      9.300      1.240      1.807      3.693 
     3.761      3.220      2.660    200.300    217.100      0.211      0.215 
     0.421    563.370    801.113    493.638 
