~Version Information
#-------------------
Vers.          2.0: CWLS log ASCII Standart - VERSION 2.0
WRAP.          YES: Multiple lines per depth step
~Well Information Block
#----------------------
#MNEM.UNIT    VALUE: DESCRIPTION
#----.----  -------: -------------
STRT.M           0: First Depth In File
STOP.M       964.2: Last Depth In File
STEP.M         0.1: Depth Increment
NULL.      -999.25: Null Value
COMP.             : Company Name
WELL.          318: Well Name
FLD .     KARATUBE: Field
LOC .             : Location
CTRY.             : Country
SRVC. STEPANOV D.V.: Service Company
DATE.     25/07/05: Date
UWI .             : Unique Well ID
~Parameter Information
#---------------------
#MNEM.UNIT    VALUE: DESCRIPTION
#----.----  -------: ---------------
UPNG.         6085: 
UPGR.          691: 
FD  .G/C3     1.14: Density of hole liquid
GGRD.DC/M    0.033: Geothermal gradient
VELO.M/HR      400: Log velocity
NGGR.         0.11: Factor to sensitivity
~Curve Information Block
#-----------------------
#MNEM.UNIT         : CURVE DESCRIPTION
#----.----         : -----------------
DEPT.M            : Depth column
DEVI.DEG          : deviation
AZIM.DEG          : Azimuth
PZ  .OHMM         : apparent resistance, M11N1A sonde
GZ3 .OHMM         : apparent resistance, A2.0M0.5N sonde
GZ3B.OHMM         : apparent resistance, N0.5M2A sonde
SP  .MV           : Static polarization
LL3 .OHMM         : Laterolog
GZ5 .OHMM         : apparent resistance, A8.0M1.0N sonde
GZ4 .OHMM         : apparent resistance, A4.0M0.5N sonde
GZ1 .OHMM         : apparent resistance, A0.4M0.1N sonde
GZ2 .OHMM         : apparent resistance, A1.0M0.1N sonde
SP  .             : Static polarization
MINV.OHMM         : Mikrogradient Sonde
MNOR.OHMM         : Mikropotential Sonde
MLL .OHMM         : Microlaterolog 
MCAL.M            : Microcaliper
RHOB.G/C3         :  Gamma-Gamma Log Density
GR  .MKR/H        : Gamma ray log
RNGL.C/C          : Neuton Gamma Loging      
Ro05.OHMM         : Resistifity IPD1(0.5m zond)
Ro20.OHMM         : Resistifity IPD5 (2m zond)
Ro14.OHMM         : Resistifity IPD4 (1.4m zond)
Ro10.OHMM         : Resistifity IPD3(1m zond)
Ro07.OHMM         : Resistifity IPD2 (0.7m zond)
CAL1.MM           : Profile1
CAL2.MM           : Profile1
CALI.M            : Caliper
BSC .M            : BS
NGP .DECF         :  Neutron Porosity from NGL
T1  .MKS          : Time of wave run - 1 cannel
T2  .MKS          : Time of wave run - 2 cannel
DTP .MKS/M        : Interval time of run of longitudal wave
~Other Information
#-----------------
~Ascii Log Data
# ...
   957.000 
     0.108    276.543   -999.250   -999.250   -999.250   -999.250   1929.430 
  -999.250   -999.250   -999.250   -999.250   -999.250      0.435      0.410 
   119.444      0.122      1.896      1.800      7.150    119.444    200.000 
   200.000     19.319     40.997     89.600    132.700      0.115      0.215 
    -0.013    308.217    425.121    231.659 
   957.100 
     0.113    273.169   -999.250   -999.250   -999.250   -999.250   1822.610 
  -999.250   -999.250   -999.250   -999.250   -999.250      0.445      0.420 
   119.444      0.122      1.913      1.600      7.130    119.444    200.000 
   200.000     19.358     40.997     88.200    131.600      0.114      0.215 
    -0.013    308.714    424.914    231.448 
   957.200 
     0.106    278.002   -999.250   -999.250   -999.250   -999.250   1796.660 
  -999.250   -999.250   -999.250   -999.250   -999.250      0.490      0.460 
   121.948      0.122      1.918      1.700      7.130    121.948    200.000 
   200.000     19.438     40.865     88.100    131.700      0.114      0.215 
    -0.013    308.910    424.708    231.500 
   957.300 
     0.101    281.910   -999.250   -999.250   -999.250   -999.250   1769.690 
  -999.250   -999.250   -999.250   -999.250   -999.250      0.475      0.460 
   123.668      0.120      1.902      1.600      7.120    123.668    200.000 
   200.000     19.358     40.734     87.400    131.300      0.113      0.215 
    -0.013    308.654    423.953    231.581 
   957.400 
     0.108    277.505   -999.250   -999.250   -999.250   -999.250   1690.830 
  -999.250   -999.250   -999.250   -999.250   -999.250      0.480      0.470 
   122.803      0.118      1.913      1.700      7.200    122.803    200.000 
   200.000     19.518     40.734     86.500    131.000      0.113      0.215 
    -0.013   -999.250   -999.250   -999.250 
   957.500 
     0.110    272.980   -999.250   -999.250   -999.250   -999.250   1837.250 
  -999.250   -999.250   -999.250   -999.250   -999.250      0.460      0.460 
   124.545      0.115      1.903      1.800      7.190    124.545    200.000 
   200.000     19.438     40.473     84.700    127.700      0.110      0.215 
    -0.013   -999.250   -999.250   -999.250 
   957.600 
     0.089    267.957   -999.250   -999.250   -999.250   -999.250   1976.900 
  -999.250   -999.250   -999.250   -999.250   -999.250      0.465      0.470 
   132.955      0.112      1.893      1.800      7.290    132.955    200.000 
   200.000     19.438     40.473     82.400    121.600      0.105      0.215 
    -0.014   -999.250   -999.250   -999.250 
   957.700 
     0.068    262.947   -999.250   -999.250   -999.250   -999.250   1959.240 
  -999.250   -999.250   -999.250   -999.250   -999.250      0.435      0.440 
   126.331      0.108      1.878      1.900      7.260    126.331    200.000 
   200.000     19.598     40.216     80.000    112.700      0.099      0.215 
    -0.014   -999.250   -999.250   -999.250 
   957.800 
     0.084    273.458   -999.250   -999.250   -999.250   -999.250   2067.140 
  -999.250   -999.250   -999.250   -999.250   -999.250      0.415      0.420 
   132.955      0.104      1.854      1.900      7.390    132.955    200.000 
   200.000     19.598     40.473     77.000     98.900      0.090      0.215 
    -0.015   -999.250   -999.250   -999.250 
   957.900 
     0.099    283.976   -999.250   -999.250   -999.250   -999.250   1969.560 
  -999.250   -999.250   -999.250   -999.250   -999.250      0.445      0.440 
   141.316      0.101      1.851      1.800      7.410    141.316    200.000 
   200.000     19.598     40.344     75.000     87.600      0.082      0.215 
    -0.016   -999.250   -999.250   -999.250 
   958.000 
     0.093    281.713   -999.250   -999.250   -999.250   -999.250   1954.200 
  -999.250   -999.250   -999.250   -999.250   -999.250      0.445      0.440 
   147.030      0.101      1.870      1.900      7.500    147.030    200.000 
   200.000     19.638     39.834     73.000     78.100      0.076      0.215 
    -0.016   -999.250   -999.250   -999.250 
   958.100 
     0.085    278.036   -999.250   -999.250   -999.250   -999.250   1844.480 
  -999.250   -999.250   -999.250   -999.250   -999.250      0.445      0.450 
   157.076      0.101      1.885      1.800      7.410    157.076    200.000 
   200.000     19.679     39.834     72.400     75.600      0.074      0.215 
    -0.016   -999.250   -999.250   -999.250 
   958.200 
     0.089    280.626   -999.250   -999.250   -999.250   -999.250   2009.780 
  -999.250   -999.250   -999.250   -999.250   -999.250      0.445      0.440 
   171.485      0.101      1.892      1.700      7.280    171.485    200.000 
   200.000     19.638     39.088     72.300     75.300      0.074      0.215 
    -0.014   -999.250   -999.250   -999.250 
   958.300 
     0.097    284.778   -999.250   -999.250   -999.250   -999.250   1779.730 
  -999.250   -999.250   -999.250   -999.250   -999.250      0.445      0.440 
   192.215      0.101      1.867      1.900      7.270    192.215    200.000 
   200.000     19.842     38.604     72.000     74.800      0.074      0.215 
    -0.014   -999.250   -999.250   -999.250 
   958.400 
     0.095    283.792   -999.250   -999.250   -999.250   -999.250   -999.250 
  -999.250   -999.250   -999.250   -999.250   -999.250      0.445      0.450 
   200.000      0.101      1.882      1.800      7.310    200.000    200.000 
   200.000     20.092     38.129     72.500     75.300      0.074      0.215 
    -0.015   -999.250   -999.250   -999.250 
   958.500 
     0.085    279.388   -999.250   -999.250   -999.250   -999.250   -999.250 
  -999.250   -999.250   -999.250   -999.250   -999.250      0.445      0.450 
   200.000      0.101      1.892      1.900      7.250    200.000    200.000 
   200.000     20.303     37.895     72.100     75.000      0.074      0.215 
    -0.014   -999.250   -999.250   -999.250 
   958.600 
     0.084    270.799   -999.250   -999.250   -999.250   -999.250   -999.250 
  -999.250   -999.250   -999.250   -999.250   -999.250      0.445      0.450 
   200.000      0.101      1.899      1.900      7.250    200.000    200.000 
   200.000     20.518     37.208     72.500     75.300      0.074      0.215 
    -0.014   -999.250   -999.250   -999.250 
   958.700 
     0.086    261.173   -999.250   -999.250   -999.250   -999.250   -999.250 
  -999.250   -999.250   -999.250   -999.250   -999.250      0.445      0.450 
  -999.250      0.101      1.895      1.800      7.290   -999.250    200.000 
   200.000     20.737     36.983     72.300     75.300      0.074      0.215 
    -0.014   -999.250   -999.250   -999.250 
   958.800 
     0.086    265.124   -999.250   -999.250   -999.250   -999.250   -999.250 
  -999.250   -999.250   -999.250   -999.250   -999.250      0.445      0.450 
  -999.250      0.101      1.885      1.700      7.240   -999.250    200.000 
   200.000     21.140     36.322     72.400     75.200      0.074      0.215 
    -0.014   -999.250   -999.250   -999.250 
   958.900 
     0.084    274.892   -999.250   -999.250   -999.250   -999.250   -999.250 
  -999.250   -999.250   -999.250   -999.250   -999.250      0.445      0.450 
  -999.250      0.101      1.878      1.700      7.260   -999.250    200.000 
   200.000     21.369   -999.250     72.300     75.200      0.074      0.215 
    -0.014   -999.250   -999.250   -999.250 
   959.000 
     0.094    278.060   -999.250   -999.250   -999.250   -999.250   -999.250 
  -999.250   -999.250   -999.250   -999.250   -999.250      0.445      0.440 
  -999.250      0.101      1.877      1.800      7.240   -999.250    200.000 
   200.000     21.697   -999.250     72.300     75.200      0.074      0.215 
    -0.014   -999.250   -999.250   -999.250 
   959.100 
     0.116    274.648   -999.250   -999.250   -999.250   -999.250   -999.250 
  -999.250   -999.250   -999.250   -999.250   -999.250      0.445      0.440 
  -999.250      0.101      1.879      1.600      7.220   -999.250    200.000 
   200.000   -999.250   -999.250     72.100     75.300      0.074      0.215 
    -0.014   -999.250   -999.250   -999.250 
