~Version Information
#-------------------
Vers.          2.0: CWLS log ASCII Standart - VERSION 2.0
WRAP.          YES: Multiple lines per depth step
~Well Information Block
#----------------------
#MNEM.UNIT    VALUE: DESCRIPTION
#----.----  -------: -------------
STRT.M           0: First Depth In File
STOP.M       964.2: Last Depth In File
STEP.M         0.1: Depth Increment
NULL.      -999.25: Null Value
COMP.             : Company Name
WELL.          318: Well Name
FLD .     KARATUBE: Field
LOC .             : Location
CTRY.             : Country
SRVC. STEPANOV D.V.: Service Company
DATE.     25/07/05: Date
UWI .             : Unique Well ID
~Parameter Information
#---------------------
#MNEM.UNIT    VALUE: DESCRIPTION
#----.----  -------: ---------------
UPNG.         6085: 
UPGR.          691: 
FD  .G/C3     1.14: Density of hole liquid
GGRD.DC/M    0.033: Geothermal gradient
VELO.M/HR      400: Log velocity
NGGR.         0.11: Factor to sensitivity
~Curve Information Block
#-----------------------
#MNEM.UNIT         : CURVE DESCRIPTION
#----.----         : -----------------
DEPT.M            : Depth column
DEVI.DEG          : deviation
AZIM.DEG          : Azimuth
PZ  .OHMM         : apparent resistance, M11N1A sonde
GZ3 .OHMM         : apparent resistance, A2.0M0.5N sonde
GZ3B.OHMM         : apparent resistance, N0.5M2A sonde
SP  .MV           : Static polarization
LL3 .OHMM         : Laterolog
GZ5 .OHMM         : apparent resistance, A8.0M1.0N sonde
GZ4 .OHMM         : apparent resistance, A4.0M0.5N sonde
GZ1 .OHMM         : apparent resistance, A0.4M0.1N sonde
GZ2 .OHMM         : apparent resistance, A1.0M0.1N sonde
SP  .             : Static polarization
MINV.OHMM         : Mikrogradient Sonde
MNOR.OHMM         : Mikropotential Sonde
MLL .OHMM         : Microlaterolog 
MCAL.M            : Microcaliper
RHOB.G/C3         :  Gamma-Gamma Log Density
GR  .MKR/H        : Gamma ray log
RNGL.C/C          : Neuton Gamma Loging      
Ro05.OHMM         : Resistifity IPD1(0.5m zond)
Ro20.OHMM         : Resistifity IPD5 (2m zond)
Ro14.OHMM         : Resistifity IPD4 (1.4m zond)
Ro10.OHMM         : Resistifity IPD3(1m zond)
Ro07.OHMM         : Resistifity IPD2 (0.7m zond)
CAL1.MM           : Profile1
CAL2.MM           : Profile1
CALI.M            : Caliper
BSC .M            : BS
NGP .DECF         :  Neutron Porosity from NGL
T1  .MKS          : Time of wave run - 1 cannel
T2  .MKS          : Time of wave run - 2 cannel
DTP .MKS/M        : Interval time of run of longitudal wave
~Other Information
#-----------------
~Ascii Log Data
# ...
   576.400 
     0.273    173.638      2.500      2.250      2.690   -343.900      1.960 
     1.460      1.910      2.130      3.440    -26.346      1.155      1.130 
     1.937      0.213      1.810      8.900      1.180      1.937      1.813 
     1.857      1.747      1.849    211.300    210.300      0.214      0.215 
     0.449    519.349    746.448    459.997 
   576.500 
     0.258    172.110      2.550      2.310      2.720   -344.000      1.940 
     1.490      1.930      2.130      3.500    -26.256      0.975      0.960 
     1.916      0.214      1.738      8.400      1.170      1.916      1.864 
     1.883      1.752      1.830    209.900    208.700      0.212      0.215 
     0.451    524.831    750.304    462.832 
   576.600 
     0.265    167.626      2.510      2.390      2.730   -344.300      1.940 
     1.520      1.960      2.140      3.540    -26.267      1.005      0.990 
     1.895      0.214      1.669      8.000      1.120      1.895      1.949 
     1.944      1.787      1.834    212.000    210.600      0.214      0.215 
     0.476    528.997    754.159    464.517 
   576.700 
     0.272    163.144      2.490      2.430      2.760   -344.400      1.970 
     1.550      1.980      2.090      3.560    -26.277      1.175      1.150 
     1.921      0.215      1.614      7.100      1.060      1.921      2.060 
     2.076      1.898      1.902    209.000    212.000      0.213      0.215 
     0.489    531.849    757.940    465.871 
   576.800 
     0.271    161.128      2.540      2.470      2.750   -344.300      2.020 
     1.590      2.000      2.070      3.630    -26.388      1.425      1.400 
     2.076      0.216      1.561      6.300      1.050      2.076      2.232 
     2.262      2.102      2.112    211.000    213.800      0.215      0.215 
     0.489    533.922    761.710    465.390 
   576.900 
     0.260    162.814      2.530      2.500      2.710   -344.400      2.100 
     1.630      2.030      2.090      3.650    -26.398      1.805      1.790 
     2.428      0.216      1.508      5.700      1.020      2.428      2.361 
     2.442      2.300      2.320    211.800    214.300      0.216      0.215 
     0.488    535.221    763.117    464.908 
   577.000 
     0.248    164.499      2.540      2.530      2.630   -344.300      2.200 
     1.660      2.060      2.120      3.730    -26.509      1.995      2.010 
     2.304      0.216      1.486      5.800      1.010      2.304      2.433 
     2.516      2.319      2.221    212.500    214.000      0.216      0.215 
     0.488    535.853    764.521    462.808 
   577.100 
     0.261    170.342      2.530      2.560      2.510   -344.200      2.270 
     1.680      2.100      2.180      3.710    -26.519      1.900      1.940 
     2.032      0.216      1.537      6.200      1.050      2.032      2.399 
     2.443      2.203      2.023    212.500    214.000      0.216      0.215 
     0.488    535.821    762.188    460.708 
   577.200 
     0.281    177.216      2.500      2.530      2.360   -344.200      2.210 
     1.720      2.120      2.220      3.710    -26.630      1.700      1.770 
     1.875      0.215      1.641      7.200      1.070      1.875      2.297 
     2.316      2.096      1.922    212.100    214.900      0.216      0.215 
     0.488    534.215    759.853    457.164 
   577.300 
     0.298    181.515      2.470      2.500      2.230   -344.100      2.090 
     1.750      2.140      2.250      3.640    -26.740      1.185      1.280 
     1.693      0.214      1.815      8.100      1.090      1.693      2.183 
     2.211      1.993      1.789    216.300    222.200      0.222      0.215 
     0.485    531.038    756.863    453.461 
   577.400 
     0.305    175.527      2.430      2.460      2.160   -343.900      2.000 
     1.780      2.160      2.230      3.560    -26.851      0.755      0.820 
     1.712      0.211      1.943      9.000      1.130      1.712      2.099 
     2.198      2.010      1.867    212.100    243.200      0.232      0.215 
     0.471    526.909    753.870    449.811 
   577.500 
     0.313    169.542      2.380      2.440      2.080   -343.700      1.910 
     1.810      2.170      2.250      3.530    -26.961      0.985      1.050 
     2.354      0.211      2.031      9.400      1.150      2.354      2.052 
     2.226      2.192      2.217    211.300    211.800      0.213      0.215 
     0.469    520.565    749.365    446.162 
   577.600 
     0.305    167.303      2.390      2.380      2.040   -343.600      1.890 
     1.830      2.180      2.290      3.560    -27.172      1.215      1.180 
     2.196      0.212      2.070      9.600      1.220      2.196      1.993 
     2.211      2.160      2.154    211.600    211.400      0.213      0.215 
     0.432    514.982    744.861    442.141 
   577.700 
     0.283    168.806      2.320      2.340      2.010   -343.300      1.920 
     1.840      2.180      2.190      3.530    -27.382      1.355      1.310 
     2.032      0.212      2.068      9.700      1.230      2.032      1.925 
     2.102      1.977      1.925    210.900    210.100      0.212      0.215 
     0.428    510.157    738.695    438.117 
   577.800 
     0.261    170.310      2.310      2.330      1.960   -343.000      1.930 
     1.850      2.180      2.100      3.560    -27.693      1.360      1.310 
     1.954      0.213      2.055      9.900      1.220      1.954      1.840 
     1.950      1.834      1.843    211.600    210.400      0.213      0.215 
     0.434    505.727    732.118    435.692 
   577.900 
     0.287    170.086      2.290      2.340      1.920   -342.700      1.920 
     1.850      2.180      2.080      3.560    -27.903      1.365      1.320 
     1.968      0.213      2.054      9.900      1.250      1.968      1.750 
     1.864      1.753      1.821    211.800    210.600      0.213      0.215 
     0.419    501.557    727.480    433.266 
   578.000 
     0.324    169.430      2.260      2.350      1.870   -342.600      1.900 
     1.840      2.170      2.070      3.530    -27.914      1.375      1.330 
     1.936      0.212      2.060      9.600      1.260      1.936      1.695 
     1.807      1.697      1.785    212.000    210.400      0.213      0.215 
     0.412    498.178    723.012    432.624 
   578.100 
     0.332    169.284      2.280      2.350      1.830   -342.300      1.870 
     1.840      2.160      2.060      3.510    -28.124      1.355      1.310 
     1.863      0.212      2.064      9.600      1.290      1.863      1.658 
     1.748      1.643      1.740    211.400    209.800      0.213      0.215 
     0.399    495.587    720.036    431.982 
   578.200 
     0.296    169.900      2.300      2.310      1.830   -342.100      1.850 
     1.830      2.150      2.020      3.420    -28.335      1.350      1.300 
     1.897      0.212      2.033      9.600      1.300      1.897      1.626 
     1.704      1.634      1.754    211.700    209.900      0.213      0.215 
     0.394    493.856    717.058    432.196 
   578.300 
     0.260    170.516      2.330      2.280      1.850   -342.000      1.820 
     1.810      2.130      2.010      3.330    -28.545      1.360      1.310 
     1.957      0.212      2.039      9.600      1.320      1.957      1.604 
     1.675      1.639      1.799    212.300    210.100      0.213      0.215 
     0.385    492.986    714.857    432.623 
   578.400 
     0.257    173.121      2.300      2.260      1.850   -341.800      1.800 
     1.790      2.100      2.030      3.240    -28.656      1.365      1.320 
     1.980      0.211      2.029      9.700      1.310      1.980      1.585 
     1.637      1.627      1.818    211.500    209.300      0.212      0.215 
     0.390    492.513    712.655    433.446 
   578.500 
     0.267    176.576      2.260      2.260      1.840   -341.700      1.790 
     1.780      2.070      2.070      3.220    -28.566      1.360      1.320 
     2.005      0.211      2.034      9.400      1.300      2.005      1.569 
     1.595      1.608      1.832    212.100    210.200      0.213      0.215 
     0.393    492.633    711.871    434.281 
