~Version Information
#-------------------
Vers.          2.0: CWLS log ASCII Standart - VERSION 2.0
WRAP.          YES: Multiple lines per depth step
~Well Information Block
#----------------------
#MNEM.UNIT    VALUE: DESCRIPTION
#----.----  -------: -------------
STRT.M           0: First Depth In File
STOP.M       964.2: Last Depth In File
STEP.M         0.1: Depth Increment
NULL.      -999.25: Null Value
COMP.             : Company Name
WELL.          318: Well Name
FLD .     KARATUBE: Field
LOC .             : Location
CTRY.             : Country
SRVC. STEPANOV D.V.: Service Company
DATE.     25/07/05: Date
UWI .             : Unique Well ID
~Parameter Information
#---------------------
#MNEM.UNIT    VALUE: DESCRIPTION
#----.----  -------: ---------------
UPNG.         6085: 
UPGR.          691: 
FD  .G/C3     1.14: Density of hole liquid
GGRD.DC/M    0.033: Geothermal gradient
VELO.M/HR      400: Log velocity
NGGR.         0.11: Factor to sensitivity
~Curve Information Block
#-----------------------
#MNEM.UNIT         : CURVE DESCRIPTION
#----.----         : -----------------
DEPT.M            : Depth column
DEVI.DEG          : deviation
AZIM.DEG          : Azimuth
PZ  .OHMM         : apparent resistance, M11N1A sonde
GZ3 .OHMM         : apparent resistance, A2.0M0.5N sonde
GZ3B.OHMM         : apparent resistance, N0.5M2A sonde
SP  .MV           : Static polarization
LL3 .OHMM         : Laterolog
GZ5 .OHMM         : apparent resistance, A8.0M1.0N sonde
GZ4 .OHMM         : apparent resistance, A4.0M0.5N sonde
GZ1 .OHMM         : apparent resistance, A0.4M0.1N sonde
GZ2 .OHMM         : apparent resistance, A1.0M0.1N sonde
SP  .             : Static polarization
MINV.OHMM         : Mikrogradient Sonde
MNOR.OHMM         : Mikropotential Sonde
MLL .OHMM         : Microlaterolog 
MCAL.M            : Microcaliper
RHOB.G/C3         :  Gamma-Gamma Log Density
GR  .MKR/H        : Gamma ray log
RNGL.C/C          : Neuton Gamma Loging      
Ro05.OHMM         : Resistifity IPD1(0.5m zond)
Ro20.OHMM         : Resistifity IPD5 (2m zond)
Ro14.OHMM         : Resistifity IPD4 (1.4m zond)
Ro10.OHMM         : Resistifity IPD3(1m zond)
Ro07.OHMM         : Resistifity IPD2 (0.7m zond)
CAL1.MM           : Profile1
CAL2.MM           : Profile1
CALI.M            : Caliper
BSC .M            : BS
NGP .DECF         :  Neutron Porosity from NGL
T1  .MKS          : Time of wave run - 1 cannel
T2  .MKS          : Time of wave run - 2 cannel
DTP .MKS/M        : Interval time of run of longitudal wave
~Other Information
#-----------------
~Ascii Log Data
# ...
   468.600 
     0.422    243.073      3.000      3.190      3.210   -341.800      2.390 
     2.480      3.320      2.150      4.040    -23.537      1.070      1.080 
     1.704      0.214      1.731      8.500      1.150      1.704      2.351 
     2.325      2.176      2.044    218.500    216.800      0.218      0.215 
     0.461    536.570    779.782    489.605 
   468.700 
     0.388    242.030      2.960      3.250      3.320   -341.700      2.380 
     2.460      3.290      2.170      4.070    -23.534      1.025      1.050 
     1.672      0.213      1.676      8.400      1.120      1.672      2.348 
     2.330      2.187      2.016    218.300    215.900      0.218      0.215 
     0.478    539.674    782.400    491.416 
   468.800 
     0.347    240.567      2.910      3.320      3.450   -341.700      2.380 
     2.440      3.270      2.210      4.080    -23.531      1.005      1.050 
     1.705      0.213      1.628      8.000      1.100      1.705      2.376 
     2.359      2.220      2.036    217.600    216.000      0.217      0.215 
     0.487    543.110    786.549    493.227 
   468.900 
     0.316    239.686      2.880      3.420      3.550   -341.700      2.390 
     2.420      3.240      2.190      4.110    -23.427      1.020      1.100 
     1.749      0.213      1.580      7.700      1.110      1.749      2.419 
     2.411      2.262      2.053    218.300    213.900      0.217      0.215 
     0.479    546.654    790.868    494.962 
   469.000 
     0.324    241.129      2.930      3.570      3.630   -341.700      2.430 
     2.410      3.230      2.150      4.180    -23.324      1.125      1.180 
     1.736      0.213      1.538      7.200      1.070      1.736      2.499 
     2.485      2.287      2.048    217.700    214.700      0.217      0.215 
     0.488    550.306    795.022    496.689 
   469.100 
     0.333    242.572      3.000      3.720      3.660   -341.600      2.470 
     2.410      3.240      2.200      4.240    -23.321      1.245      1.300 
     1.796      0.215      1.492      6.400      1.050      1.796      2.614 
     2.602      2.379      2.138    213.100    213.600      0.214      0.215 
     0.489    554.119    799.176    497.779 
   469.200 
     0.333    242.571      2.990      3.870      3.650   -341.500      2.540 
     2.430      3.250      2.330      4.350    -23.218      1.410      1.500 
     1.982      0.217      1.464      5.800      0.990      1.982      2.738 
     2.777      2.535      2.303    217.900    217.100      0.218      0.215 
     0.487    558.092    802.422    498.869 
   469.300 
     0.324    241.128      2.990      3.980      3.620   -341.400      2.660 
     2.440      3.280      2.390      4.450    -23.114      1.480      1.640 
     2.161      0.218      1.444      5.300      0.990      2.161      2.878 
     2.959      2.680      2.454    222.300    221.600      0.222      0.215 
     0.485    562.325    805.666    498.753 
   469.400 
     0.316    239.685      2.970      4.090      3.550   -341.100      2.810 
     2.470      3.320      2.420      4.510    -22.911      1.695      1.830 
     2.247      0.219      1.441      5.300      0.950      2.247      2.964 
     3.031      2.728      2.517    217.200    217.800      0.218      0.215 
     0.487    566.820    808.047    498.503 
   469.500 
     0.342    240.745      2.960      4.160      3.440   -340.700      2.900 
     2.500      3.350      2.440      4.530    -22.708      1.800      1.700 
     2.138      0.218      1.469      5.300      0.910      2.138      2.975 
     2.998      2.672      2.431    217.500    219.200      0.219      0.215 
     0.487    569.965    810.427    496.699 
   469.600 
     0.376    242.430      2.960      4.220      3.340   -340.400      2.870 
     2.550      3.400      2.470      4.530    -22.504      1.470      1.410 
     1.958      0.216      1.528      5.700      0.920      1.958      2.925 
     2.900      2.532      2.292    216.700    217.000      0.217      0.215 
     0.488    569.956    810.971    494.896 
   469.700 
     0.401    243.641      2.900      4.230      3.260   -340.300      2.770 
     2.610      3.450      2.460      4.490    -22.201      1.145      1.100 
     1.736      0.215      1.577      6.100      0.930      1.736      2.852 
     2.817      2.438      2.121    219.500    218.600      0.219      0.215 
     0.487    569.007    811.515    491.497 
   469.800 
     0.393    242.958      2.850      4.170      3.180   -340.000      2.640 
     2.660      3.510      2.470      4.480    -21.798      1.115      1.070 
     1.846      0.213      1.609      6.500      0.940      1.846      2.807 
     2.817      2.494      2.220    215.600    220.100      0.218      0.215 
     0.487    567.120    809.352    488.099 
   469.900 
     0.384    242.275      2.760      4.110      3.070   -339.500      2.500 
     2.700      3.560      2.440      4.470    -21.395      1.135      1.090 
     1.948      0.212      1.686      7.100      1.000      1.948      2.755 
     2.841      2.647      2.409    214.300    214.900      0.215      0.215 
     0.489    564.534    806.512    483.427 
   470.000 
     0.366    241.297      2.690      3.950      2.930   -339.100      2.420 
     2.740      3.620      2.360      4.390    -21.091      1.205      1.160 
     2.046      0.211      1.770      7.900      1.030      2.046      2.674 
     2.803      2.635      2.424    214.500    214.900      0.215      0.215 
     0.489    560.901    800.065    478.755 
   470.100 
     0.342    240.122      2.680      3.760      2.790   -338.800      2.360 
     2.760      3.650      2.330      4.220    -20.788      1.120      1.080 
     1.911      0.210      1.871      8.700      1.090      1.911      2.559 
     2.618      2.428      2.238    211.200    214.200      0.213      0.215 
     0.489    556.631    793.617    473.842 
   470.200 
     0.318    238.948      2.670      3.560      2.660   -338.400      2.260 
     2.780      3.670      2.220      4.010    -20.685      1.095      1.050 
     1.626      0.211      1.938      9.200      1.130      1.626      2.414 
     2.416      2.192      1.927    213.000    215.300      0.214      0.215 
     0.479    551.725    786.667    468.929 
   470.300 
     0.346    240.743      2.660      3.290      2.590   -338.300      2.130 
     2.790      3.670      2.120      3.870    -20.581      1.125      1.080 
     1.516      0.212      1.953      9.500      1.160      1.516      2.287 
     2.295      2.072      1.828    215.700    209.900      0.213      0.215 
     0.464    546.168    779.662    464.584 
   470.400 
     0.379    242.869      2.660      3.070      2.560   -338.300      2.040 
     2.780      3.640      2.090      3.820    -20.578      1.155      1.110 
     1.458      0.213      1.966      9.600      1.200      1.458      2.224 
     2.258      2.050      1.787    218.000    210.700      0.215      0.215 
     0.442    539.631    775.361    460.379 
   470.500 
     0.393    243.966      2.630      2.920      2.570   -338.100      2.010 
     2.770      3.610      2.010      3.760    -20.675      1.200      1.150 
     1.438      0.214      1.945      9.900      1.190      1.438      2.203 
     2.264      2.057      1.786    217.800    215.200      0.217      0.215 
     0.449    535.467    771.059    457.390 
   470.600 
     0.359    242.666      2.580      2.900      2.600   -338.000      2.020 
     2.750      3.560      1.910      3.740    -20.572      1.235      1.190 
     1.473      0.215      1.943     10.100      1.240      1.473      2.206 
     2.286      2.092      1.859    217.900    215.300      0.217      0.215 
     0.424    533.676    768.443    454.401 
   470.700 
     0.326    241.367      2.520      2.870      2.640   -337.900      2.030 
     2.720      3.500      1.900      3.720    -20.568      1.225      1.180 
     1.546      0.216      1.932     10.200      1.250      1.546      2.203 
     2.284      2.117      1.941    217.800    215.500      0.217      0.215 
     0.419    532.663    766.015    454.132 
