~Version Information
#-------------------
Vers.          2.0: CWLS log ASCII Standart - VERSION 2.0
WRAP.          YES: Multiple lines per depth step
~Well Information Block
#----------------------
#MNEM.UNIT    VALUE: DESCRIPTION
#----.----  -------: -------------
STRT.M           0: First Depth In File
STOP.M       964.2: Last Depth In File
STEP.M         0.1: Depth Increment
NULL.      -999.25: Null Value
COMP.             : Company Name
WELL.          318: Well Name
FLD .     KARATUBE: Field
LOC .             : Location
CTRY.             : Country
SRVC. STEPANOV D.V.: Service Company
DATE.     25/07/05: Date
UWI .             : Unique Well ID
~Parameter Information
#---------------------
#MNEM.UNIT    VALUE: DESCRIPTION
#----.----  -------: ---------------
UPNG.         6085: 
UPGR.          691: 
FD  .G/C3     1.14: Density of hole liquid
GGRD.DC/M    0.033: Geothermal gradient
VELO.M/HR      400: Log velocity
NGGR.         0.11: Factor to sensitivity
~Curve Information Block
#-----------------------
#MNEM.UNIT         : CURVE DESCRIPTION
#----.----         : -----------------
DEPT.M            : Depth column
DEVI.DEG          : deviation
AZIM.DEG          : Azimuth
PZ  .OHMM         : apparent resistance, M11N1A sonde
GZ3 .OHMM         : apparent resistance, A2.0M0.5N sonde
GZ3B.OHMM         : apparent resistance, N0.5M2A sonde
SP  .MV           : Static polarization
LL3 .OHMM         : Laterolog
GZ5 .OHMM         : apparent resistance, A8.0M1.0N sonde
GZ4 .OHMM         : apparent resistance, A4.0M0.5N sonde
GZ1 .OHMM         : apparent resistance, A0.4M0.1N sonde
GZ2 .OHMM         : apparent resistance, A1.0M0.1N sonde
SP  .             : Static polarization
MINV.OHMM         : Mikrogradient Sonde
MNOR.OHMM         : Mikropotential Sonde
MLL .OHMM         : Microlaterolog 
MCAL.M            : Microcaliper
RHOB.G/C3         :  Gamma-Gamma Log Density
GR  .MKR/H        : Gamma ray log
RNGL.C/C          : Neuton Gamma Loging      
Ro05.OHMM         : Resistifity IPD1(0.5m zond)
Ro20.OHMM         : Resistifity IPD5 (2m zond)
Ro14.OHMM         : Resistifity IPD4 (1.4m zond)
Ro10.OHMM         : Resistifity IPD3(1m zond)
Ro07.OHMM         : Resistifity IPD2 (0.7m zond)
CAL1.MM           : Profile1
CAL2.MM           : Profile1
CALI.M            : Caliper
BSC .M            : BS
NGP .DECF         :  Neutron Porosity from NGL
T1  .MKS          : Time of wave run - 1 cannel
T2  .MKS          : Time of wave run - 2 cannel
DTP .MKS/M        : Interval time of run of longitudal wave
~Other Information
#-----------------
~Ascii Log Data
# ...
   631.400 
     0.404    247.161      0.660      0.640      0.660   -341.300      0.810 
     0.720      0.980      0.650      0.870    -33.723      0.980      0.960 
     0.804      0.212      2.038      4.500      1.410      0.804      0.637 
     0.677      0.688      0.748    210.900    211.000      0.212      0.215 
     0.325    511.647    727.980    436.296 
   631.500 
     0.405    248.680      0.700      0.650      0.630   -341.000      0.810 
     0.720      0.970      0.640      0.870    -33.833      0.985      0.960 
     0.849      0.212      2.047      4.500      1.420      0.849      0.649 
     0.692      0.718      0.789    211.200    211.700      0.212      0.215 
     0.322    510.313    727.422    435.113 
   631.600 
     0.406    250.200      0.660      0.660      0.610   -340.900      0.820 
     0.730      0.960      0.630      0.860    -33.944      1.025      1.010 
     0.904      0.211      2.048      4.500      1.390      0.904      0.659 
     0.697      0.736      0.836    211.200    210.900      0.212      0.215 
     0.332    509.269    726.880    434.258 
   631.700 
     0.417    250.663      0.630      0.700      0.630   -340.600      0.820 
     0.730      0.940      0.630      0.820    -34.254      1.015      0.990 
     0.902      0.211      2.035      4.400      1.430      0.902      0.660 
     0.698      0.730      0.843    211.300    210.900      0.212      0.215 
     0.318    508.656    726.617    433.402 
   631.800 
     0.434    250.422      0.620      0.710      0.650   -340.400      0.820 
     0.730      0.930      0.690      0.820    -34.465      1.020      1.000 
     0.918      0.211      2.035      4.200      1.400      0.918      0.657 
     0.686      0.710      0.840    210.900    210.100      0.212      0.215 
     0.328    508.515    726.354    432.565 
   631.900 
     0.450    250.183      0.620      0.710      0.650   -340.200      0.810 
     0.730      0.930      0.740      0.810    -34.675      1.010      0.990 
     0.846      0.211      2.035      4.000      1.410      0.846      0.649 
     0.675      0.692      0.787    208.700    211.000      0.211      0.215 
     0.324    509.079    725.957    431.733 
   632.000 
     0.443    251.405      0.650      0.670      0.660   -339.800      0.810 
     0.720      0.930      0.820      0.800    -34.886      1.005      0.990 
     0.852      0.211      2.027      3.800      1.430      0.852      0.643 
     0.669      0.692      0.790    211.700    211.000      0.212      0.215 
     0.315    509.353    725.546    431.401 
   632.100 
     0.436    252.628      0.670      0.620      0.640   -339.400      0.800 
     0.720      0.920      0.810      0.790    -34.896      0.960      0.940 
     0.847      0.211      2.020      3.700      1.440      0.847      0.631 
     0.662      0.699      0.794    211.600    210.500      0.212      0.215 
     0.312    509.193    724.952    431.124 
   632.200 
     0.435    252.917      0.660      0.590      0.610   -339.200      0.790 
     0.700      0.910      0.740      0.790    -35.007      0.920      0.900 
     0.849      0.211      2.008      3.700      1.440      0.849      0.620 
     0.645      0.681      0.783    212.200    210.800      0.212      0.215 
     0.312    509.296    724.337    431.592 
   632.300 
     0.442    251.809      0.710      0.640      0.610   -339.000      0.780 
     0.690      0.890      0.680      0.760    -35.217      0.905      0.880 
     0.819      0.211      2.002      3.800      1.420      0.819      0.604 
     0.615      0.641      0.748    211.800    211.000      0.212      0.215 
     0.319    509.574    723.851    432.059 
   632.400 
     0.449    250.700      0.760      0.670      0.650   -338.900      0.780 
     0.680      0.880      0.660      0.800    -35.228      0.905      0.880 
     0.796      0.211      2.019      3.800      1.430      0.796      0.591 
     0.609      0.627      0.720    211.400    210.000      0.212      0.215 
     0.316    509.360    723.412    431.767 
   632.500 
     0.446    252.390      0.720      0.660      0.700   -338.900      0.780 
     0.680      0.860      0.670      0.830    -35.238      0.940      0.920 
     0.801      0.211      2.026      3.900      1.440      0.801      0.600 
     0.621      0.651      0.739    211.800    211.000      0.212      0.215 
     0.313    508.817    723.271    431.392 
   632.600 
     0.441    254.780      0.730      0.660      0.730   -338.900      0.790 
     0.680      0.840      0.710      0.840    -35.049      0.980      0.960 
     0.856      0.211      2.030      3.800      1.430      0.856      0.617 
     0.668      0.730      0.803    211.900    210.600      0.212      0.215 
     0.316    508.366    723.171    430.673 
   632.700 
     0.436    256.259      0.770      0.660      0.770   -339.200      0.810 
     0.680      0.830      0.730      0.870    -34.859      1.020      1.010 
     0.976      0.210      2.029      3.900      1.410      0.976      0.652 
     0.713      0.814      0.929    211.900    210.600      0.212      0.215 
     0.323    508.008    723.440    429.915 
   632.800 
     0.433    254.106      0.850      0.670      0.780   -339.100      0.840 
     0.680      0.820      0.710      0.860    -34.770      1.015      1.000 
     1.049      0.210      2.026      4.200      1.420      1.049      0.667 
     0.738      0.848      0.992    211.200    209.900      0.212      0.215 
     0.321    508.044    723.708    429.869 
   632.900 
     0.430    251.952      0.830      0.670      0.790   -339.200      0.860 
     0.680      0.820      0.700      0.850    -34.580      1.010      1.000 
     1.091      0.210      2.022      4.100      1.440      1.091      0.671 
     0.725      0.812      0.988    211.500    209.900      0.212      0.215 
     0.314    508.473    724.129    429.932 
   633.000 
     0.429    252.003      0.750      0.660      0.800   -339.600      0.860 
     0.680      0.820      0.720      0.880    -34.191      0.995      0.980 
     1.039      0.210      2.018      4.100      1.420      1.039      0.663 
     0.700      0.748      0.899    211.900    210.100      0.212      0.215 
     0.320    508.806    724.549    430.253 
   633.100 
     0.431    253.523      0.720      0.690      0.810   -339.800      0.880 
     0.680      0.820      0.760      0.920    -33.801      0.955      0.940 
     0.964      0.210      2.005      4.400      1.400      0.964      0.665 
     0.681      0.705      0.833    211.200    210.000      0.212      0.215 
     0.328    508.995    725.616    430.627 
   633.200 
     0.432    255.042      0.720      0.730      0.840   -340.400      0.880 
     0.670      0.820      0.860      0.980    -33.312      0.950      0.940 
     0.957      0.209      1.995      4.600      1.410      0.957      0.684 
     0.703      0.705      0.826    211.900    210.100      0.212      0.215 
     0.326    509.452    726.683    431.477 
   633.300 
     0.417    256.915      0.740      0.760      0.880   -341.000      0.890 
     0.670      0.830      0.900      1.000    -32.822      0.980      0.980 
     0.925      0.209      1.998      4.600      1.450      0.925      0.738 
     0.763      0.749      0.819    211.200    209.400      0.211      0.215 
     0.313    510.176    727.440    432.327 
   633.400 
     0.402    258.790      0.720      0.750      0.890   -341.700      0.910 
     0.670      0.830      0.920      1.020    -32.433      1.010      0.990 
     0.934      0.209      1.997      4.700      1.420      0.934      0.806 
     0.861      0.848      0.863    211.700    210.500      0.212      0.215 
     0.323    511.263    728.163    432.820 
   633.500 
     0.396    259.388      0.710      0.760      0.850   -342.200      0.920 
     0.680      0.840      0.930      0.960    -32.143      1.055      1.030 
     1.099      0.209      1.992      4.800      1.420      1.099      0.880 
     1.009      1.046      1.075    211.500    210.500      0.212      0.215 
     0.323    512.891    728.671    433.313 
