~Version Information
#-------------------
Vers.          2.0: CWLS log ASCII Standart - VERSION 2.0
WRAP.          YES: Multiple lines per depth step
~Well Information Block
#----------------------
#MNEM.UNIT    VALUE: DESCRIPTION
#----.----  -------: -------------
STRT.M           0: First Depth In File
STOP.M       964.2: Last Depth In File
STEP.M         0.1: Depth Increment
NULL.      -999.25: Null Value
COMP.             : Company Name
WELL.          318: Well Name
FLD .     KARATUBE: Field
LOC .             : Location
CTRY.             : Country
SRVC. STEPANOV D.V.: Service Company
DATE.     25/07/05: Date
UWI .             : Unique Well ID
~Parameter Information
#---------------------
#MNEM.UNIT    VALUE: DESCRIPTION
#----.----  -------: ---------------
UPNG.         6085: 
UPGR.          691: 
FD  .G/C3     1.14: Density of hole liquid
GGRD.DC/M    0.033: Geothermal gradient
VELO.M/HR      400: Log velocity
NGGR.         0.11: Factor to sensitivity
~Curve Information Block
#-----------------------
#MNEM.UNIT         : CURVE DESCRIPTION
#----.----         : -----------------
DEPT.M            : Depth column
DEVI.DEG          : deviation
AZIM.DEG          : Azimuth
PZ  .OHMM         : apparent resistance, M11N1A sonde
GZ3 .OHMM         : apparent resistance, A2.0M0.5N sonde
GZ3B.OHMM         : apparent resistance, N0.5M2A sonde
SP  .MV           : Static polarization
LL3 .OHMM         : Laterolog
GZ5 .OHMM         : apparent resistance, A8.0M1.0N sonde
GZ4 .OHMM         : apparent resistance, A4.0M0.5N sonde
GZ1 .OHMM         : apparent resistance, A0.4M0.1N sonde
GZ2 .OHMM         : apparent resistance, A1.0M0.1N sonde
SP  .             : Static polarization
MINV.OHMM         : Mikrogradient Sonde
MNOR.OHMM         : Mikropotential Sonde
MLL .OHMM         : Microlaterolog 
MCAL.M            : Microcaliper
RHOB.G/C3         :  Gamma-Gamma Log Density
GR  .MKR/H        : Gamma ray log
RNGL.C/C          : Neuton Gamma Loging      
Ro05.OHMM         : Resistifity IPD1(0.5m zond)
Ro20.OHMM         : Resistifity IPD5 (2m zond)
Ro14.OHMM         : Resistifity IPD4 (1.4m zond)
Ro10.OHMM         : Resistifity IPD3(1m zond)
Ro07.OHMM         : Resistifity IPD2 (0.7m zond)
CAL1.MM           : Profile1
CAL2.MM           : Profile1
CALI.M            : Caliper
BSC .M            : BS
NGP .DECF         :  Neutron Porosity from NGL
T1  .MKS          : Time of wave run - 1 cannel
T2  .MKS          : Time of wave run - 2 cannel
DTP .MKS/M        : Interval time of run of longitudal wave
~Other Information
#-----------------
~Ascii Log Data
# ...
   739.200 
     0.454    206.515      3.330      3.950      4.150   -352.900      2.660 
     2.350      3.640      2.030      4.350    -32.072      1.185      1.240 
     1.991      0.228      2.255      4.800      1.400      1.991      2.704 
     2.801      2.387      2.126    231.000    238.700      0.236      0.215 
     0.319    440.157    608.145    337.940 
   739.300 
     0.461    207.439      3.420      3.970      4.220   -352.900      2.690 
     2.350      3.600      2.070      4.400    -31.868      1.280      1.320 
     2.176      0.229      2.271      4.800      1.390      2.176      2.704 
     2.830      2.466      2.267    231.400    231.400      0.232      0.215 
     0.324    439.255    606.325    336.455 
   739.400 
     0.462    207.537      3.410      3.990      4.280   -352.900      2.760 
     2.350      3.570      2.170      4.450    -31.565      1.540      1.540 
     2.151      0.229      2.283      4.600      1.410      2.151      2.688 
     2.824      2.440      2.192    231.100    228.900      0.231      0.215 
     0.317    437.916    604.374    334.793 
   739.500 
     0.462    207.428      3.390      4.040      4.330   -352.700      2.820 
     2.350      3.530      2.170      4.490    -31.262      1.420      1.430 
     2.003      0.229      2.290      4.700      1.410      2.003      2.688 
     2.782      2.341      2.085    229.000    232.200      0.231      0.215 
     0.317    436.145    602.821    333.132 
   739.600 
     0.458    207.027      3.390      4.120      4.410   -352.500      2.840 
     2.360      3.510      2.200      4.550    -30.958      1.410      1.420 
     2.003      0.227      2.291      4.800      1.410      2.003      2.694 
     2.775      2.366      2.116    228.400    234.200      0.232      0.215 
     0.317    434.429    601.313    331.985 
   739.700 
     0.441    205.463      3.420      4.160      4.460   -352.200      2.880 
     2.370      3.500      2.240      4.610    -30.555      1.535      1.540 
     2.018      0.226      2.300      4.800      1.400      2.018      2.714 
     2.835      2.442      2.160    226.200    232.600      0.230      0.215 
     0.321    432.767    600.158    330.893 
   739.800 
     0.423    203.899      3.440      4.180      4.460   -351.900      2.960 
     2.380      3.500      2.290      4.680    -30.052      1.645      1.650 
     2.054      0.226      2.313      4.800      1.410      2.054      2.759 
     2.918      2.517      2.192    224.600    227.500      0.227      0.215 
     0.319    431.227    599.004    330.039 
   739.900 
     0.416    204.625      3.480      4.210      4.440   -351.400      3.060 
     2.390      3.500      2.340      4.740    -29.749      1.855      1.870 
     2.061      0.226      2.322      4.800      1.360      2.061      2.798 
     2.950      2.530      2.186    224.400    223.300      0.225      0.215 
     0.338    429.805    598.759    329.211 
   740.000 
     0.416    206.876      3.550      4.240      4.430   -350.900      3.110 
     2.400      3.510      2.380      4.790    -29.445      1.810      1.840 
     2.035      0.226      2.334      4.900      1.350      2.035      2.805 
     2.925      2.503      2.177    224.000    223.500      0.225      0.215 
     0.343    428.258    598.512    329.550 
   740.100 
     0.415    209.127      3.550      4.240      4.450   -350.700      3.070 
     2.410      3.520      2.450      4.820    -29.142      1.770      1.830 
     2.045      0.225      2.332      4.700      1.400      2.045      2.790 
     2.869      2.466      2.177    224.700    222.900      0.225      0.215 
     0.323    426.523    595.819    330.018 
   740.200 
     0.417    207.040      3.500      4.240      4.460   -350.400      3.010 
     2.420      3.540      2.490      4.820    -28.939      1.640      1.720 
     2.011      0.225      2.341      4.700      1.400      2.011      2.777 
     2.826      2.414      2.120    224.800    224.700      0.226      0.215 
     0.323    424.598    593.124    331.250 
   740.300 
     0.419    204.474      3.480      4.260      4.520   -350.000      2.950 
     2.430      3.560      2.460      4.830    -28.836      1.435      1.520 
     1.925      0.225      2.342      4.700      1.370      1.925      2.782 
     2.813      2.372      2.071    225.100    225.400      0.226      0.215 
     0.333    422.390    590.385    332.481 
   740.400 
     0.422    203.770      3.450      4.320      4.580   -349.700      2.910 
     2.440      3.600      2.460      4.880    -28.732      1.325      1.430 
     1.872      0.225      2.320      4.700      1.380      1.872      2.830 
     2.878      2.424      2.075    224.900    225.400      0.226      0.215 
     0.330    419.473    587.640    333.711 
   740.500 
     0.428    205.858      3.520      4.370      4.640   -349.600      2.920 
     2.460      3.630      2.480      4.980    -28.829      1.330      1.470 
     2.021      0.224      2.308      4.800      1.410      2.021      2.975 
     3.082      2.654      2.317    223.600    229.600      0.227      0.215 
     0.319    415.850    587.219    334.939 
   740.600 
     0.433    207.946      3.520      4.430      4.670   -349.700      2.980 
     2.480      3.670      2.500      5.120    -28.826      1.350      1.520 
     2.690      0.223      2.304      4.900      1.390      2.690      3.166 
     3.506      3.166      2.841    224.900    229.900      0.228      0.215 
     0.326    414.043    587.055    335.359 
   740.700 
     0.448    209.029      3.490      4.510      4.640   -349.600      3.120 
     2.490      3.720      2.530      5.240    -28.822      1.535      1.810 
     3.330      0.223      2.293      4.900      1.390      3.330      3.377 
     3.926      3.696      3.482    225.000    223.200      0.225      0.215 
     0.328    414.053    589.285    335.778 
   740.800 
     0.465    210.000      3.420      4.540      4.530   -349.600      3.270 
     2.510      3.780      2.550      5.300    -28.819      1.640      2.060 
     3.430      0.224      2.318      4.500      1.390      3.430      3.497 
     3.993      3.702      3.430    221.100    221.100      0.222      0.215 
     0.327    415.184    591.514    337.597 
   740.900 
     0.480    210.612      3.350      4.560      4.430   -349.600      3.290 
     2.540      3.830      2.490      5.300    -28.716      1.570      2.180 
     2.980      0.225      2.315      4.400      1.430      2.980      3.413 
     3.699      3.284      3.015    224.800    222.100      0.224      0.215 
     0.312    417.436    593.366    339.571 
   741.000 
     0.486    209.785      3.320      4.570      4.280   -349.600      3.130 
     2.570      3.880      2.440      5.190    -28.713      1.795      2.570 
     2.498      0.225      2.320      4.700      1.450      2.498      3.149 
     3.281      2.839      2.516    233.300    221.700      0.229      0.215 
     0.305    419.969    595.217    343.500 
   741.100 
     0.493    208.957      3.310      4.490      4.160   -349.500      2.890 
     2.590      3.920      2.430      5.060    -28.609      1.335      1.720 
     2.090      0.226      2.307      4.600      1.440      2.090      2.865 
     2.938      2.501      2.202    238.700    222.500      0.231      0.215 
     0.306    423.159    596.832    347.646 
   741.200 
     0.504    209.176      3.230      4.360      4.060   -349.400      2.670 
     2.610      3.950      2.420      4.930    -28.506      1.195      1.200 
     1.908      0.227      2.296      4.600      1.380      1.908      2.694 
     2.716      2.330      2.036    231.400    230.700      0.232      0.215 
     0.327    426.106    598.447    351.614 
   741.300 
     0.515    209.843      3.200      4.200      3.980   -349.300      2.540 
     2.620      3.950      2.350      4.840    -28.603      1.255      1.280 
     1.993      0.227      2.279      4.800      1.330      1.993      2.584 
     2.660      2.336      2.087    228.100    229.000      0.230      0.215 
     0.348    428.889    599.876    355.580 
